"Product","Blackbox flight data recorder by Nicholas Sherlock"
"firmwareType",3
"firmware","4.3"
"firmwarePatch",0
"firmwareVersion","4.3.0"
"Firmware revision","Betaflight 4.3.0 (norevision) STM32F7X2"
"Firmware date","Dec 24 2021 18:42:12"
"Board information","FOXE FOXEERF722V2"
"Log start datetime","2022-01-16T20:40:47.733+00:00"
"Craft name","LIMON_6"
"frameIntervalI",256
"frameIntervalPNum",1
"frameIntervalPDenom",16
"minthrottle",1070
"maxthrottle",2000
"gyroScale",1.7453292519943295e-8
"motorOutput","148,2047"
"acc_1G",0
"vbatscale",121
"vbatmincellvoltage",330
"vbatwarningcellvoltage",350
"vbatmaxcellvoltage",430
"vbatref",1304
"currentMeterOffset",0
"currentMeterScale",400
"looptime",125
"gyro_sync_denom",1
"pid_process_denom",1
"thrMid",50
"thrExpo",0
"dynThrPID",60
"tpa_breakpoint",1350
"rc_rates","7,7,7"
"rc_expo","0,0,0"
"rates","67,67,67"
"rate_limits","1998,1998,1998"
"rollPID","0,0,0,0"
"pitchPID","0,0,0,0"
"yawPID","0,0,0,0"
"levelPID","50,50,75"
"magPID","40,,"
"d_min","0,0,0"
"yaw_lpf_hz",100
"dterm_notch_hz",0
"dterm_notch_cutoff",0
"itermWindupPointPercent",85
"iterm_relax",0
"iterm_relax_type",1
"iterm_relax_cutoff",15
"anti_gravity_mode",0
"anti_gravity_threshold",250
"anti_gravity_gain",0
"abs_control_gain",0
"use_integrated_yaw",0
"ff_transition",0
"yawRateAccelLimit",0
"rateAccelLimit",0
"pidSumLimit",500
"pidSumLimitYaw",400
"deadband",0
"yaw_deadband",0
"gyro_lpf",0
"gyro_notch_hz","0,0"
"gyro_notch_cutoff","0,0"
"gyro_to_use",0
"dyn_notch_max_hz",360
"dyn_notch_count",2
"dyn_notch_q",600
"dyn_notch_min_hz",180
"dshot_bidir",1
"motor_poles",14
"acc_lpf_hz",1000
"acc_hardware",1
"baro_hardware",1
"mag_hardware",1
"gyro_cal_on_first_arm",0
"airmode_activate_throttle",25
"serialrx_provider",14
"unsynced_fast_pwm",0
"fast_pwm_protocol",7
"motor_pwm_rate",480
"digitalIdleOffset",500
"debug_mode",45
"features",268698632
"rc_smoothing",1
"rc_smoothing_auto_factor_setpoint",30
"rc_smoothing_auto_factor_throttle",30
"rc_smoothing_debug_axis",0
"rc_smoothing_active_cutoffs_ff_sp_thr","93,93,93"
"rc_smoothing_rx_average",4048
"rates_type",3
"fields_disabled_mask",0
"vbat_sag_compensation",0
"loopIteration","time","axisP[0]","axisP[1]","axisP[2]","axisI[0]","axisI[1]","axisI[2]","axisF[0]","axisF[1]","axisF[2]","rcCommand[0]","rcCommand[1]","rcCommand[2]","rcCommand[3]","setpoint[0]","setpoint[1]","setpoint[2]","setpoint[3]","vbatLatest","amperageLatest","rssi","gyroADC[0]","gyroADC[1]","gyroADC[2]","debug[0]","debug[1]","debug[2]","debug[3]","motor[0]","motor[1]","motor[2]","motor[3]","flightModeFlags","stateFlags","failsafePhase","rxSignalReceived","rxFlightChannelsValid","heading[0]","heading[1]","heading[2]","axisSum[0]","axisSum[1]","axisSum[2]","rcCommands[0]","rcCommands[1]","rcCommands[2]","rcCommands[3]","axisError[0]","axisError[1]","axisError[2]","motorLegacy[0]","motorLegacy[1]","motorLegacy[2]","motorLegacy[3]"
0,206400896,0,0,0,0,0,0,0,0,0,1,2,-1,1000,0,0,0,0,1307,40,649,0,0,0,79,77,77,76,148,148,148,148,"","","","","",0,0,4.396484385773716,0,0,0,0,0,0,0,0,0,0,148,148,148,148
16,206402893,0,0,0,0,0,0,0,0,0,1,2,-1,1000,0,0,0,0,1307,40,649,0,0,0,79,77,77,78,148,148,148,148,1,0,0,1,1,0,0,4.396484385773716,0,0,0,0,0,0,0,0,0,0,148,148,148,148
32,206404890,0,0,0,0,0,0,0,0,0,1,4,-2,1000,0,0,0,0,1307,40,649,0,0,0,81,77,77,78,148,148,148,148,1,0,0,1,1,0,0,4.396484385773716,0,0,0,0,0,0,0,0,0,0,148,148,148,148
48,206406894,0,0,0,0,0,0,0,0,0,1,4,-2,1000,0,0,0,0,1303,40,649,0,0,0,81,77,77,78,148,148,148,148,1,0,0,1,1,0,0,4.396484385773716,0,0,0,0,0,0,0,0,0,0,148,148,148,148
64,206408890,0,0,0,0,0,0,0,0,0,1,1,-1,1000,0,1,0,0,1303,40,649,0,0,0,81,79,78,78,148,148,148,148,1,0,0,1,1,0,0,4.396484385773716,0,0,0,0,1,0,0,0,1,0,148,148,148,148
80,206410886,0,0,0,0,0,0,0,0,0,1,1,-1,1000,0,0,0,0,1303,40,649,0,0,0,81,79,78,79,148,148,148,148,1,0,0,1,1,0,0,4.396484385773716,0,0,0,0,0,0,0,0,0,0,148,148,148,148
96,206412887,0,0,0,0,0,0,0,0,0,1,1,-1,1000,0,0,0,0,1303,40,649,0,0,0,81,79,78,79,148,148,148,148,1,0,0,1,1,0,0,4.396484385773716,0,0,0,0,0,0,0,0,0,0,148,148,148,148
112,206414880,0,0,0,0,0,0,0,0,0,1,1,-1,1000,0,0,0,0,1303,40,649,0,0,0,81,80,80,79,148,148,148,148,1,0,0,1,1,0,0,4.396484385773716,0,0,0,0,0,0,0,0,0,0,148,148,148,148
128,206416879,0,0,0,0,0,0,0,0,0,1,1,-1,1000,0,0,0,0,1303,40,650,0,0,0,81,80,80,79,148,148,148,148,1,0,0,1,1,0,0,4.396484385773716,0,0,0,0,0,0,0,0,0,0,148,148,148,148
144,206418876,0,0,0,0,0,0,0,0,0,1,2,-1,1000,0,0,0,0,1303,0,650,0,0,0,83,80,80,81,148,148,148,148,1,0,0,1,1,0,0,4.396484385773716,0,0,0,0,0,0,0,0,0,0,148,148,148,148
160,206420874,0,0,0,0,0,0,0,0,0,1,2,-1,1000,0,0,0,0,1303,0,650,0,0,0,83,80,80,81,148,148,148,148,1,0,0,1,1,0,0,4.396484385773716,0,0,0,0,0,0,0,0,0,0,148,148,148,148
176,206422873,0,0,0,0,0,0,0,0,0,1,2,-3,1000,0,0,0,0,1303,0,650,0,0,0,83,81,80,81,148,148,148,148,1,0,0,1,1,0,0,4.396484385773716,0,0,0,0,0,0,0,0,0,0,148,148,148,148
192,206424870,0,0,0,0,0,0,0,0,0,1,2,-3,1000,0,0,0,0,1303,0,650,0,0,0,83,81,80,82,148,148,148,148,1,0,0,1,1,0,0,4.396484385773716,0,0,0,0,0,0,0,0,0,0,148,148,148,148
208,206426868,0,0,0,0,0,0,0,0,0,1,2,-1,1000,0,0,0,0,1304,0,650,0,0,0,83,81,80,82,148,148,148,148,1,0,0,1,1,0,0,4.396484385773716,0,0,0,0,0,0,0,0,0,0,148,148,148,148
224,206428875,0,0,0,0,0,0,0,0,0,1,2,-1,1000,0,0,0,0,1304,0,650,0,0,0,83,81,80,82,148,148,148,148,1,0,0,1,1,0,0,4.396484385773716,0,0,0,0,0,0,0,0,0,0,148,148,148,148
240,206430867,0,0,0,0,0,0,0,0,0,1,2,-1,1000,0,0,0,0,1304,0,651,0,0,0,83,82,81,82,148,148,148,148,1,0,0,1,1,0,0,4.396484385773716,0,0,0,0,0,0,0,0,0,0,148,148,148,148
256,206432866,0,0,0,0,0,0,0,0,0,1,2,-1,1000,0,0,0,0,1304,0,651,0,0,0,84,82,81,83,148,148,148,148,1,0,0,1,1,0,0,4.396484385773716,0,0,0,0,0,0,0,0,0,0,148,148,148,148
272,206434862,0,0,0,0,0,0,0,0,0,1,2,-1,1000,0,0,0,0,1304,0,651,0,0,0,84,82,81,83,148,148,148,148,1,0,0,1,1,0,0,4.396484385773716,0,0,0,0,0,0,0,0,0,0,148,148,148,148
288,206436863,0,0,0,0,0,0,0,0,0,1,2,-1,1000,0,0,0,0,1304,0,651,0,0,0,84,83,82,83,148,148,148,148,1,0,0,1,1,0,0,4.396484385773716,0,0,0,0,0,0,0,0,0,0,148,148,148,148
304,206438856,0,0,0,0,0,0,0,0,0,1,2,-1,1000,0,0,0,0,1304,0,651,0,0,0,84,83,82,84,148,148,148,148,1,0,0,1,1,0,0,4.396484385773716,0,0,0,0,0,0,0,0,0,0,148,148,148,148
320,206440855,0,0,0,0,0,0,0,0,0,1,2,-1,1000,0,0,0,0,1304,0,651,0,0,0,85,83,82,84,148,148,148,148,1,0,0,1,1,0,0,4.396484385773716,0,0,0,0,0,0,0,0,0,0,148,148,148,148
336,206442852,0,0,0,0,0,0,0,0,0,1,2,-1,1000,0,0,0,0,1304,0,651,0,0,0,85,83,82,84,148,148,148,148,1,0,0,1,1,0,0,4.396484385773716,0,0,0,0,0,0,0,0,0,0,148,148,148,148
352,206444848,0,0,0,0,0,0,0,0,0,1,2,-1,1000,0,0,0,0,1304,0,651,0,0,0,85,84,83,84,148,148,148,148,1,0,0,1,1,0,0,4.396484385773716,0,0,0,0,0,0,0,0,0,0,148,148,148,148
368,206446846,0,0,0,0,0,0,0,0,0,1,2,-1,1000,0,0,0,0,1302,0,651,-1,0,0,85,84,83,85,148,148,148,148,1,0,0,1,1,0,0,4.396484385773716,0,0,0,0,0,0,0,1,0,0,148,148,148,148
384,206448847,0,0,0,0,0,0,0,0,0,1,2,-1,1000,0,0,0,0,1302,0,651,1,-1,0,85,84,83,85,148,148,148,148,1,0,0,1,1,0,0,4.396484385773716,0,0,0,0,0,0,0,-1,1,0,148,148,148,148
400,206450844,0,0,0,0,0,0,0,0,0,1,3,-1,1000,0,0,0,0,1302,0,651,0,0,0,85,85,83,85,148,148,148,148,1,0,0,1,1,0,0,4.396484385773716,0,0,0,0,0,0,0,0,0,0,148,148,148,148
416,206452842,0,0,0,0,0,0,0,0,0,1,3,-1,1000,0,0,0,0,1302,0,651,0,0,0,85,85,83,86,148,148,148,148,1,0,0,1,1,0,0,4.396484385773716,0,0,0,0,0,0,0,0,0,0,148,148,148,148
432,206454840,0,0,0,0,0,0,0,0,0,1,2,-1,1000,0,0,0,0,1302,0,651,0,0,0,86,85,83,86,148,148,148,148,1,0,0,1,1,0,0,4.396484385773716,0,0,0,0,0,0,0,0,0,0,148,148,148,148
448,206456837,0,0,0,0,0,0,0,0,0,1,2,-1,1000,0,0,0,0,1302,0,651,0,0,0,86,85,83,86,148,148,148,148,1,0,0,1,1,0,0,4.396484385773716,0,0,0,0,0,0,0,0,0,0,148,148,148,148
464,206458833,0,0,0,0,0,0,0,0,0,-1,2,-2,1000,0,0,0,0,1302,0,651,0,1,0,86,85,85,86,148,148,148,148,1,0,0,1,1,0,0,4.396484385773716,0,0,0,0,0,0,0,0,-1,0,148,148,148,148
480,206460832,0,0,0,0,0,0,0,0,0,-1,2,-2,1000,0,0,0,0,1302,0,651,-1,0,1,87,85,85,87,148,148,148,148,1,0,0,1,1,0,0,4.396449496645014,0,0,0,0,0,0,0,1,0,-1,148,148,148,148
496,206462830,0,0,0,0,0,0,0,0,0,1,1,-2,1000,0,0,0,0,1302,0,651,1,0,0,87,85,85,87,148,148,148,148,1,0,0,1,1,0,0,4.396449496641991,0,0,0,0,0,0,0,-1,0,0,148,148,148,148
512,206464826,0,0,0,0,0,0,0,0,0,1,1,-2,1000,0,0,0,0,1302,0,651,0,1,0,87,86,85,87,148,148,148,148,1,0,0,1,1,0,0,4.396449496641971,0,0,0,0,0,0,0,0,-1,0,148,148,148,148
528,206466826,0,0,0,0,0,0,0,0,0,1,2,-1,1000,0,0,0,0,1305,0,651,0,0,0,87,86,85,87,148,148,148,148,1,0,0,1,1,0,0,4.396449496641971,0,0,0,0,0,0,0,0,0,0,148,148,148,148
544,206468823,0,0,0,0,0,0,0,0,0,1,2,-1,1000,0,0,0,0,1305,0,651,0,0,0,87,86,85,87,148,148,148,148,1,0,0,1,1,0,0,4.396449496641971,0,0,0,0,0,0,0,0,0,0,148,148,148,148
560,206470819,0,0,0,0,0,0,0,0,0,1,2,-1,1000,0,0,0,0,1305,0,651,0,0,0,87,86,85,87,148,148,148,148,1,0,0,1,1,0,0,4.396449496641971,0,0,0,0,0,0,0,0,0,0,148,148,148,148
576,206472821,0,0,0,0,0,0,0,0,0,1,2,-1,1000,0,0,0,0,1305,0,651,0,0,0,87,87,85,87,148,148,148,148,1,0,0,1,1,0,0,4.396449496641971,0,0,0,0,0,0,0,0,0,0,148,148,148,148
592,206474816,0,0,0,0,0,0,0,0,0,1,2,-1,1000,0,0,0,0,1305,0,651,0,0,0,87,87,85,88,148,148,148,148,1,0,0,1,1,0,0,4.396449496641971,0,0,0,0,0,0,0,0,0,0,148,148,148,148
608,206476816,0,0,0,0,0,0,0,0,0,1,2,-1,1000,0,0,0,0,1305,0,651,0,0,0,87,87,85,88,148,148,148,148,1,0,0,1,1,0,0,4.396449496641971,0,0,0,0,0,0,0,0,0,0,148,148,148,148
624,206478815,0,0,0,0,0,0,0,0,0,1,2,-2,1000,0,0,0,0,1305,0,651,0,0,0,87,87,86,88,148,148,148,148,1,0,0,1,1,0,0,4.396449496641971,0,0,0,0,0,0,0,0,0,0,148,148,148,148
640,206480813,0,0,0,0,0,0,0,0,0,1,2,-2,1000,0,0,0,0,1305,0,651,0,0,0,88,87,86,88,148,148,148,148,1,0,0,1,1,0,0,4.396449496641971,0,0,0,0,0,0,0,0,0,0,148,148,148,148
656,206482811,0,0,0,0,0,0,0,0,0,1,1,-1,1000,0,0,0,0,1305,0,651,0,1,0,88,87,86,88,148,148,148,148,1,0,0,1,1,0,0,4.396449496641907,0,0,0,0,0,0,0,0,-1,0,148,148,148,148
672,206484811,0,0,0,0,0,0,0,0,0,1,1,-1,1000,0,0,0,0,1305,0,651,0,0,0,88,87,86,88,148,148,148,148,1,0,0,1,1,0,0,4.396449496641907,0,0,0,0,0,0,0,0,0,0,148,148,148,148
688,206486807,0,0,0,0,0,0,0,0,0,1,2,-1,1000,0,0,0,0,1304,0,651,0,0,0,88,88,87,89,148,148,148,148,1,0,0,1,1,0,0,4.396449496641907,0,0,0,0,0,0,0,0,0,0,148,148,148,148
704,206488803,0,0,0,0,0,0,0,0,0,1,2,-1,1000,0,0,0,0,1304,0,651,-1,0,0,88,88,87,89,148,148,148,148,1,0,0,1,1,0,0,4.396449494216508,0,0,0,0,0,0,0,1,0,0,148,148,148,148
720,206490803,0,0,0,0,0,0,0,0,0,1,2,-1,1000,0,0,0,0,1304,0,650,0,0,-1,88,88,87,89,148,148,148,148,1,0,0,1,1,0,0,4.3964844008015485,0,0,0,0,0,0,0,0,0,1,148,148,148,148
736,206492798,0,0,0,0,0,0,0,0,0,1,2,-1,1000,0,0,0,0,1304,0,650,0,0,1,88,88,87,89,148,148,148,148,1,0,0,1,1,0,0,4.396449581482971,0,0,0,0,0,0,0,0,0,-1,148,148,148,148
752,206494798,0,0,0,0,0,0,0,0,0,1,2,-1,1000,0,0,0,0,1304,0,650,0,0,0,88,88,87,89,148,148,148,148,1,0,0,1,1,0,0,4.396449581482971,0,0,0,0,0,0,0,0,0,0,148,148,148,148
768,206496795,0,0,0,0,0,0,0,0,0,1,2,-1,1000,0,0,0,0,1304,0,650,0,0,0,88,88,87,89,148,148,148,148,1,0,0,1,1,0,0,4.396449581482971,0,0,0,0,0,0,0,0,0,0,148,148,148,148
784,206498795,0,0,0,0,0,0,0,0,0,1,2,-1,1000,0,0,0,0,1304,0,650,0,0,0,88,89,87,89,148,148,148,148,1,0,0,1,1,0,0,4.396449581482971,0,0,0,0,0,0,0,0,0,0,148,148,148,148
800,206500791,0,0,0,0,0,0,0,0,0,1,2,-1,1000,0,0,0,0,1304,0,650,0,0,0,88,89,87,90,148,148,148,148,1,0,0,1,1,0,0,4.396449581482971,0,0,0,0,0,0,0,0,0,0,148,148,148,148
816,206502788,0,0,0,0,0,0,0,0,0,1,2,-1,1000,0,0,0,0,1304,0,651,0,0,0,89,89,87,90,148,148,148,148,1,0,0,1,1,0,0,4.396449581482971,0,0,0,0,0,0,0,0,0,0,148,148,148,148
832,206504786,0,0,0,0,0,0,0,0,0,1,2,-1,1000,0,0,0,0,1304,0,651,0,0,0,89,89,87,90,148,148,148,148,1,0,0,1,1,0,0,4.396449581482971,0,0,0,0,0,0,0,0,0,0,148,148,148,148
848,206506783,0,0,0,0,0,0,0,0,0,1,3,-2,1000,0,0,0,0,1303,0,651,0,0,0,89,89,88,90,148,148,148,148,1,0,0,1,1,0,0,4.396449581482971,0,0,0,0,0,0,0,0,0,0,148,148,148,148
864,206508782,0,0,0,0,0,0,0,0,0,1,3,-2,1000,0,0,0,0,1303,0,651,0,0,0,89,89,88,90,148,148,148,148,1,0,0,1,1,0,0,4.396449581482971,0,0,0,0,0,0,0,0,0,0,148,148,148,148
880,206510780,0,0,0,0,0,0,0,0,0,1,2,-1,1000,0,0,0,0,1303,0,651,0,0,-1,89,89,88,90,148,148,148,148,1,0,0,1,1,0,0,4.396484453161426,0,0,0,0,0,0,0,0,0,1,148,148,148,148
896,206512776,0,0,0,0,0,0,0,0,0,1,2,-1,1000,0,0,0,0,1303,0,651,0,0,0,89,90,89,90,148,148,148,148,1,0,0,1,1,0,0,4.396484453161426,0,0,0,0,0,0,0,0,0,0,148,148,148,148
912,206514775,0,0,0,0,0,0,0,0,0,1,2,-2,1000,0,0,0,0,1303,0,651,0,0,0,90,90,89,91,148,148,148,148,1,0,0,1,1,0,0,4.396484453161426,0,0,0,0,0,0,0,0,0,0,148,148,148,148
928,206516775,0,0,0,0,0,0,0,0,0,1,2,-2,1000,0,0,0,0,1303,0,651,0,0,0,90,90,89,91,148,148,148,148,1,0,0,1,1,0,0,4.396484453161426,0,0,0,0,0,0,0,0,0,0,148,148,148,148
944,206518769,0,0,0,0,0,0,0,0,0,1,2,-1,1000,0,0,0,0,1303,65,651,0,0,0,90,90,89,91,148,148,148,148,1,0,0,1,1,0,0,4.396484453161426,0,0,0,0,0,0,0,0,0,0,148,148,148,148
960,206520768,0,0,0,0,0,0,0,0,0,1,2,-1,1000,0,0,0,0,1303,65,651,0,0,0,90,90,88,91,148,148,148,148,1,0,0,1,1,0,0,4.396484453161426,0,0,0,0,0,0,0,0,0,0,148,148,148,148
976,206522766,0,0,0,0,0,0,0,0,0,1,2,-1,1000,0,0,0,0,1303,65,651,0,0,0,90,90,88,91,148,148,148,148,1,0,0,1,1,0,0,4.396484453161426,0,0,0,0,0,0,0,0,0,0,148,148,148,148
992,206524763,0,0,0,0,0,0,0,0,0,1,2,-1,1000,0,0,0,0,1303,65,651,0,-1,0,90,90,88,91,148,148,148,148,1,0,0,1,1,0,0,4.396484453161426,0,0,0,0,0,0,0,0,1,0,148,148,148,148
1008,206526765,0,0,0,0,0,0,0,0,0,1,2,-1,1000,0,0,0,0,1305,65,651,0,0,-1,90,90,89,92,148,148,148,148,1,0,0,1,1,0,0,4.39651939465305,0,0,0,0,0,0,0,0,0,1,148,148,148,148
1024,206528763,0,0,0,0,0,0,0,0,0,1,2,-1,1000,0,0,0,0,1305,65,651,0,0,0,90,90,89,92,148,148,148,148,1,0,0,1,1,0,0,4.39651939465305,0,0,0,0,0,0,0,0,0,0,148,148,148,148
1040,206530761,0,0,0,0,0,0,0,0,0,1,2,-3,1000,0,0,0,0,1305,65,651,0,0,0,90,90,89,92,148,148,148,148,1,0,0,1,1,0,0,4.39651939465305,0,0,0,0,0,0,0,0,0,0,148,148,148,148
1056,206532761,0,0,0,0,0,0,0,0,0,1,2,-3,1000,0,0,0,0,1305,65,651,0,0,0,90,91,89,93,148,148,148,148,1,0,0,1,1,0,0,4.39651939465305,0,0,0,0,0,0,0,0,0,0,148,148,148,148
1072,206534758,0,0,0,0,0,0,0,0,0,1,2,-1,1000,0,0,0,0,1305,65,651,0,0,0,91,91,89,93,148,148,148,148,1,0,0,1,1,0,0,4.39651939465305,0,0,0,0,0,0,0,0,0,0,148,148,148,148
1088,206536756,0,0,0,0,0,0,0,0,0,1,2,-1,1000,0,0,0,0,1305,65,651,0,0,0,91,91,89,93,148,148,148,148,1,0,0,1,1,0,0,4.39651939465305,0,0,0,0,0,0,0,0,0,0,148,148,148,148
1104,206538756,0,0,0,0,0,0,0,0,0,1,2,-1,1000,0,0,0,0,1305,0,651,0,0,0,91,91,89,93,148,148,148,148,1,0,0,1,1,0,0,4.39651939465305,0,0,0,0,0,0,0,0,0,0,148,148,148,148
1120,206540751,0,0,0,0,0,0,0,0,0,1,2,-1,1000,0,0,0,0,1305,0,651,0,0,0,91,91,89,93,148,148,148,148,1,0,0,1,1,0,0,4.39651939465305,0,0,0,0,0,0,0,0,0,0,148,148,148,148
1136,206542748,0,0,0,0,0,0,0,0,0,1,2,-1,1000,0,0,0,0,1305,0,651,0,1,0,91,91,89,93,148,148,148,148,1,0,0,1,1,0,0,4.396519394653114,0,0,0,0,0,0,0,0,-1,0,148,148,148,148
1152,206544745,0,0,0,0,0,0,0,0,0,1,2,-1,1000,0,0,0,0,1305,0,651,0,0,0,91,91,89,93,148,148,148,148,1,0,0,1,1,0,0,4.396519394653114,0,0,0,0,0,0,0,0,0,0,148,148,148,148
1168,206546743,0,0,0,0,0,0,0,0,0,1,2,-1,1000,0,0,0,0,1302,0,651,0,0,0,91,91,90,92,148,148,148,148,1,0,0,1,1,0,0,4.396519394653114,0,0,0,0,0,0,0,0,0,0,148,148,148,148
1184,206548742,0,0,0,0,0,0,0,0,0,1,2,-1,1000,0,0,0,0,1302,0,651,0,0,0,91,91,90,92,148,148,148,148,1,0,0,1,1,0,0,4.396519394653114,0,0,0,0,0,0,0,0,0,0,148,148,148,148
1200,206550741,0,0,0,0,0,0,0,0,0,1,2,-1,1000,0,0,0,0,1302,0,650,0,0,0,91,91,90,92,148,148,148,148,1,0,0,1,1,0,0,4.396519394653114,0,0,0,0,0,0,0,0,0,0,148,148,148,148
1216,206552738,0,0,0,0,0,0,0,0,0,1,2,-1,1000,0,0,0,0,1302,0,650,0,0,0,91,91,90,94,148,148,148,148,1,0,0,1,1,0,0,4.396519394653114,0,0,0,0,0,0,0,0,0,0,148,148,148,148
1232,206554736,0,0,0,0,0,0,0,0,0,1,2,-1,1000,0,0,0,0,1302,0,650,0,0,0,91,91,90,94,148,148,148,148,1,0,0,1,1,0,0,4.396519394653114,0,0,0,0,0,0,0,0,0,0,148,148,148,148
1248,206556734,0,0,0,0,0,0,0,0,0,1,2,-1,1000,0,0,0,0,1302,0,650,0,0,0,91,91,90,94,148,148,148,148,1,0,0,1,1,0,0,4.396519394653114,0,0,0,0,0,0,0,0,0,0,148,148,148,148
1264,206558733,0,0,0,0,0,0,0,0,0,1,2,-1,1000,0,0,0,0,1302,0,650,0,0,0,91,92,90,93,148,148,148,148,1,0,0,1,1,0,0,4.396519394653114,0,0,0,0,0,0,0,0,0,0,148,148,148,148
1280,206560731,0,0,0,0,0,0,0,0,0,1,2,-1,1000,0,0,0,0,1302,0,650,0,0,0,92,92,90,93,148,148,148,148,1,0,0,1,1,0,0,4.396519394653114,0,0,0,0,0,0,0,0,0,0,148,148,148,148
1296,206562728,0,0,0,0,0,0,0,0,0,1,2,-1,1000,0,0,0,0,1302,0,649,0,0,0,92,92,90,93,148,148,148,148,1,0,0,1,1,0,0,4.396519394653114,0,0,0,0,0,0,0,0,0,0,148,148,148,148
1312,206564725,0,0,0,0,0,0,0,0,0,1,2,-3,1000,0,0,0,0,1302,0,649,0,0,0,92,92,90,93,148,148,148,148,1,0,0,1,1,0,0,4.396519394653114,0,0,0,0,0,0,0,0,0,0,148,148,148,148
1328,206566723,0,0,0,0,0,0,0,0,0,1,2,-3,1000,0,0,0,0,1304,0,649,0,0,0,92,92,90,93,148,148,148,148,1,0,0,1,1,0,0,4.396519394653114,0,0,0,0,0,0,0,0,0,0,148,148,148,148
1344,206568718,0,0,0,0,0,0,0,0,0,1,3,-3,1000,0,0,0,0,1304,0,649,-1,0,0,92,92,90,93,148,148,148,148,1,0,0,1,1,0,0,4.396519392228931,0,0,0,0,0,0,0,1,0,0,148,148,148,148
1360,206570717,0,0,0,0,0,0,0,0,0,1,2,-1,1000,0,0,0,0,1304,0,649,0,0,0,92,92,90,93,148,148,148,148,1,0,0,1,1,0,0,4.396519392228931,0,0,0,0,0,0,0,0,0,0,148,148,148,148
1376,206572714,0,0,0,0,0,0,0,0,0,1,2,-1,1000,0,0,0,0,1304,0,649,1,0,0,92,92,91,95,148,148,148,148,1,0,0,1,1,0,0,4.396519394655544,0,0,0,0,0,0,0,-1,0,0,148,148,148,148
1392,206574712,0,0,0,0,0,0,0,0,0,1,2,-1,1000,0,0,0,0,1304,0,649,-1,0,0,91,92,91,95,148,148,148,148,1,0,0,1,1,0,0,4.396519392227716,0,0,0,0,0,0,0,1,0,0,148,148,148,148
1408,206576713,0,0,0,0,0,0,0,0,0,1,2,-1,1000,0,0,0,0,1304,0,649,0,0,0,91,92,91,95,148,148,148,148,1,0,0,1,1,0,0,4.396519392227716,0,0,0,0,0,0,0,0,0,0,148,148,148,148
1424,206578711,0,0,0,0,0,0,0,0,0,1,2,-1,1000,0,0,0,0,1304,0,649,0,0,0,91,93,91,94,148,148,148,148,1,0,0,1,1,0,0,4.396519392227716,0,0,0,0,0,0,0,0,0,0,148,148,148,148
1440,206580708,0,0,0,0,0,0,0,0,0,1,2,-2,1000,0,0,0,0,1304,0,649,0,0,0,92,93,91,94,148,148,148,148,1,0,0,1,1,0,0,4.396519392227716,0,0,0,0,0,0,0,0,0,0,148,148,148,148
1456,206582711,0,0,0,0,0,0,0,0,0,1,2,-2,1000,0,0,0,0,1304,0,649,0,0,0,92,93,91,94,148,148,148,148,1,0,0,1,1,0,0,4.396519392227716,0,0,0,0,0,0,0,0,0,0,148,148,148,148
1472,206584704,0,0,0,0,0,0,0,0,0,1,2,-1,1000,0,0,0,0,1304,0,649,0,0,0,92,92,91,94,148,148,148,148,1,0,0,1,1,0,0,4.396519392227716,0,0,0,0,0,0,0,0,0,0,148,148,148,148
1488,206586704,0,0,0,0,0,0,0,0,0,1,2,-1,1000,0,0,0,0,1302,0,649,0,0,0,92,92,91,94,148,148,148,148,1,0,0,1,1,0,0,4.396519392227716,0,0,0,0,0,0,0,0,0,0,148,148,148,148
1504,206588699,0,0,0,0,0,0,0,0,0,1,2,-1,1000,0,0,0,0,1302,0,650,0,0,0,92,92,91,94,148,148,148,148,1,0,0,1,1,0,0,4.396519392227716,0,0,0,0,0,0,0,0,0,0,148,148,148,148
1520,206590702,0,0,0,0,0,0,0,0,0,1,2,-1,1000,0,0,0,0,1302,0,650,0,0,0,92,93,91,94,148,148,148,148,1,0,0,1,1,0,0,4.396519392227716,0,0,0,0,0,0,0,0,0,0,148,148,148,148
1536,206592695,0,0,0,0,0,0,0,0,0,1,2,-1,1000,0,0,0,0,1302,0,650,0,0,0,92,93,91,94,148,148,148,148,1,0,0,1,1,0,0,4.396519392227716,0,0,0,0,0,0,0,0,0,0,148,148,148,148
1552,206594695,0,0,0,0,0,0,0,0,0,1,2,-1,1000,0,0,0,0,1302,0,650,0,0,0,92,93,91,94,148,148,148,148,1,0,0,1,1,0,0,4.396519392227716,0,0,0,0,0,0,0,0,0,0,148,148,148,148
1568,206596690,0,0,0,0,0,0,0,0,0,1,2,-1,1000,0,0,0,0,1302,0,650,0,0,0,92,93,91,95,148,148,148,148,1,0,0,1,1,0,0,4.396519392227716,0,0,0,0,0,0,0,0,0,0,148,148,148,148
1584,206598690,0,0,0,0,0,0,0,0,0,1,2,-1,1000,0,0,0,0,1302,0,650,0,0,0,92,93,91,95,148,148,148,148,1,0,0,1,1,0,0,4.396519392227716,0,0,0,0,0,0,0,0,0,0,148,148,148,148
1600,206600686,0,0,0,0,0,0,0,0,0,1,2,-1,1000,0,0,0,0,1302,2,650,0,0,0,93,93,92,95,148,148,148,148,1,0,0,1,1,0,0,4.396519392227716,0,0,0,0,0,0,0,0,0,0,148,148,148,148
1616,206602686,0,0,0,0,0,0,0,0,0,1,2,-1,1000,0,0,0,0,1302,2,650,0,0,0,93,93,92,95,148,148,148,148,1,0,0,1,1,0,0,4.396519392227716,0,0,0,0,0,0,0,0,0,0,148,148,148,148
1632,206604686,0,0,0,0,0,0,0,0,0,1,2,-1,1000,0,0,0,0,1302,2,650,0,0,0,93,93,92,95,148,148,148,148,1,0,0,1,1,0,0,4.396519392227716,0,0,0,0,0,0,0,0,0,0,148,148,148,148
1648,206606682,0,0,0,0,0,0,0,0,0,1,2,-1,1000,0,0,0,0,1302,2,650,0,0,1,93,93,92,95,148,148,148,148,1,0,0,1,1,0,0,4.396484555455846,0,0,0,0,0,0,0,0,0,-1,148,148,148,148
1664,206608679,0,0,0,0,0,0,0,0,0,1,2,-2,1000,0,0,0,0,1302,2,650,0,0,0,93,93,92,95,148,148,148,148,1,0,0,1,1,0,0,4.396484555455846,0,0,0,0,0,0,0,0,0,0,148,148,148,148
1680,206610678,0,0,0,0,0,0,0,0,0,1,2,-2,1000,0,0,0,0,1302,2,650,0,0,0,93,93,92,95,148,148,148,148,1,0,0,1,1,0,0,4.396484555455846,0,0,0,0,0,0,0,0,0,0,148,148,148,148
1696,206612674,0,0,0,0,0,0,0,0,0,1,2,-1,1000,0,0,0,0,1302,2,649,0,0,0,92,93,92,95,148,148,148,148,1,0,0,1,1,0,0,4.396484555455846,0,0,0,0,0,0,0,0,0,0,148,148,148,148
1712,206614673,0,0,0,0,0,0,0,0,0,1,2,-1,1000,0,0,0,0,1302,2,649,0,0,0,92,93,92,95,148,148,148,148,1,0,0,1,1,0,0,4.396484555455846,0,0,0,0,0,0,0,0,0,0,148,148,148,148
1728,206616670,0,0,0,0,0,0,0,0,0,1,2,-1,1000,0,0,0,0,1302,2,649,0,0,0,92,94,92,95,148,148,148,148,1,0,0,1,1,0,0,4.396484555455846,0,0,0,0,0,0,0,0,0,0,148,148,148,148
1744,206618667,0,0,0,0,0,0,0,0,0,1,2,-1,1000,0,0,0,0,1302,2,649,0,0,0,92,94,92,95,148,148,148,148,1,0,0,1,1,0,0,4.396484555455846,0,0,0,0,0,0,0,0,0,0,148,148,148,148
1760,206620664,0,0,0,0,0,0,0,0,0,1,2,-1,1000,0,0,0,0,1302,0,649,0,0,0,93,94,92,95,148,148,148,148,1,0,0,1,1,0,0,4.396484555455846,0,0,0,0,0,0,0,0,0,0,148,148,148,148
1776,206622662,0,0,0,0,0,0,0,0,0,1,2,-1,1000,0,0,0,0,1302,0,649,0,0,0,93,94,92,96,148,148,148,148,1,0,0,1,1,0,0,4.396484555455846,0,0,0,0,0,0,0,0,0,0,148,148,148,148
1792,206624659,0,0,0,0,0,0,0,0,0,1,2,-1,1000,0,0,0,0,1302,0,649,0,0,0,93,94,92,96,148,148,148,148,1,0,0,1,1,0,0,4.396484555455846,0,0,0,0,0,0,0,0,0,0,148,148,148,148
1808,206626663,0,0,0,0,0,0,0,0,0,1,2,-1,1000,0,0,0,0,1304,0,649,0,0,0,93,94,93,96,148,148,148,148,1,0,0,1,1,0,0,4.396484555455846,0,0,0,0,0,0,0,0,0,0,148,148,148,148
1824,206628658,0,0,0,0,0,0,0,0,0,1,2,-1,1000,0,0,0,0,1304,0,649,0,0,0,93,94,93,96,148,148,148,148,1,0,0,1,1,0,0,4.396484555455846,0,0,0,0,0,0,0,0,0,0,148,148,148,148
1840,206630658,0,0,0,0,0,0,0,0,0,1,2,-1,1000,0,0,0,0,1304,0,649,0,0,-1,93,94,93,96,148,148,148,148,1,0,0,1,1,0,0,4.396519462040886,0,0,0,0,0,0,0,0,0,1,148,148,148,148
1856,206632658,0,0,0,0,0,0,0,0,0,1,3,-1,1000,0,0,0,0,1304,0,649,0,0,0,92,94,92,96,148,148,148,148,1,0,0,1,1,0,0,4.396519462040886,0,0,0,0,0,0,0,0,0,0,148,148,148,148
1872,206634653,0,0,0,0,0,0,0,0,0,1,3,-1,1000,0,0,0,0,1304,0,649,0,0,0,92,94,92,97,148,148,148,148,1,0,0,1,1,0,0,4.396519462040886,0,0,0,0,0,0,0,0,0,0,148,148,148,148
1888,206636649,0,0,0,0,0,0,0,0,0,1,2,-2,1000,0,0,0,0,1304,0,649,0,0,0,92,94,92,97,148,148,148,148,1,0,0,1,1,0,0,4.396519462040886,0,0,0,0,0,0,0,0,0,0,148,148,148,148
1904,206638647,0,0,0,0,0,0,0,0,0,1,2,-2,1000,0,0,0,0,1304,0,649,0,0,0,93,94,93,97,148,148,148,148,1,0,0,1,1,0,0,4.396519462040886,0,0,0,0,0,0,0,0,0,0,148,148,148,148
1920,206640645,0,0,0,0,0,0,0,0,0,1,2,-1,1000,0,0,0,0,1304,57,649,0,0,0,93,94,93,96,148,148,148,148,1,0,0,1,1,0,0,4.396519462040886,0,0,0,0,0,0,0,0,0,0,148,148,148,148
1936,206642642,0,0,0,0,0,0,0,0,0,1,2,-1,1000,0,0,0,0,1304,57,649,0,0,0,93,94,93,96,148,148,148,148,1,0,0,1,1,0,0,4.396519462040886,0,0,0,0,0,0,0,0,0,0,148,148,148,148
1952,206644641,0,0,0,0,0,0,0,0,0,1,2,-3,1000,0,0,0,0,1304,57,649,0,0,0,93,94,92,96,148,148,148,148,1,0,0,1,1,0,0,4.396519462040886,0,0,0,0,0,0,0,0,0,0,148,148,148,148
1968,206646638,0,0,0,0,0,0,0,0,0,1,2,-3,1000,0,0,0,0,1303,57,649,0,0,0,93,94,92,96,148,148,148,148,1,0,0,1,1,0,0,4.396519462040886,0,0,0,0,0,0,0,0,0,0,148,148,148,148
1984,206648639,0,0,0,0,0,0,0,0,0,1,2,-1,1000,0,0,0,0,1303,57,651,0,0,0,93,94,92,96,148,148,148,148,1,0,0,1,1,0,0,4.396519462040886,0,0,0,0,0,0,0,0,0,0,148,148,148,148
2000,206650634,0,0,0,0,0,0,0,0,0,1,2,-1,1000,0,0,0,0,1303,57,651,0,0,0,93,94,92,96,148,148,148,148,1,0,0,1,1,0,0,4.396519462040886,0,0,0,0,0,0,0,0,0,0,148,148,148,148
2016,206652632,0,0,0,0,0,0,0,0,0,1,2,-1,1000,0,0,0,0,1303,57,651,0,0,0,93,94,93,96,148,148,148,148,1,0,0,1,1,0,0,4.396519462040886,0,0,0,0,0,0,0,0,0,0,148,148,148,148
2032,206654629,0,0,0,0,0,0,0,0,0,1,2,-1,1000,0,0,0,0,1303,57,651,0,0,0,93,94,93,96,148,148,148,148,1,0,0,1,1,0,0,4.396519462040886,0,0,0,0,0,0,0,0,0,0,148,148,148,148
2048,206656627,0,0,0,0,0,0,0,0,0,1,2,-1,1000,0,0,0,0,1303,57,651,0,0,0,93,94,93,96,148,148,148,148,1,0,0,1,1,0,0,4.396519462040886,0,0,0,0,0,0,0,0,0,0,148,148,148,148
2064,206658625,0,0,0,0,0,0,0,0,0,1,2,-1,1000,0,0,0,0,1303,57,651,0,0,0,93,94,93,97,148,148,148,148,1,0,0,1,1,0,0,4.396519462040886,0,0,0,0,0,0,0,0,0,0,148,148,148,148
2080,206660622,0,0,0,0,0,0,0,0,0,1,2,-2,1000,0,0,0,0,1303,0,651,0,0,0,93,94,93,97,148,148,148,148,1,0,0,1,1,0,0,4.396519462040886,0,0,0,0,0,0,0,0,0,0,148,148,148,148
2096,206662620,0,0,0,0,0,0,0,0,0,1,2,-2,1000,0,0,0,0,1303,0,651,0,0,0,93,94,93,97,148,148,148,148,1,0,0,1,1,0,0,4.396519462040886,0,0,0,0,0,0,0,0,0,0,148,148,148,148
2112,206664618,0,0,0,0,0,0,0,0,0,1,2,-2,1000,0,0,0,0,1303,0,651,0,0,0,93,94,93,97,148,148,148,148,1,0,0,1,1,0,0,4.396519462040886,0,0,0,0,0,0,0,0,0,0,148,148,148,148
2128,206666616,0,0,0,0,0,0,0,0,0,1,2,-2,1000,0,0,0,0,1303,0,651,0,0,0,93,94,93,96,148,148,148,148,1,0,0,1,1,0,0,4.396519462040886,0,0,0,0,0,0,0,0,0,0,148,148,148,148
2144,206668614,0,0,0,0,0,0,0,0,0,1,2,-1,1000,0,0,0,0,1303,0,651,0,0,0,93,95,93,96,148,148,148,148,1,0,0,1,1,0,0,4.396519462040886,0,0,0,0,0,0,0,0,0,0,148,148,148,148
2160,206670614,0,0,0,0,0,0,0,0,0,1,2,-1,1000,0,0,0,0,1303,0,651,0,0,0,93,95,94,96,148,148,148,148,1,0,0,1,1,0,0,4.396519462040886,0,0,0,0,0,0,0,0,0,0,148,148,148,148
2176,206672609,0,0,0,0,0,0,0,0,0,1,2,-3,1000,0,0,0,0,1303,0,651,0,0,0,93,95,94,97,148,148,148,148,1,0,0,1,1,0,0,4.396519462040886,0,0,0,0,0,0,0,0,0,0,148,148,148,148
2192,206674607,0,0,0,0,0,0,0,0,0,1,2,-3,1000,0,0,0,0,1303,0,651,0,0,0,93,94,94,97,148,148,148,148,1,0,0,1,1,0,0,4.396519462040886,0,0,0,0,0,0,0,0,0,0,148,148,148,148
2208,206676608,0,0,0,0,0,0,0,0,0,1,2,-1,1000,0,0,0,0,1303,0,651,0,0,0,93,94,92,97,148,148,148,148,1,0,0,1,1,0,0,4.396519462040886,0,0,0,0,0,0,0,0,0,0,148,148,148,148
2224,206678606,0,0,0,0,0,0,0,0,0,1,2,-1,1000,0,0,0,0,1303,0,651,0,0,0,93,94,92,96,148,148,148,148,1,0,0,1,1,0,0,4.396519462040886,0,0,0,0,0,0,0,0,0,0,148,148,148,148
2240,206680603,0,0,0,0,0,0,0,0,0,1,2,-2,1000,0,0,0,0,1303,115,651,0,0,0,93,95,92,96,148,148,148,148,1,0,0,1,1,0,0,4.396519462040886,0,0,0,0,0,0,0,0,0,0,148,148,148,148
2256,206682601,0,0,0,0,0,0,0,0,0,1,2,-2,1000,0,0,0,0,1303,115,651,0,0,0,93,95,92,96,148,148,148,148,1,0,0,1,1,0,0,4.396519462040886,0,0,0,0,0,0,0,0,0,0,148,148,148,148
2272,206684599,0,0,0,0,0,0,0,0,0,1,2,-1,1000,0,0,0,0,1303,115,651,0,0,0,94,95,94,97,148,148,148,148,1,0,0,1,1,0,0,4.396519462040886,0,0,0,0,0,0,0,0,0,0,148,148,148,148
2288,206686597,0,0,0,0,0,0,0,0,0,1,2,-1,1000,0,0,0,0,1303,115,651,0,0,0,94,95,94,97,148,148,148,148,1,0,0,1,1,0,0,4.396519462040886,0,0,0,0,0,0,0,0,0,0,148,148,148,148
2304,206688595,0,0,0,0,0,0,0,0,0,1,2,-1,1000,0,0,0,0,1303,115,651,0,0,0,94,95,94,97,148,148,148,148,1,0,0,1,1,0,0,4.396519462040886,0,0,0,0,0,0,0,0,0,0,148,148,148,148
2320,206690592,0,0,0,0,0,0,0,0,0,1,2,-1,1000,0,0,0,0,1303,115,651,0,0,0,94,95,93,97,148,148,148,148,1,0,0,1,1,0,0,4.396519462040886,0,0,0,0,0,0,0,0,0,0,148,148,148,148
2336,206692594,0,0,0,0,0,0,0,0,0,1,2,-1,1000,0,0,0,0,1303,115,651,0,0,0,94,95,93,97,148,148,148,148,1,0,0,1,1,0,0,4.396519462040886,0,0,0,0,0,0,0,0,0,0,148,148,148,148
2352,206694588,0,0,0,0,0,0,0,0,0,1,2,-1,1000,0,0,0,0,1303,115,651,0,0,0,94,95,93,97,148,148,148,148,1,0,0,1,1,0,0,4.396519462040886,0,0,0,0,0,0,0,0,0,0,148,148,148,148
2368,206696586,0,0,0,0,0,0,0,0,0,1,2,-1,1000,0,0,0,0,1303,115,651,0,0,0,94,95,93,97,148,148,148,148,1,0,0,1,1,0,0,4.396519462040886,0,0,0,0,0,0,0,0,0,0,148,148,148,148
2384,206698583,0,0,0,0,0,0,0,0,0,1,2,-1,1000,0,0,0,0,1303,115,651,0,0,0,94,95,93,97,148,148,148,148,1,0,0,1,1,0,0,4.396519462040886,0,0,0,0,0,0,0,0,0,0,148,148,148,148
2400,206700582,0,0,0,0,0,0,0,0,0,1,2,-1,1000,0,0,0,0,1303,100,651,0,0,1,94,95,93,97,148,148,148,148,1,0,0,1,1,0,0,4.396484572909139,0,0,0,0,0,0,0,0,0,-1,148,148,148,148
2416,206702581,0,0,0,0,0,0,0,0,0,1,2,-1,1000,0,0,0,0,1303,100,651,0,0,0,93,95,93,97,148,148,148,148,1,0,0,1,1,0,0,4.396484572909139,0,0,0,0,0,0,0,0,0,0,148,148,148,148
2432,206704576,0,0,0,0,0,0,0,0,0,1,2,-1,1000,0,0,0,0,1303,100,651,0,0,0,93,95,93,97,148,148,148,148,1,0,0,1,1,0,0,4.396484572909139,0,0,0,0,0,0,0,0,0,0,148,148,148,148
2448,206706574,0,0,0,0,0,0,0,0,0,1,2,-1,1000,0,0,0,0,1303,100,651,0,0,0,93,95,93,97,148,148,148,148,1,0,0,1,1,0,0,4.396484572909139,0,0,0,0,0,0,0,0,0,0,148,148,148,148
2464,206708573,0,0,0,0,0,0,0,0,0,1,2,-1,1000,0,0,0,0,1303,100,651,0,1,0,93,95,94,97,148,148,148,148,1,0,0,1,1,0,0,4.396484572909139,0,0,0,0,0,0,0,0,-1,0,148,148,148,148
2480,206710569,0,0,0,0,0,0,0,0,0,1,2,-1,1000,0,0,0,0,1303,100,651,0,0,0,94,95,94,97,148,148,148,148,1,0,0,1,1,0,0,4.396484572909139,0,0,0,0,0,0,0,0,0,0,148,148,148,148
2496,206712569,0,0,0,0,0,0,0,0,0,1,2,-1,1000,0,0,0,0,1303,100,651,0,0,0,94,95,94,97,148,148,148,148,1,0,0,1,1,0,0,4.396484572909139,0,0,0,0,0,0,0,0,0,0,148,148,148,148
2512,206714568,0,0,0,0,0,0,0,0,0,1,2,-1,1000,0,0,0,0,1303,100,651,0,0,0,94,95,94,97,148,148,148,148,1,0,0,1,1,0,0,4.396484572909139,0,0,0,0,0,0,0,0,0,0,148,148,148,148
2528,206716565,0,0,0,0,0,0,0,0,0,1,2,-1,1000,0,0,0,0,1303,100,651,0,0,0,94,95,94,97,148,148,148,148,1,0,0,1,1,0,0,4.396484572909139,0,0,0,0,0,0,0,0,0,0,148,148,148,148
2544,206718561,0,0,0,0,0,0,0,0,0,1,2,-1,1000,0,0,0,0,1303,100,651,0,0,0,94,95,94,97,148,148,148,148,1,0,0,1,1,0,0,4.396484572909139,0,0,0,0,0,0,0,0,0,0,148,148,148,148
2560,206720560,0,0,0,0,0,0,0,0,0,1,2,-1,1000,0,0,0,0,1303,100,649,0,0,0,94,95,94,98,148,148,148,148,1,0,0,1,1,0,0,4.396484572909139,0,0,0,0,0,0,0,0,0,0,148,148,148,148
2576,206722557,0,0,0,0,0,0,0,0,0,1,2,-1,1000,0,0,0,0,1303,0,649,-1,0,0,94,95,94,98,148,148,148,148,1,0,0,1,1,0,0,4.3964845692664705,0,0,0,0,0,0,0,1,0,0,148,148,148,148
2592,206724556,0,0,0,0,0,0,0,0,0,1,2,-1,1000,0,0,0,0,1303,0,649,0,0,0,94,95,94,98,148,148,148,148,1,0,0,1,1,0,0,4.3964845692664705,0,0,0,0,0,0,0,0,0,0,148,148,148,148
2608,206726555,0,0,0,0,0,0,0,0,0,1,2,-1,1000,0,0,0,0,1304,0,649,0,0,0,94,95,94,97,148,148,148,148,1,0,0,1,1,0,0,4.3964845692664705,0,0,0,0,0,0,0,0,0,0,148,148,148,148
2624,206728554,0,0,0,0,0,0,0,0,0,1,2,-1,1000,0,0,0,0,1304,0,649,0,0,0,94,95,94,97,148,148,148,148,1,0,0,1,1,0,0,4.3964845692664705,0,0,0,0,0,0,0,0,0,0,148,148,148,148
2640,206730553,0,0,0,0,0,0,0,0,0,1,2,-1,1000,0,0,0,0,1304,0,649,0,0,0,94,95,94,97,148,148,148,148,1,0,0,1,1,0,0,4.3964845692664705,0,0,0,0,0,0,0,0,0,0,148,148,148,148
2656,206732550,0,0,0,0,0,0,0,0,0,1,2,-1,1000,0,0,0,0,1304,0,650,0,0,0,94,95,94,98,148,148,148,148,1,0,0,1,1,0,0,4.3964845692664705,0,0,0,0,0,0,0,0,0,0,148,148,148,148
2672,206734547,0,0,0,0,0,0,0,0,0,1,2,-1,1000,0,0,0,0,1304,0,650,0,0,0,93,95,94,98,148,148,148,148,1,0,0,1,1,0,0,4.3964845692664705,0,0,0,0,0,0,0,0,0,0,148,148,148,148
2688,206736551,0,0,0,0,0,0,0,0,0,1,2,-1,1000,0,0,0,0,1304,0,650,0,0,0,93,96,94,98,148,148,148,148,1,0,0,1,1,0,0,4.3964845692664705,0,0,0,0,0,0,0,0,0,0,148,148,148,148
2704,206738544,0,0,0,0,0,0,0,0,0,1,2,-1,1000,0,0,0,0,1304,0,650,0,0,0,93,96,94,97,148,148,148,148,1,0,0,1,1,0,0,4.3964845692664705,0,0,0,0,0,0,0,0,0,0,148,148,148,148
2720,206740544,0,0,0,0,0,0,0,0,0,1,2,-1,1000,0,0,0,0,1304,0,650,0,0,0,93,96,94,97,148,148,148,148,1,0,0,1,1,0,0,4.3964845692664705,0,0,0,0,0,0,0,0,0,0,148,148,148,148
2736,206742538,0,0,0,0,0,0,0,0,0,1,2,-1,1000,0,0,0,0,1304,0,650,0,0,0,94,95,94,97,148,148,148,148,1,0,0,1,1,0,0,4.3964845692664705,0,0,0,0,0,0,0,0,0,0,148,148,148,148
2752,206744537,0,0,0,0,0,0,0,0,0,1,2,-1,1000,0,0,0,0,1304,0,650,0,0,1,94,95,94,97,148,148,148,148,1,0,0,1,1,0,0,4.396449680134723,0,0,0,0,0,0,0,0,0,-1,148,148,148,148
2768,206746533,0,0,0,0,0,0,0,0,0,1,2,-1,1000,0,0,0,0,1302,0,651,0,0,0,94,95,94,98,148,148,148,148,1,0,0,1,1,0,0,4.396449680134723,0,0,0,0,0,0,0,0,0,0,148,148,148,148
2784,206748533,0,0,0,0,0,0,0,0,0,1,2,-1,1000,0,0,0,0,1302,0,651,0,0,0,94,95,94,98,148,148,148,148,1,0,0,1,1,0,0,4.396449680134723,0,0,0,0,0,0,0,0,0,0,148,148,148,148
2800,206750529,0,0,0,0,0,0,0,0,0,1,2,-1,1000,0,0,0,0,1302,0,651,0,0,0,94,95,94,98,148,148,148,148,1,0,0,1,1,0,0,4.396449680134723,0,0,0,0,0,0,0,0,0,0,148,148,148,148
2816,206752531,0,0,0,0,0,0,0,0,0,1,2,-1,1000,0,0,0,0,1302,0,651,0,0,0,94,95,94,98,148,148,148,148,1,0,0,1,1,0,0,4.396449680134723,0,0,0,0,0,0,0,0,0,0,148,148,148,148
2832,206754526,0,0,0,0,0,0,0,0,0,1,2,-1,1000,0,0,0,0,1302,0,651,0,0,0,94,95,94,98,148,148,148,148,1,0,0,1,1,0,0,4.396449680134723,0,0,0,0,0,0,0,0,0,0,148,148,148,148
2848,206756526,0,0,0,0,0,0,0,0,0,1,2,-1,1000,0,0,0,0,1302,0,651,0,0,0,94,95,94,98,148,148,148,148,1,0,0,1,1,0,0,4.396449680134723,0,0,0,0,0,0,0,0,0,0,148,148,148,148
2864,206758525,0,0,0,0,0,0,0,0,0,-1,3,-1,1000,0,0,0,0,1302,0,651,0,0,0,94,95,94,98,148,148,148,148,1,0,0,1,1,0,0,4.396449680134723,0,0,0,0,0,0,0,0,0,0,148,148,148,148
2880,206760521,0,0,0,0,0,0,0,0,0,-1,3,-1,1000,0,0,0,0,1302,0,651,0,0,0,94,95,94,98,148,148,148,148,1,0,0,1,1,0,0,4.396449680134723,0,0,0,0,0,0,0,0,0,0,148,148,148,148
2896,206762515,0,0,0,0,0,0,0,0,0,1,2,-2,1000,0,0,0,0,1302,100,651,0,0,0,94,96,94,98,148,148,148,148,1,0,0,1,1,0,0,4.396449680134723,0,0,0,0,0,0,0,0,0,0,148,148,148,148
2912,206764513,0,0,0,0,0,0,0,0,0,1,2,-2,1000,0,0,0,0,1302,100,651,0,0,0,94,96,94,98,148,148,148,148,1,0,0,1,1,0,0,4.396449680134723,0,0,0,0,0,0,0,0,0,0,148,148,148,148
2928,206766511,0,0,0,0,0,0,0,0,0,1,1,-1,1000,0,0,0,0,1302,100,651,0,0,0,94,96,94,98,148,148,148,148,1,0,0,1,1,0,0,4.396449680134723,0,0,0,0,0,0,0,0,0,0,148,148,148,148
2944,206768509,0,0,0,0,0,0,0,0,0,1,1,-1,1000,0,0,0,0,1302,100,651,0,0,0,94,96,94,98,148,148,148,148,1,0,0,1,1,0,0,4.396449680134723,0,0,0,0,0,0,0,0,0,0,148,148,148,148
2960,206770507,0,0,0,0,0,0,0,0,0,1,2,-1,1000,0,0,0,0,1302,100,649,0,0,0,94,96,94,98,148,148,148,148,1,0,0,1,1,0,0,4.396449680134723,0,0,0,0,0,0,0,0,0,0,148,148,148,148
2976,206772504,0,0,0,0,0,0,0,0,0,1,2,-1,1000,0,0,0,0,1302,100,649,0,0,1,94,96,94,98,148,148,148,148,1,0,0,1,1,0,0,4.39641482590956,0,0,0,0,0,0,0,0,0,-1,148,148,148,148
2992,206774502,0,0,0,0,0,0,0,0,0,1,2,-1,1000,0,0,0,0,1302,100,649,0,0,0,94,95,94,98,148,148,148,148,1,0,0,1,1,0,0,4.39641482590956,0,0,0,0,0,0,0,0,0,0,148,148,148,148
3008,206776503,0,0,0,0,0,0,0,0,0,1,2,-1,1000,0,0,0,0,1302,100,649,0,0,0,94,95,94,98,148,148,148,148,1,0,0,1,1,0,0,4.39641482590956,0,0,0,0,0,0,0,0,0,0,148,148,148,148
3024,206778501,0,0,0,0,0,0,0,0,0,1,2,-1,1000,0,0,0,0,1302,100,649,0,0,0,94,95,94,98,148,148,148,148,1,0,0,1,1,0,0,4.39641482590956,0,0,0,0,0,0,0,0,0,0,148,148,148,148
3040,206780501,0,0,0,0,0,0,0,0,0,1,2,-1,1000,0,0,0,0,1302,100,649,0,0,0,94,96,94,98,148,148,148,148,1,0,0,1,1,0,0,4.39641482590956,0,0,0,0,0,0,0,0,0,0,148,148,148,148
3056,206782496,0,0,0,0,0,0,0,0,0,1,2,-1,1000,0,0,0,0,1302,10,650,0,0,0,94,96,94,98,148,148,148,148,1,0,0,1,1,0,0,4.39641482590956,0,0,0,0,0,0,0,0,0,0,148,148,148,148
3072,206784494,0,0,0,0,0,0,0,0,0,1,2,-1,1000,0,0,0,0,1302,10,650,0,0,0,94,96,94,98,148,148,148,148,1,0,0,1,1,0,0,4.39641482590956,0,0,0,0,0,0,0,0,0,0,148,148,148,148
3088,206786494,0,0,0,0,0,0,0,0,0,1,2,-1,1000,0,0,0,0,1304,10,650,0,0,0,94,96,95,98,148,148,148,148,1,0,0,1,1,0,0,4.39641482590956,0,0,0,0,0,0,0,0,0,0,148,148,148,148
3104,206788492,0,0,0,0,0,0,0,0,0,1,2,-1,1000,0,0,0,0,1304,10,650,0,0,0,94,96,95,99,148,148,148,148,1,0,0,1,1,0,0,4.39641482590956,0,0,0,0,0,0,0,0,0,0,148,148,148,148
3120,206790488,0,0,0,0,0,0,0,0,0,1,2,-1,1000,0,0,0,0,1304,10,650,0,0,0,94,96,95,99,148,148,148,148,1,0,0,1,1,0,0,4.39641482590956,0,0,0,0,0,0,0,0,0,0,148,148,148,148
3136,206792485,0,0,0,0,0,0,0,0,0,1,2,-1,1000,0,0,0,0,1304,10,650,0,0,0,94,96,94,99,148,148,148,148,1,0,0,1,1,0,0,4.39641482590956,0,0,0,0,0,0,0,0,0,0,148,148,148,148
3152,206794483,0,0,0,0,0,0,0,0,0,1,2,-1,1000,0,0,0,0,1304,10,649,0,0,0,94,96,94,98,148,148,148,148,1,0,0,1,1,0,0,4.39641482590956,0,0,0,0,0,0,0,0,0,0,148,148,148,148
3168,206796481,0,0,0,0,0,0,0,0,0,1,2,-1,1000,0,0,0,0,1304,10,649,0,0,0,94,96,94,98,148,148,148,148,1,0,0,1,1,0,0,4.39641482590956,0,0,0,0,0,0,0,0,0,0,148,148,148,148
3184,206798479,0,0,0,0,0,0,0,0,0,1,2,-1,1000,0,0,0,0,1304,10,649,0,0,0,94,96,94,98,148,148,148,148,1,0,0,1,1,0,0,4.39641482590956,0,0,0,0,0,0,0,0,0,0,148,148,148,148
3200,206800477,0,0,0,0,0,0,0,0,0,1,2,-1,1000,0,0,0,0,1304,10,649,0,-1,0,94,96,94,98,148,148,148,148,1,0,0,1,1,0,0,4.396414825909772,0,0,0,0,0,0,0,0,1,0,148,148,148,148
3216,206802477,0,0,0,0,0,0,0,0,0,1,2,-3,1000,0,0,0,0,1304,15,649,0,0,0,94,96,94,98,148,148,148,148,1,0,0,1,1,0,0,4.396414825909772,0,0,0,0,0,0,0,0,0,0,148,148,148,148
3232,206804474,0,0,0,0,0,0,0,0,0,1,2,-3,1000,0,0,0,0,1304,15,649,0,0,0,94,96,95,98,148,148,148,148,1,0,0,1,1,0,0,4.396414825909772,0,0,0,0,0,0,0,0,0,0,148,148,148,148
3248,206806470,0,0,0,0,0,0,0,0,0,1,2,-1,1000,0,0,0,0,1303,15,649,0,0,0,94,96,95,98,148,148,148,148,1,0,0,1,1,0,0,4.396414825909772,0,0,0,0,0,0,0,0,0,0,148,148,148,148
3264,206808468,0,0,0,0,0,0,0,0,0,1,2,-1,1000,0,0,0,0,1303,15,649,1,0,0,94,96,95,98,148,148,148,148,1,0,0,1,1,0,0,4.396414828338273,0,0,0,0,0,0,0,-1,0,0,148,148,148,148
3280,206810532,0,0,0,0,0,0,0,0,0,1,2,-1,1000,0,0,0,0,1303,15,649,0,0,0,94,96,94,98,148,148,148,148,1,0,0,1,1,0,0,4.396414828338273,0,0,0,0,0,0,0,0,0,0,148,148,148,148
3296,206812463,0,0,0,0,0,0,0,0,0,1,2,-1,1000,0,0,0,0,1303,15,649,0,0,0,94,96,94,98,148,148,148,148,1,0,0,1,1,0,0,4.396414828338273,0,0,0,0,0,0,0,0,0,0,148,148,148,148
3312,206814463,0,0,0,0,0,0,0,0,0,1,2,-1,1000,0,0,0,0,1303,15,649,0,0,0,94,96,94,98,148,148,148,148,1,0,0,1,1,0,0,4.396414828338273,0,0,0,0,0,0,0,0,0,0,148,148,148,148
3328,206816459,0,0,0,0,0,0,0,0,0,1,2,-1,1000,0,0,0,0,1303,15,649,0,0,0,94,96,94,98,148,148,148,148,1,0,0,1,1,0,0,4.396414828338273,0,0,0,0,0,0,0,0,0,0,148,148,148,148
3344,206818456,0,0,0,0,0,0,0,0,0,1,2,-1,1000,0,0,0,0,1303,15,649,0,0,0,94,96,94,98,148,148,148,148,1,0,0,1,1,0,0,4.396414828338273,0,0,0,0,0,0,0,0,0,0,148,148,148,148
3360,206820455,0,0,0,0,0,0,0,0,0,1,2,-1,1000,0,0,0,0,1303,15,649,0,0,0,94,96,94,98,148,148,148,148,1,0,0,1,1,0,0,4.396414828338273,0,0,0,0,0,0,0,0,0,0,148,148,148,148
3376,206822452,0,0,0,0,0,0,0,0,0,1,2,-1,1000,0,0,0,0,1303,0,649,0,0,0,94,96,94,98,148,148,148,148,1,0,0,1,1,0,0,4.396414828338273,0,0,0,0,0,0,0,0,0,0,148,148,148,148
3392,206824454,0,0,0,0,0,0,0,0,0,1,2,-1,1000,0,0,0,0,1303,0,649,0,0,0,93,96,94,98,148,148,148,148,1,0,0,1,1,0,0,4.396414828338273,0,0,0,0,0,0,0,0,0,0,148,148,148,148
3408,206826453,0,0,0,0,0,0,0,0,0,1,2,-1,1000,0,0,0,0,1305,0,649,0,0,-1,93,96,94,98,148,148,148,148,1,0,0,1,1,0,0,4.396449717470021,0,0,0,0,0,0,0,0,0,1,148,148,148,148
3424,206828449,0,0,0,0,0,0,0,0,0,1,2,-1,1000,0,0,0,0,1305,0,649,0,0,0,93,96,94,98,148,148,148,148,1,0,0,1,1,0,0,4.396449717470021,0,0,0,0,0,0,0,0,0,0,148,148,148,148
3440,206830449,0,0,0,0,0,0,0,0,0,1,2,-1,1000,0,0,0,0,1305,0,649,0,0,0,94,96,94,98,148,148,148,148,1,0,0,1,1,0,0,4.396449717470021,0,0,0,0,0,0,0,0,0,0,148,148,148,148
3456,206832446,0,0,0,0,0,0,0,0,0,1,2,-1,1000,0,0,0,0,1305,0,649,0,0,0,94,96,94,98,148,148,148,148,1,0,0,1,1,0,0,4.396449717470021,0,0,0,0,0,0,0,0,0,0,148,148,148,148
3472,206834441,0,0,0,0,0,0,0,0,0,1,2,-1,1000,0,0,0,0,1305,0,649,0,0,1,94,96,94,98,148,148,148,148,1,0,0,1,1,0,0,4.396414898151443,0,0,0,0,0,0,0,0,0,-1,148,148,148,148
3488,206836442,0,0,0,0,0,0,0,0,0,1,2,-1,1000,0,0,0,0,1305,0,649,0,0,0,94,96,95,98,148,148,148,148,1,0,0,1,1,0,0,4.396414898151443,0,0,0,0,0,0,0,0,0,0,148,148,148,148
3504,206838439,0,0,0,0,0,0,0,0,0,1,2,-1,1000,0,0,0,0,1305,0,649,0,0,0,94,96,95,98,148,148,148,148,1,0,0,1,1,0,0,4.396414898151443,0,0,0,0,0,0,0,0,0,0,148,148,148,148
3520,206840437,0,0,0,0,0,0,0,0,0,1,2,-1,1000,0,0,0,0,1305,0,649,0,0,0,94,96,95,98,148,148,148,148,1,0,0,1,1,0,0,4.396414898151443,0,0,0,0,0,0,0,0,0,0,148,148,148,148
3536,206842434,0,0,0,0,0,0,0,0,0,1,2,-1,1000,0,0,0,0,1305,7,648,0,0,0,94,96,94,99,148,148,148,148,1,0,0,1,1,0,0,4.396414898151443,0,0,0,0,0,0,0,0,0,0,148,148,148,148
3552,206844431,0,0,0,0,0,0,0,0,0,1,2,-1,1000,0,0,0,0,1305,7,648,0,0,0,94,96,94,99,148,148,148,148,1,0,0,1,1,0,0,4.396414898151443,0,0,0,0,0,0,0,0,0,0,148,148,148,148
3568,206846431,0,0,0,0,0,0,0,0,0,1,2,-1,1000,0,0,0,0,1303,7,648,0,0,0,94,96,94,99,148,148,148,148,1,0,0,1,1,0,0,4.396414898151443,0,0,0,0,0,0,0,0,0,0,148,148,148,148
3584,206848426,0,0,0,0,0,0,0,0,0,1,2,-1,1000,0,0,0,0,1303,7,648,0,0,0,94,96,94,98,148,148,148,148,1,0,0,1,1,0,0,4.396414898151443,0,0,0,0,0,0,0,0,0,0,148,148,148,148
3600,206850425,0,0,0,0,0,0,0,0,0,1,2,-1,1000,0,0,0,0,1303,7,648,0,0,0,94,96,94,98,148,148,148,148,1,0,0,1,1,0,0,4.396414898151443,0,0,0,0,0,0,0,0,0,0,148,148,148,148
3616,206852422,0,0,0,0,0,0,0,0,0,1,2,-1,1000,0,0,0,0,1303,7,648,0,0,0,94,96,94,98,148,148,148,148,1,0,0,1,1,0,0,4.396414898151443,0,0,0,0,0,0,0,0,0,0,148,148,148,148
3632,206854421,0,0,0,0,0,0,0,0,0,1,2,-1,1000,0,0,0,0,1303,7,648,0,0,-1,94,96,94,98,148,148,148,148,1,0,0,1,1,0,0,4.39644978728319,0,0,0,0,0,0,0,0,0,1,148,148,148,148
3648,206856418,0,0,0,0,0,0,0,0,0,1,2,-1,1000,0,0,0,0,1303,7,648,0,0,0,94,96,94,98,148,148,148,148,1,0,0,1,1,0,0,4.39644978728319,0,0,0,0,0,0,0,0,0,0,148,148,148,148
3664,206858416,0,0,0,0,0,0,0,0,0,1,6,-3,1000,0,0,0,0,1303,7,648,0,0,0,94,96,94,98,148,148,148,148,1,0,0,1,1,0,0,4.39644978728319,0,0,0,0,0,0,0,0,0,0,148,148,148,148
3680,206860413,0,0,0,0,0,0,0,0,0,1,6,-3,1000,0,1,0,0,1303,7,648,0,0,0,94,96,94,98,148,148,148,148,1,0,0,1,1,0,0,4.39644978728319,0,0,0,0,1,0,0,0,1,0,148,148,148,148
3696,206862412,0,0,0,0,0,0,0,0,0,1,2,-2,1000,0,1,0,0,1303,105,648,0,0,0,94,96,95,98,148,148,148,148,1,0,0,1,1,0,0,4.39644978728319,0,0,0,0,1,0,0,0,1,0,148,148,148,148
3712,206864409,0,0,0,0,0,0,0,0,0,1,2,-2,1000,0,1,0,0,1303,105,648,0,0,-1,94,96,95,98,148,148,148,148,1,0,0,1,1,0,0,4.396484641508353,0,0,0,0,1,0,0,0,1,1,148,148,148,148
3728,206866407,0,0,0,0,0,0,0,0,0,1,2,-1,1000,0,0,0,0,1303,105,648,0,0,0,94,96,95,98,148,148,148,148,1,0,0,1,1,0,0,4.396484641508353,0,0,0,0,0,0,0,0,0,0,148,148,148,148
3744,206868407,0,0,0,0,0,0,0,0,0,1,2,-1,1000,0,0,0,0,1308,105,648,1,-1,0,94,96,94,98,148,148,148,148,1,0,0,1,1,0,0,4.396484643939327,0,0,0,0,0,0,0,-1,1,0,148,148,148,148
3760,206870403,0,0,0,0,0,0,0,0,0,1,2,-1,1000,0,0,0,0,1308,105,648,0,1,0,94,96,94,98,148,148,148,148,1,0,0,1,1,0,0,4.396484643939327,0,0,0,0,0,0,0,0,-1,0,148,148,148,148
3776,206872400,0,0,0,0,0,0,0,0,0,1,2,-1,1000,0,0,0,0,1308,105,648,0,0,0,94,96,94,98,148,148,148,148,1,0,0,1,1,0,0,4.396484643939327,0,0,0,0,0,0,0,0,0,0,148,148,148,148
3792,206874399,0,0,0,0,0,0,0,0,0,1,2,-1,1000,0,0,0,0,1308,105,648,0,0,0,94,96,95,98,148,148,148,148,1,0,0,1,1,0,0,4.396484643939327,0,0,0,0,0,0,0,0,0,0,148,148,148,148
3808,206876398,0,0,0,0,0,0,0,0,0,1,2,-1,1000,0,0,0,0,1308,105,648,1,0,0,94,96,95,98,148,148,148,148,1,0,0,1,1,0,0,4.39648464636665,0,0,0,0,0,0,0,-1,0,0,148,148,148,148
3824,206878398,0,0,0,0,0,0,0,0,0,1,2,-1,1000,0,0,0,0,1308,105,649,0,0,0,94,96,95,98,148,148,148,148,1,0,0,1,1,0,0,4.39648464636665,0,0,0,0,0,0,0,0,0,0,148,148,148,148
3840,206880394,0,0,0,0,0,0,0,0,0,1,2,-1,1000,0,0,0,0,1308,105,649,0,0,0,94,96,94,99,148,148,148,148,1,0,0,1,1,0,0,4.39648464636665,0,0,0,0,0,0,0,0,0,0,148,148,148,148
3856,206882393,0,0,0,0,0,0,0,0,0,1,2,-1,1000,0,0,0,0,1308,105,649,0,0,0,94,96,94,99,148,148,148,148,1,0,0,1,1,0,0,4.39648464636665,0,0,0,0,0,0,0,0,0,0,148,148,148,148
3872,206884389,0,0,0,0,0,0,0,0,0,1,2,-1,1000,0,0,0,0,1308,57,649,0,0,0,94,96,94,99,148,148,148,148,1,0,0,1,1,0,0,4.39648464636665,0,0,0,0,0,0,0,0,0,0,148,148,148,148
3888,206886388,0,0,0,0,0,0,0,0,0,1,2,-1,1000,0,0,0,0,1308,57,649,0,0,0,94,96,94,98,148,148,148,148,1,0,0,1,1,0,0,4.39648464636665,0,0,0,0,0,0,0,0,0,0,148,148,148,148
3904,206888385,0,0,0,0,0,0,0,0,0,1,2,-1,1000,0,0,0,0,1305,57,649,0,0,0,94,96,94,98,148,148,148,148,1,0,0,1,1,0,0,4.39648464636665,0,0,0,0,0,0,0,0,0,0,148,148,148,148
3920,206890390,0,0,0,0,0,0,0,0,0,1,2,-1,1000,0,0,0,0,1305,57,649,0,0,0,94,96,94,98,148,148,148,148,1,0,0,1,1,0,0,4.39648464636665,0,0,0,0,0,0,0,0,0,0,148,148,148,148
3936,206892381,0,0,0,0,0,0,0,0,0,1,2,-1,1000,0,0,0,0,1305,57,649,0,0,0,94,96,94,98,148,148,148,148,1,0,0,1,1,0,0,4.39648464636665,0,0,0,0,0,0,0,0,0,0,148,148,148,148
3952,206894381,0,0,0,0,0,0,0,0,0,1,2,-1,1000,0,0,0,0,1305,57,649,0,0,0,94,96,94,98,148,148,148,148,1,0,0,1,1,0,0,4.39648464636665,0,0,0,0,0,0,0,0,0,0,148,148,148,148
3968,206896376,0,0,0,0,0,0,0,0,0,1,2,-1,1000,0,0,0,0,1305,57,649,0,0,0,94,96,94,98,148,148,148,148,1,0,0,1,1,0,0,4.39648464636665,0,0,0,0,0,0,0,0,0,0,148,148,148,148
3984,206898374,0,0,0,0,0,0,0,0,0,1,2,-1,1000,0,0,0,0,1305,57,649,0,0,0,94,96,94,99,148,148,148,148,1,0,0,1,1,0,0,4.39648464636665,0,0,0,0,0,0,0,0,0,0,148,148,148,148
4000,206900374,0,0,0,0,0,0,0,0,0,1,2,-1,1000,0,0,0,0,1305,57,649,0,0,0,94,96,94,99,148,148,148,148,1,0,0,1,1,0,0,4.39648464636665,0,0,0,0,0,0,0,0,0,0,148,148,148,148
4016,206902371,0,0,0,0,0,0,0,0,0,1,2,-1,1000,0,0,0,0,1305,57,649,0,0,0,94,96,94,99,148,148,148,148,1,0,0,1,1,0,0,4.39648464636665,0,0,0,0,0,0,0,0,0,0,148,148,148,148
4032,206904367,0,0,0,0,0,0,0,0,0,1,2,-3,1000,0,0,0,0,1305,0,650,0,0,0,94,96,94,98,148,148,148,148,1,0,0,1,1,0,0,4.39648464636665,0,0,0,0,0,0,0,0,0,0,148,148,148,148
4048,206906368,0,0,0,0,0,0,0,0,0,1,2,-3,1000,0,0,0,0,1305,0,650,0,0,0,94,96,94,98,148,148,148,148,1,0,0,1,1,0,0,4.39648464636665,0,0,0,0,0,0,0,0,0,0,148,148,148,148
4064,206908363,0,0,0,0,0,0,0,0,0,1,2,-1,1000,0,0,0,0,1302,0,650,0,0,0,94,96,94,98,148,148,148,148,1,0,0,1,1,0,0,4.39648464636665,0,0,0,0,0,0,0,0,0,0,148,148,148,148
4080,206910363,0,0,0,0,0,0,0,0,0,1,2,-1,1000,0,0,0,0,1302,0,650,0,0,0,94,96,94,98,148,148,148,148,1,0,0,1,1,0,0,4.39648464636665,0,0,0,0,0,0,0,0,0,0,148,148,148,148
4096,206912361,0,0,0,0,0,0,0,0,0,1,2,-1,1000,0,0,0,0,1302,0,650,0,0,0,94,96,95,98,148,148,148,148,1,0,0,1,1,0,0,4.39648464636665,0,0,0,0,0,0,0,0,0,0,148,148,148,148
4112,206914356,0,0,0,0,0,0,0,0,0,1,2,-1,1000,0,0,0,0,1302,0,650,0,0,0,94,96,95,98,148,148,148,148,1,0,0,1,1,0,0,4.39648464636665,0,0,0,0,0,0,0,0,0,0,148,148,148,148
4128,206916354,0,0,0,0,0,0,0,0,0,1,2,-1,1000,0,0,0,0,1302,0,649,0,0,0,94,96,95,99,148,148,148,148,1,0,0,1,1,0,0,4.39648464636665,0,0,0,0,0,0,0,0,0,0,148,148,148,148
4144,206918354,0,0,0,0,0,0,0,0,0,1,2,-1,1000,0,0,0,0,1302,0,649,0,0,0,94,96,94,99,148,148,148,148,1,0,0,1,1,0,0,4.39648464636665,0,0,0,0,0,0,0,0,0,0,148,148,148,148
4160,206920352,0,0,0,0,0,0,0,0,0,1,2,-1,1000,0,0,0,0,1302,0,649,0,0,0,94,96,94,99,148,148,148,148,1,0,0,1,1,0,0,4.39648464636665,0,0,0,0,0,0,0,0,0,0,148,148,148,148
4176,206922349,0,0,0,0,0,0,0,0,0,1,2,-1,1000,0,0,0,0,1302,0,649,0,0,0,94,96,94,98,148,148,148,148,1,0,0,1,1,0,0,4.39648464636665,0,0,0,0,0,0,0,0,0,0,148,148,148,148
4192,206924347,0,0,0,0,0,0,0,0,0,1,2,-2,1000,0,0,0,0,1302,67,649,0,0,0,94,96,95,98,148,148,148,148,1,0,0,1,1,0,0,4.39648464636665,0,0,0,0,0,0,0,0,0,0,148,148,148,148
4208,206926348,0,0,0,0,0,0,0,0,0,1,2,-2,1000,0,0,0,0,1302,67,649,0,0,0,94,96,95,98,148,148,148,148,1,0,0,1,1,0,0,4.39648464636665,0,0,0,0,0,0,0,0,0,0,148,148,148,148
4224,206928344,0,0,0,0,0,0,0,0,0,1,2,-1,1000,0,0,0,0,1303,67,649,0,0,0,94,96,95,98,148,148,148,148,1,0,0,1,1,0,0,4.39648464636665,0,0,0,0,0,0,0,0,0,0,148,148,148,148
4240,206930342,0,0,0,0,0,0,0,0,0,1,2,-1,1000,0,0,0,0,1303,67,649,0,0,0,94,96,95,98,148,148,148,148,1,0,0,1,1,0,0,4.39648464636665,0,0,0,0,0,0,0,0,0,0,148,148,148,148
4256,206932340,0,0,0,0,0,0,0,0,0,1,2,-2,1000,0,0,0,0,1303,67,649,-1,0,0,95,96,95,98,148,148,148,148,1,0,0,1,1,0,0,4.396484643940542,0,0,0,0,0,0,0,1,0,0,148,148,148,148
4272,206934341,0,0,0,0,0,0,0,0,0,1,2,-2,1000,0,0,0,0,1303,67,649,0,0,0,95,96,95,99,148,148,148,148,1,0,0,1,1,0,0,4.396484643940542,0,0,0,0,0,0,0,0,0,0,148,148,148,148
4288,206936335,0,0,0,0,0,0,0,0,0,1,2,-1,1000,0,0,0,0,1303,67,649,0,0,0,95,96,95,99,148,148,148,148,1,0,0,1,1,0,0,4.396484643940542,0,0,0,0,0,0,0,0,0,0,148,148,148,148
4304,206938333,0,0,0,0,0,0,0,0,0,1,2,-1,1000,0,0,0,0,1303,67,649,0,0,0,94,96,94,99,148,148,148,148,1,0,0,1,1,0,0,4.396484643940542,0,0,0,0,0,0,0,0,0,0,148,148,148,148
4320,206940329,0,0,0,0,0,0,0,0,0,1,2,-1,1000,0,0,0,0,1303,67,649,0,0,0,94,96,94,98,148,148,148,148,1,0,0,1,1,0,0,4.396484643940542,0,0,0,0,0,0,0,0,0,0,148,148,148,148
4336,206942328,0,0,0,0,0,0,0,0,0,1,2,-1,1000,0,0,0,0,1303,67,649,0,0,0,94,96,94,98,148,148,148,148,1,0,0,1,1,0,0,4.396484643940542,0,0,0,0,0,0,0,0,0,0,148,148,148,148
4352,206944328,0,0,0,0,0,0,0,0,0,1,2,-1,1000,0,0,0,0,1303,10,649,0,0,0,94,96,95,98,148,148,148,148,1,0,0,1,1,0,0,4.396484643940542,0,0,0,0,0,0,0,0,0,0,148,148,148,148
4368,206946326,0,0,0,0,0,0,0,0,0,1,2,-1,1000,0,0,0,0,1303,10,649,0,0,0,94,96,95,98,148,148,148,148,1,0,0,1,1,0,0,4.396484643940542,0,0,0,0,0,0,0,0,0,0,148,148,148,148
4384,206948324,0,0,0,0,0,0,0,0,0,1,2,-1,1000,0,0,0,0,1303,10,649,0,0,0,94,96,95,98,148,148,148,148,1,0,0,1,1,0,0,4.396484643940542,0,0,0,0,0,0,0,0,0,0,148,148,148,148
4400,206950321,0,0,0,0,0,0,0,0,0,1,2,-1,1000,0,0,0,0,1303,10,649,0,0,0,94,96,94,98,148,148,148,148,1,0,0,1,1,0,0,4.396484643940542,0,0,0,0,0,0,0,0,0,0,148,148,148,148
4416,206952318,0,0,0,0,0,0,0,0,0,1,2,-1,1000,0,0,0,0,1303,10,648,0,0,0,94,96,94,99,148,148,148,148,1,0,0,1,1,0,0,4.396484643940542,0,0,0,0,0,0,0,0,0,0,148,148,148,148
4432,206954317,0,0,0,0,0,0,0,0,0,1,2,-1,1000,0,0,0,0,1303,10,648,0,0,1,94,96,94,99,148,148,148,148,1,0,0,1,1,0,0,4.396449754808794,0,0,0,0,0,0,0,0,0,-1,148,148,148,148
4448,206956318,0,0,0,0,0,0,0,0,0,1,3,-2,1000,0,0,0,0,1303,10,648,0,0,0,94,96,95,99,148,148,148,148,1,0,0,1,1,0,0,4.396449754808794,0,0,0,0,0,0,0,0,0,0,148,148,148,148
4464,206958309,0,0,0,0,0,0,0,0,0,1,3,-2,1000,0,0,0,0,1303,10,648,0,0,0,94,96,95,99,148,148,148,148,1,0,0,1,1,0,0,4.396449754808794,0,0,0,0,0,0,0,0,0,0,148,148,148,148
4480,206960308,0,0,0,0,0,0,0,0,0,1,3,-2,1000,0,0,0,0,1303,10,648,0,0,0,94,96,95,99,148,148,148,148,1,0,0,1,1,0,0,4.396449754808794,0,0,0,0,0,0,0,0,0,0,148,148,148,148
4496,206962306,0,0,0,0,0,0,0,0,0,1,3,-2,1000,0,0,0,0,1303,10,648,0,0,0,94,96,95,99,148,148,148,148,1,0,0,1,1,0,0,4.396449754808794,0,0,0,0,0,0,0,0,0,0,148,148,148,148
4512,206964304,0,0,0,0,0,0,0,0,0,1,2,-2,1000,0,0,0,0,1303,102,648,0,0,0,94,96,95,98,148,148,148,148,1,0,0,1,1,0,0,4.396449754808794,0,0,0,0,0,0,0,0,0,0,148,148,148,148
4528,206966302,0,0,0,0,0,0,0,0,0,1,2,-2,1000,0,0,0,0,1303,102,648,0,0,0,94,96,95,98,148,148,148,148,1,0,0,1,1,0,0,4.396449754808794,0,0,0,0,0,0,0,0,0,0,148,148,148,148
4544,206968299,0,0,0,0,0,0,0,0,0,1,2,-2,1000,0,0,0,0,1302,102,648,0,0,0,94,96,94,98,148,148,148,148,1,0,0,1,1,0,0,4.396449754808794,0,0,0,0,0,0,0,0,0,0,148,148,148,148
4560,206970297,0,0,0,0,0,0,0,0,0,1,2,-2,1000,0,0,0,0,1302,102,648,0,0,0,94,96,94,98,148,148,148,148,1,0,0,1,1,0,0,4.396449754808794,0,0,0,0,0,0,0,0,0,0,148,148,148,148
4576,206972295,0,0,0,0,0,0,0,0,0,1,2,-1,1000,0,0,0,0,1302,102,648,0,0,0,94,96,94,98,148,148,148,148,1,0,0,1,1,0,0,4.396449754808794,0,0,0,0,0,0,0,0,0,0,148,148,148,148
4592,206974293,0,0,0,0,0,0,0,0,0,1,2,-1,1000,0,0,0,0,1302,102,648,0,0,0,94,96,94,98,148,148,148,148,1,0,0,1,1,0,0,4.396449754808794,0,0,0,0,0,0,0,0,0,0,148,148,148,148
4608,206976294,0,0,0,0,0,0,0,0,0,1,3,-1,1000,0,0,0,0,1302,102,648,0,0,0,94,96,94,98,148,148,148,148,1,0,0,1,1,0,0,4.396449754808794,0,0,0,0,0,0,0,0,0,0,148,148,148,148
4624,206978294,0,0,0,0,0,0,0,0,0,1,3,-1,1000,0,0,0,0,1302,102,648,0,0,0,94,96,94,98,148,148,148,148,1,0,0,1,1,0,0,4.396449754808794,0,0,0,0,0,0,0,0,0,0,148,148,148,148
4640,206980289,0,0,0,0,0,0,0,0,0,1,2,-1,1000,0,0,0,0,1302,102,648,0,0,0,94,96,94,98,148,148,148,148,1,0,0,1,1,0,0,4.396449754808794,0,0,0,0,0,0,0,0,0,0,148,148,148,148
4656,206982287,0,0,0,0,0,0,0,0,0,1,2,-1,1000,0,0,0,0,1302,102,648,0,0,0,94,96,95,98,148,148,148,148,1,0,0,1,1,0,0,4.396449754808794,0,0,0,0,0,0,0,0,0,0,148,148,148,148
4672,206984285,0,0,0,0,0,0,0,0,0,1,2,-1,1000,0,0,0,0,1302,0,648,0,0,0,94,96,95,98,148,148,148,148,1,0,0,1,1,0,0,4.396449754808794,0,0,0,0,0,0,0,0,0,0,148,148,148,148
4688,206986282,0,0,0,0,0,0,0,0,0,1,2,-1,1000,0,0,0,0,1302,0,648,0,0,0,94,96,95,98,148,148,148,148,1,0,0,1,1,0,0,4.396449754808794,0,0,0,0,0,0,0,0,0,0,148,148,148,148
4704,206988281,0,0,0,0,0,0,0,0,0,1,2,-1,1000,0,0,0,0,1302,0,648,0,0,0,94,96,94,98,148,148,148,148,1,0,0,1,1,0,0,4.396449754808794,0,0,0,0,0,0,0,0,0,0,148,148,148,148
4720,206990278,0,0,0,0,0,0,0,0,0,1,2,-1,1000,0,0,0,0,1302,0,648,0,0,0,95,96,94,98,148,148,148,148,1,0,0,1,1,0,0,4.396449754808794,0,0,0,0,0,0,0,0,0,0,148,148,148,148
4736,206992276,0,0,0,0,0,0,0,0,0,1,2,-1,1000,0,0,0,0,1302,0,648,0,0,0,95,96,94,98,148,148,148,148,1,0,0,1,1,0,0,4.396449754808794,0,0,0,0,0,0,0,0,0,0,148,148,148,148
4752,206994274,0,0,0,0,0,0,0,0,0,1,2,-1,1000,0,0,0,0,1302,0,648,0,0,0,95,96,95,98,148,148,148,148,1,0,0,1,1,0,0,4.396449754808794,0,0,0,0,0,0,0,0,0,0,148,148,148,148
4768,206996272,0,0,0,0,0,0,0,0,0,1,2,-1,1000,0,0,0,0,1302,0,648,0,0,0,94,96,95,98,148,148,148,148,1,0,0,1,1,0,0,4.396449754808794,0,0,0,0,0,0,0,0,0,0,148,148,148,148
4784,206998272,0,0,0,0,0,0,0,0,0,1,2,-1,1000,0,0,0,0,1302,0,648,0,0,0,94,96,95,98,148,148,148,148,1,0,0,1,1,0,0,4.396449754808794,0,0,0,0,0,0,0,0,0,0,148,148,148,148
4800,207000272,0,0,0,0,0,0,0,0,0,1,2,-1,1000,0,0,0,0,1302,0,648,0,0,-1,94,96,94,99,148,148,148,148,1,0,0,1,1,0,0,4.396484661393834,0,0,0,0,0,0,0,0,0,1,148,148,148,148
4816,207002265,0,0,0,0,0,0,0,0,0,1,2,-1,1000,0,0,0,0,1302,0,648,0,0,0,94,96,94,99,148,148,148,148,1,0,0,1,1,0,0,4.396484661393834,0,0,0,0,0,0,0,0,0,0,148,148,148,148
4832,207004265,0,0,0,0,0,0,0,0,0,1,2,-1,1000,0,0,0,0,1302,0,648,0,0,0,94,96,94,99,148,148,148,148,1,0,0,1,1,0,0,4.396484661393834,0,0,0,0,0,0,0,0,0,0,148,148,148,148
4848,207006261,0,0,0,0,0,0,0,0,0,1,2,-1,1000,0,0,0,0,1302,0,648,0,1,-1,94,96,95,98,148,148,148,148,1,0,0,1,1,0,0,4.396519498165705,0,0,0,0,0,0,0,0,-1,1,148,148,148,148
4864,207008259,0,0,0,0,0,0,0,0,0,1,2,-1,1000,0,0,0,0,1303,0,648,0,0,0,94,96,95,98,148,148,148,148,1,0,0,1,1,0,0,4.396519498165705,0,0,0,0,0,0,0,0,0,0,148,148,148,148
4880,207010255,0,0,0,0,0,0,0,0,0,1,2,-1,1000,0,0,0,0,1303,0,648,0,0,0,94,96,95,98,148,148,148,148,1,0,0,1,1,0,0,4.396519498165705,0,0,0,0,0,0,0,0,0,0,148,148,148,148
4896,207012255,0,0,0,0,0,0,0,0,0,1,2,-1,1000,0,0,0,0,1303,0,647,0,0,0,94,96,95,99,148,148,148,148,1,0,0,1,1,0,0,4.396519498165705,0,0,0,0,0,0,0,0,0,0,148,148,148,148
4912,207014252,0,0,0,0,0,0,0,0,0,1,2,-1,1000,0,0,0,0,1303,0,647,-1,0,1,94,96,95,99,148,148,148,148,1,0,0,1,1,0,0,4.396484640301418,0,0,0,0,0,0,0,1,0,-1,148,148,148,148
4928,207016250,0,0,0,0,0,0,0,0,0,1,2,-1,1000,0,0,0,0,1303,0,647,0,1,0,94,96,95,99,148,148,148,148,1,0,0,1,1,0,0,4.396484640301419,0,0,0,0,0,0,0,0,-1,0,148,148,148,148
4944,207018247,0,0,0,0,0,0,0,0,0,1,2,-1,1000,0,0,0,0,1303,0,647,0,0,0,94,96,95,99,148,148,148,148,1,0,0,1,1,0,0,4.396484640301419,0,0,0,0,0,0,0,0,0,0,148,148,148,148
4960,207020245,0,0,0,0,0,0,0,0,0,1,2,-1,1000,0,0,0,0,1303,0,647,0,0,0,94,96,94,98,148,148,148,148,1,0,0,1,1,0,0,4.396484640301419,0,0,0,0,0,0,0,0,0,0,148,148,148,148
4976,207022245,0,0,0,0,0,0,0,0,0,1,2,-1,1000,0,0,0,0,1303,0,647,0,0,0,94,96,94,98,148,148,148,148,1,0,0,1,1,0,0,4.396484640301419,0,0,0,0,0,0,0,0,0,0,148,148,148,148
4992,207024241,0,0,0,0,0,0,0,0,0,1,2,-1,1000,0,0,0,0,1303,0,646,0,0,0,94,96,94,98,148,148,148,148,1,0,0,1,1,0,0,4.396484640301419,0,0,0,0,0,0,0,0,0,0,148,148,148,148
5008,207026242,0,0,0,0,0,0,0,0,0,1,2,-1,1000,0,0,0,0,1303,0,646,0,0,0,94,96,94,98,148,148,148,148,1,0,0,1,1,0,0,4.396484640301419,0,0,0,0,0,0,0,0,0,0,148,148,148,148
5024,207028240,0,0,0,0,0,0,0,0,0,1,2,-1,1000,0,0,0,0,1302,0,646,0,0,0,95,96,94,98,148,148,148,148,1,0,0,1,1,0,0,4.396484640301419,0,0,0,0,0,0,0,0,0,0,148,148,148,148
5040,207030237,0,0,0,0,0,0,0,0,0,1,2,-1,1000,0,0,0,0,1302,0,646,0,0,0,95,96,94,98,148,148,148,148,1,0,0,1,1,0,0,4.396484640301419,0,0,0,0,0,0,0,0,0,0,148,148,148,148
5056,207032238,0,0,0,0,0,0,0,0,0,1,2,-1,1000,0,0,0,0,1302,0,646,0,0,0,95,96,95,98,148,148,148,148,1,0,0,1,1,0,0,4.396484640301419,0,0,0,0,0,0,0,0,0,0,148,148,148,148
5072,207034233,0,0,0,0,0,0,0,0,0,1,2,-1,1000,0,0,0,0,1302,0,646,0,0,0,94,96,95,98,148,148,148,148,1,0,0,1,1,0,0,4.396484640301419,0,0,0,0,0,0,0,0,0,0,148,148,148,148
5088,207036231,0,0,0,0,0,0,0,0,0,1,2,-1,1000,0,0,0,0,1302,0,647,0,0,0,94,96,95,98,148,148,148,148,1,0,0,1,1,0,0,4.396484640301419,0,0,0,0,0,0,0,0,0,0,148,148,148,148
5104,207038228,0,0,0,0,0,0,0,0,0,1,2,-1,1000,0,0,0,0,1302,0,647,0,0,0,94,96,95,98,148,148,148,148,1,0,0,1,1,0,0,4.396484640301419,0,0,0,0,0,0,0,0,0,0,148,148,148,148
5120,207040227,0,0,0,0,0,0,0,0,0,1,2,-1,1000,0,0,0,0,1302,0,647,0,0,0,95,96,95,98,148,148,148,148,1,0,0,1,1,0,0,4.396484640301419,0,0,0,0,0,0,0,0,0,0,148,148,148,148
5136,207042224,0,0,0,0,0,0,0,0,0,1,2,-1,1000,0,0,0,0,1302,0,647,0,0,0,95,96,95,98,148,148,148,148,1,0,0,1,1,0,0,4.396484640301419,0,0,0,0,0,0,0,0,0,0,148,148,148,148
5152,207044226,0,0,0,0,0,0,0,0,0,1,2,-1,1000,0,0,0,0,1302,0,647,0,0,0,95,96,94,99,148,148,148,148,1,0,0,1,1,0,0,4.396484640301419,0,0,0,0,0,0,0,0,0,0,148,148,148,148
5168,207046220,0,0,0,0,0,0,0,0,0,1,2,-1,1000,0,0,0,0,1302,112,647,0,0,0,94,96,94,99,148,148,148,148,1,0,0,1,1,0,0,4.396484640301419,0,0,0,0,0,0,0,0,0,0,148,148,148,148
5184,207048219,0,0,0,0,0,0,0,0,0,1,2,-1,1000,0,0,0,0,1302,112,647,1,0,0,94,96,94,99,148,148,148,148,1,0,0,1,1,0,0,4.396484645160852,0,0,0,0,0,0,0,-1,0,0,148,148,148,148
5200,207050215,0,0,0,0,0,0,0,0,0,1,2,-1,1000,0,0,0,0,1302,112,648,0,0,0,94,96,95,98,148,148,148,148,1,0,0,1,1,0,0,4.396484645160852,0,0,0,0,0,0,0,0,0,0,148,148,148,148
5216,207052215,0,0,0,0,0,0,0,0,0,1,2,-1,1000,0,0,0,0,1302,112,648,0,0,0,94,96,95,98,148,148,148,148,1,0,0,1,1,0,0,4.396484645160852,0,0,0,0,0,0,0,0,0,0,148,148,148,148
5232,207054211,0,0,0,0,0,0,0,0,0,1,2,-1,1000,0,0,0,0,1302,112,648,0,0,0,94,96,95,98,148,148,148,148,1,0,0,1,1,0,0,4.396484645160852,0,0,0,0,0,0,0,0,0,0,148,148,148,148
5248,207056213,0,0,0,0,0,0,0,0,0,1,2,-1,1000,0,0,0,0,1302,112,648,0,0,0,94,96,95,99,148,148,148,148,1,0,0,1,1,0,0,4.396484645160852,0,0,0,0,0,0,0,0,0,0,148,148,148,148
5264,207058204,0,0,0,0,0,0,0,0,0,1,2,-2,1000,0,0,0,0,1302,112,648,0,0,1,94,96,94,99,148,148,148,148,1,0,0,1,1,0,0,4.3964498956554445,0,0,0,0,0,0,0,0,0,-1,148,148,148,148
5280,207060206,0,0,0,0,0,0,0,0,0,1,2,-2,1000,0,0,0,0,1302,112,648,0,0,0,94,96,94,99,148,148,148,148,1,0,0,1,1,0,0,4.3964498956554445,0,0,0,0,0,0,0,0,0,0,148,148,148,148
5296,207062202,0,0,0,0,0,0,0,0,0,1,4,-1,1000,0,0,0,0,1302,112,647,0,0,0,94,97,94,98,148,148,148,148,1,0,0,1,1,0,0,4.3964498956554445,0,0,0,0,0,0,0,0,0,0,148,148,148,148
5312,207064201,0,0,0,0,0,0,0,0,0,1,4,-1,1000,0,1,0,0,1302,112,647,0,0,0,94,97,95,98,148,148,148,148,1,0,0,1,1,0,0,4.3964498956554445,0,0,0,0,1,0,0,0,1,0,148,148,148,148
5328,207066200,0,0,0,0,0,0,0,0,0,-1,2,-2,1000,0,1,0,0,1302,0,647,0,0,0,94,97,95,98,148,148,148,148,1,0,0,1,1,0,0,4.3964498956554445,0,0,0,0,1,0,0,0,1,0,148,148,148,148
5344,207068198,0,0,0,0,0,0,0,0,0,-1,2,-2,1000,0,0,0,0,1302,0,647,0,0,1,94,96,95,98,148,148,148,148,1,0,0,1,1,0,0,4.3964150239769895,0,0,0,0,0,0,0,0,0,-1,148,148,148,148
5360,207070193,0,0,0,0,0,0,0,0,0,1,2,-1,1000,0,0,0,0,1302,0,647,0,0,0,94,96,95,98,148,148,148,148,1,0,0,1,1,0,0,4.3964150239769895,0,0,0,0,0,0,0,0,0,0,148,148,148,148
5376,207072190,0,0,0,0,0,0,0,0,0,1,2,-1,1000,0,0,0,0,1302,0,647,0,0,0,95,96,95,98,148,148,148,148,1,0,0,1,1,0,0,4.3964150239769895,0,0,0,0,0,0,0,0,0,0,148,148,148,148
5392,207074188,0,0,0,0,0,0,0,0,0,1,2,-1,1000,0,0,0,0,1302,0,647,0,0,0,95,96,95,99,148,148,148,148,1,0,0,1,1,0,0,4.3964150239769895,0,0,0,0,0,0,0,0,0,0,148,148,148,148
5408,207076190,0,0,0,0,0,0,0,0,0,1,2,-1,1000,0,0,0,0,1302,0,647,0,0,0,95,96,94,99,148,148,148,148,1,0,0,1,1,0,0,4.3964150239769895,0,0,0,0,0,0,0,0,0,0,148,148,148,148
5424,207078187,0,0,0,0,0,0,0,0,0,1,2,-2,1000,0,0,0,0,1302,0,647,0,0,0,94,96,94,99,148,148,148,148,1,0,0,1,1,0,0,4.3964150239769895,0,0,0,0,0,0,0,0,0,0,148,148,148,148
5440,207080185,0,0,0,0,0,0,0,0,0,1,2,-2,1000,0,0,0,0,1302,0,647,0,0,0,94,96,94,98,148,148,148,148,1,0,0,1,1,0,0,4.3964150239769895,0,0,0,0,0,0,0,0,0,0,148,148,148,148
5456,207082183,0,0,0,0,0,0,0,0,0,1,2,-1,1000,0,0,0,0,1302,0,647,0,0,0,94,96,95,98,148,148,148,148,1,0,0,1,1,0,0,4.3964150239769895,0,0,0,0,0,0,0,0,0,0,148,148,148,148
5472,207084181,0,0,0,0,0,0,0,0,0,1,2,-1,1000,0,0,0,0,1302,0,647,0,0,0,95,96,95,98,148,148,148,148,1,0,0,1,1,0,0,4.3964150239769895,0,0,0,0,0,0,0,0,0,0,148,148,148,148
