"Product","Blackbox flight data recorder by Nicholas Sherlock"
"firmwareType",3
"firmware","4.3"
"firmwarePatch",0
"firmwareVersion","4.3.0"
"Firmware revision","Betaflight 4.3.0 (norevision) STM32F7X2"
"Firmware date","Dec 24 2021 18:42:12"
"Board information","FOXE FOXEERF722V2"
"Log start datetime","2022-01-16T20:29:18.665+00:00"
"Craft name","LIMON_6"
"frameIntervalI",256
"frameIntervalPNum",1
"frameIntervalPDenom",16
"minthrottle",1070
"maxthrottle",2000
"gyroScale",1.7453292519943295e-8
"motorOutput","148,2047"
"acc_1G",0
"vbatscale",121
"vbatmincellvoltage",330
"vbatwarningcellvoltage",350
"vbatmaxcellvoltage",430
"vbatref",1304
"currentMeterOffset",0
"currentMeterScale",400
"looptime",125
"gyro_sync_denom",1
"pid_process_denom",1
"thrMid",50
"thrExpo",0
"dynThrPID",60
"tpa_breakpoint",1350
"rc_rates","7,7,7"
"rc_expo","0,0,0"
"rates","67,67,67"
"rate_limits","1998,1998,1998"
"rollPID","0,0,0,0"
"pitchPID","0,0,0,0"
"yawPID","0,0,0,0"
"levelPID","50,50,75"
"magPID","40,,"
"d_min","0,0,0"
"yaw_lpf_hz",100
"dterm_notch_hz",0
"dterm_notch_cutoff",0
"itermWindupPointPercent",85
"iterm_relax",0
"iterm_relax_type",1
"iterm_relax_cutoff",15
"anti_gravity_mode",0
"anti_gravity_threshold",250
"anti_gravity_gain",0
"abs_control_gain",0
"use_integrated_yaw",0
"ff_transition",0
"yawRateAccelLimit",0
"rateAccelLimit",0
"pidSumLimit",500
"pidSumLimitYaw",400
"deadband",0
"yaw_deadband",0
"gyro_lpf",0
"gyro_notch_hz","0,0"
"gyro_notch_cutoff","0,0"
"gyro_to_use",0
"dyn_notch_max_hz",360
"dyn_notch_count",2
"dyn_notch_q",600
"dyn_notch_min_hz",180
"dshot_bidir",1
"motor_poles",14
"acc_lpf_hz",1000
"acc_hardware",1
"baro_hardware",1
"mag_hardware",1
"gyro_cal_on_first_arm",0
"airmode_activate_throttle",25
"serialrx_provider",14
"unsynced_fast_pwm",0
"fast_pwm_protocol",7
"motor_pwm_rate",480
"digitalIdleOffset",500
"debug_mode",45
"features",268698632
"rc_smoothing",1
"rc_smoothing_auto_factor_setpoint",30
"rc_smoothing_auto_factor_throttle",30
"rc_smoothing_debug_axis",0
"rc_smoothing_active_cutoffs_ff_sp_thr","93,93,93"
"rc_smoothing_rx_average",4048
"rates_type",3
"fields_disabled_mask",0
"vbat_sag_compensation",0
"loopIteration","time","axisP[0]","axisP[1]","axisP[2]","axisI[0]","axisI[1]","axisI[2]","axisF[0]","axisF[1]","axisF[2]","rcCommand[0]","rcCommand[1]","rcCommand[2]","rcCommand[3]","setpoint[0]","setpoint[1]","setpoint[2]","setpoint[3]","vbatLatest","amperageLatest","rssi","gyroADC[0]","gyroADC[1]","gyroADC[2]","debug[0]","debug[1]","debug[2]","debug[3]","motor[0]","motor[1]","motor[2]","motor[3]","flightModeFlags","stateFlags","failsafePhase","rxSignalReceived","rxFlightChannelsValid","heading[0]","heading[1]","heading[2]","axisSum[0]","axisSum[1]","axisSum[2]","rcCommands[0]","rcCommands[1]","rcCommands[2]","rcCommands[3]","axisError[0]","axisError[1]","axisError[2]","motorLegacy[0]","motorLegacy[1]","motorLegacy[2]","motorLegacy[3]"
0,55470620,0,0,0,0,0,0,0,0,0,1,2,-1,1000,0,0,0,0,1305,0,706,0,0,0,80,80,79,80,148,148,148,148,"","","","","",0,0,4.396484385773716,0,0,0,0,0,0,0,0,0,0,148,148,148,148
16,55472616,0,0,0,0,0,0,0,0,0,1,2,-1,1000,0,0,0,0,1305,0,706,0,0,0,80,80,79,80,148,148,148,148,1,0,0,1,1,0,0,4.396484385773716,0,0,0,0,0,0,0,0,0,0,148,148,148,148
32,55474615,0,0,0,0,0,0,0,0,0,1,2,-1,1000,0,0,0,0,1305,0,705,0,0,0,81,80,80,80,148,148,148,148,1,0,0,1,1,0,0,4.396484385773716,0,0,0,0,0,0,0,0,0,0,148,148,148,148
48,55476611,0,0,0,0,0,0,0,0,0,1,2,-1,1000,0,0,0,0,1305,0,705,0,0,0,81,80,80,81,148,148,148,148,1,0,0,1,1,0,0,4.396484385773716,0,0,0,0,0,0,0,0,0,0,148,148,148,148
64,55478612,0,0,0,0,0,0,0,0,0,1,2,-1,1000,0,0,0,0,1305,0,705,0,0,0,81,81,80,81,148,148,148,148,1,0,0,1,1,0,0,4.396484385773716,0,0,0,0,0,0,0,0,0,0,148,148,148,148
80,55480607,0,0,0,0,0,0,0,0,0,1,2,-1,1000,0,0,0,0,1306,0,705,0,0,0,81,81,80,81,148,148,148,148,1,0,0,1,1,0,0,4.396484385773716,0,0,0,0,0,0,0,0,0,0,148,148,148,148
96,55482605,0,0,0,0,0,0,0,0,0,1,2,-1,1000,0,0,0,0,1306,0,705,0,0,0,82,81,81,81,148,148,148,148,1,0,0,1,1,0,0,4.396484385773716,0,0,0,0,0,0,0,0,0,0,148,148,148,148
112,55484602,0,0,0,0,0,0,0,0,0,1,2,-1,1000,0,0,0,0,1306,0,705,0,0,0,82,82,81,81,148,148,148,148,1,0,0,1,1,0,0,4.396484385773716,0,0,0,0,0,0,0,0,0,0,148,148,148,148
128,55486603,0,0,0,0,0,0,0,0,0,1,2,-1,1000,0,0,0,0,1306,0,705,0,0,0,82,82,81,81,148,148,148,148,1,0,0,1,1,0,0,4.396484385773716,0,0,0,0,0,0,0,0,0,0,148,148,148,148
144,55488598,0,0,0,0,0,0,0,0,0,1,1,-1,1000,0,0,0,0,1306,0,703,0,0,0,83,82,81,81,148,148,148,148,1,0,0,1,1,0,0,4.396484385773716,0,0,0,0,0,0,0,0,0,0,148,148,148,148
160,55490598,0,0,0,0,0,0,0,0,0,1,1,-1,1000,0,0,0,0,1306,0,703,0,0,0,83,82,81,81,148,148,148,148,1,0,0,1,1,0,0,4.396484385773716,0,0,0,0,0,0,0,0,0,0,148,148,148,148
176,55492594,0,0,0,0,0,0,0,0,0,1,2,-1,1000,0,0,0,0,1306,0,703,0,0,0,83,83,81,83,148,148,148,148,1,0,0,1,1,0,0,4.396484385773716,0,0,0,0,0,0,0,0,0,0,148,148,148,148
192,55494592,0,0,0,0,0,0,0,0,0,1,2,-1,1000,0,0,0,0,1306,0,703,0,0,-1,83,83,81,83,148,148,148,148,1,0,0,1,1,0,0,4.396519257452171,0,0,0,0,0,0,0,0,0,1,148,148,148,148
208,55496589,0,0,0,0,0,0,0,0,0,1,2,-1,1000,0,0,0,0,1306,0,703,0,0,0,84,83,82,83,148,148,148,148,1,0,0,1,1,0,0,4.396519257452171,0,0,0,0,0,0,0,0,0,0,148,148,148,148
224,55498589,0,0,0,0,0,0,0,0,0,1,2,-1,1000,0,0,0,0,1306,0,703,0,0,0,84,84,82,84,148,148,148,148,1,0,0,1,1,0,0,4.396519257452171,0,0,0,0,0,0,0,0,0,0,148,148,148,148
240,55500587,0,0,0,0,0,0,0,0,0,1,2,-1,1000,0,0,0,0,1305,0,704,0,0,0,84,84,82,84,148,148,148,148,1,0,0,1,1,0,0,4.396519257452171,0,0,0,0,0,0,0,0,0,0,148,148,148,148
256,55502584,0,0,0,0,0,0,0,0,0,1,2,-1,1000,0,0,0,0,1305,0,704,0,0,0,84,84,82,84,148,148,148,148,1,0,0,1,1,0,0,4.396519257452171,0,0,0,0,0,0,0,0,0,0,148,148,148,148
272,55504580,0,0,0,0,0,0,0,0,0,1,2,-1,1000,0,0,0,0,1305,62,704,0,0,0,84,84,83,84,148,148,148,148,1,0,0,1,1,0,0,4.396519257452171,0,0,0,0,0,0,0,0,0,0,148,148,148,148
288,55506578,0,0,0,0,0,0,0,0,0,1,2,-1,1000,0,0,0,0,1305,62,704,0,0,0,84,85,83,84,148,148,148,148,1,0,0,1,1,0,0,4.396519257452171,0,0,0,0,0,0,0,0,0,0,148,148,148,148
304,55508576,0,0,0,0,0,0,0,0,0,1,2,-1,1000,0,0,0,0,1305,62,704,0,0,0,84,85,83,84,148,148,148,148,1,0,0,1,1,0,0,4.396519257452171,0,0,0,0,0,0,0,0,0,0,148,148,148,148
320,55510573,0,0,0,0,0,0,0,0,0,1,2,-1,1000,0,0,0,0,1305,62,704,0,0,0,85,85,83,84,148,148,148,148,1,0,0,1,1,0,0,4.396519257452171,0,0,0,0,0,0,0,0,0,0,148,148,148,148
336,55512571,0,0,0,0,0,0,0,0,0,1,2,-1,1000,0,0,0,0,1305,62,705,0,0,0,85,85,83,85,148,148,148,148,1,0,0,1,1,0,0,4.396519257452171,0,0,0,0,0,0,0,0,0,0,148,148,148,148
352,55514569,0,0,0,0,0,0,0,0,0,1,2,-1,1000,0,0,0,0,1305,62,705,0,0,0,85,85,83,85,148,148,148,148,1,0,0,1,1,0,0,4.396519257452171,0,0,0,0,0,0,0,0,0,0,148,148,148,148
368,55516566,0,0,0,0,0,0,0,0,0,2,2,-1,1000,0,0,0,0,1305,62,705,0,0,0,86,85,83,85,148,148,148,148,1,0,0,1,1,0,0,4.396519257452171,0,0,0,0,0,0,0,0,0,0,148,148,148,148
384,55518564,0,0,0,0,0,0,0,0,0,2,2,-1,1000,0,0,0,0,1305,62,705,0,0,0,86,85,84,85,148,148,148,148,1,0,0,1,1,0,0,4.396519257452171,0,0,0,0,0,0,0,0,0,0,148,148,148,148
400,55520562,0,0,0,0,0,0,0,0,0,1,1,-1,1000,0,0,0,0,1306,62,705,-1,0,0,86,86,84,85,148,148,148,148,1,0,0,1,1,0,0,4.39651925745215,0,0,0,0,0,0,0,1,0,0,148,148,148,148
416,55522562,0,0,0,0,0,0,0,0,0,1,1,-1,1000,0,0,0,0,1306,62,705,0,0,0,86,86,84,85,148,148,148,148,1,0,0,1,1,0,0,4.39651925745215,0,0,0,0,0,0,0,0,0,0,148,148,148,148
432,55524559,0,0,0,0,0,0,0,0,0,1,2,-1,1000,0,0,0,0,1306,0,705,0,0,0,86,86,85,85,148,148,148,148,1,0,0,1,1,0,0,4.39651925745215,0,0,0,0,0,0,0,0,0,0,148,148,148,148
448,55526556,0,0,0,0,0,0,0,0,0,1,2,-1,1000,0,0,0,0,1306,0,705,0,0,0,86,86,85,86,148,148,148,148,1,0,0,1,1,0,0,4.39651925745215,0,0,0,0,0,0,0,0,0,0,148,148,148,148
464,55528553,0,0,0,0,0,0,0,0,0,1,2,-1,1000,0,0,0,0,1306,0,705,0,0,0,86,86,85,86,148,148,148,148,1,0,0,1,1,0,0,4.39651925745215,0,0,0,0,0,0,0,0,0,0,148,148,148,148
480,55530550,0,0,0,0,0,0,0,0,0,1,2,-1,1000,0,0,0,0,1306,0,705,0,0,0,87,86,85,86,148,148,148,148,1,0,0,1,1,0,0,4.39651925745215,0,0,0,0,0,0,0,0,0,0,148,148,148,148
496,55532548,0,0,0,0,0,0,0,0,0,1,2,-1,1000,0,0,0,0,1306,0,705,0,-1,0,87,86,85,86,148,148,148,148,1,0,0,1,1,0,0,4.396519257452171,0,0,0,0,0,0,0,0,1,0,148,148,148,148
512,55534546,0,0,0,0,0,0,0,0,0,1,2,-1,1000,0,0,0,0,1306,0,705,-1,1,0,87,87,85,87,148,148,148,148,1,0,0,1,1,0,0,4.39651925866812,0,0,0,0,0,0,0,1,-1,0,148,148,148,148
528,55536544,0,0,0,0,0,0,0,0,0,1,2,-1,1000,0,0,0,0,1306,0,705,0,-1,0,87,87,85,87,148,148,148,148,1,0,0,1,1,0,0,4.396519258668142,0,0,0,0,0,0,0,0,1,0,148,148,148,148
544,55538542,0,0,0,0,0,0,0,0,0,1,2,-1,1000,0,0,0,0,1306,0,705,0,0,0,87,87,86,87,148,148,148,148,1,0,0,1,1,0,0,4.396519258668142,0,0,0,0,0,0,0,0,0,0,148,148,148,148
560,55540540,0,0,0,0,0,0,0,0,0,1,2,-1,1000,0,0,0,0,1306,0,705,0,0,0,87,88,86,87,148,148,148,148,1,0,0,1,1,0,0,4.396519258668142,0,0,0,0,0,0,0,0,0,0,148,148,148,148
576,55542537,0,0,0,0,0,0,0,0,0,1,2,-1,1000,0,0,0,0,1306,0,705,0,0,0,87,88,86,87,148,148,148,148,1,0,0,1,1,0,0,4.396519258668142,0,0,0,0,0,0,0,0,0,0,148,148,148,148
592,55544538,0,0,0,0,0,0,0,0,0,1,2,-1,1000,0,0,0,0,1306,57,705,0,0,0,88,88,86,87,148,148,148,148,1,0,0,1,1,0,0,4.396519258668142,0,0,0,0,0,0,0,0,0,0,148,148,148,148
608,55546533,0,0,0,0,0,0,0,0,0,1,2,-1,1000,0,0,0,0,1306,57,705,0,0,0,88,88,86,87,148,148,148,148,1,0,0,1,1,0,0,4.396519258668142,0,0,0,0,0,0,0,0,0,0,148,148,148,148
624,55548530,0,0,0,0,0,0,0,0,0,1,2,-1,1000,0,0,0,0,1306,57,702,0,0,0,88,88,86,88,148,148,148,148,1,0,0,1,1,0,0,4.396519258668142,0,0,0,0,0,0,0,0,0,0,148,148,148,148
640,55550528,0,0,0,0,0,0,0,0,0,1,2,-1,1000,0,0,0,0,1306,57,702,0,-1,0,88,88,86,88,148,148,148,148,1,0,0,1,1,0,0,4.396519258668205,0,0,0,0,0,0,0,0,1,0,148,148,148,148
656,55552526,0,0,0,0,0,0,0,0,0,1,2,-1,1000,0,0,0,0,1306,57,702,-1,0,0,88,88,87,88,148,148,148,148,1,0,0,1,1,0,0,4.396519261100167,0,0,0,0,0,0,0,1,0,0,148,148,148,148
672,55554524,0,0,0,0,0,0,0,0,0,1,2,-1,1000,0,0,0,0,1306,57,702,0,0,0,88,89,87,88,148,148,148,148,1,0,0,1,1,0,0,4.396519261100167,0,0,0,0,0,0,0,0,0,0,148,148,148,148
688,55556523,0,0,0,0,0,0,0,0,0,1,2,-1,1000,0,0,0,0,1306,57,702,0,0,0,88,89,87,88,148,148,148,148,1,0,0,1,1,0,0,4.396519261100167,0,0,0,0,0,0,0,0,0,0,148,148,148,148
704,55558519,0,0,0,0,0,0,0,0,0,1,2,-1,1000,0,0,0,0,1306,57,702,0,0,0,89,89,87,88,148,148,148,148,1,0,0,1,1,0,0,4.396519261100167,0,0,0,0,0,0,0,0,0,0,148,148,148,148
720,55560517,0,0,0,0,0,0,0,0,0,1,1,-1,1000,0,0,0,0,1305,57,700,0,0,0,89,89,87,88,148,148,148,148,1,0,0,1,1,0,0,4.396519261100167,0,0,0,0,0,0,0,0,0,0,148,148,148,148
736,55562517,0,0,0,0,0,0,0,0,0,1,1,-1,1000,0,0,0,0,1305,57,700,0,0,0,89,89,87,88,148,148,148,148,1,0,0,1,1,0,0,4.396519261100167,0,0,0,0,0,0,0,0,0,0,148,148,148,148
752,55564515,0,0,0,0,0,0,0,0,0,1,2,-1,1000,0,0,0,0,1305,0,700,0,0,0,89,89,87,88,148,148,148,148,1,0,0,1,1,0,0,4.396519261100167,0,0,0,0,0,0,0,0,0,0,148,148,148,148
768,55566515,0,0,0,0,0,0,0,0,0,1,2,-1,1000,0,0,0,0,1305,0,700,-1,0,0,89,89,87,88,148,148,148,148,1,0,0,1,1,0,0,4.396519263534521,0,0,0,0,0,0,0,1,0,0,148,148,148,148
784,55568513,0,0,0,0,0,0,0,0,0,1,2,-1,1000,0,0,0,0,1305,0,700,0,0,0,89,89,87,89,148,148,148,148,1,0,0,1,1,0,0,4.396519263534521,0,0,0,0,0,0,0,0,0,0,148,148,148,148
800,55570505,0,0,0,0,0,0,0,0,0,1,2,-1,1000,0,0,0,0,1305,0,700,0,0,0,89,89,87,89,148,148,148,148,1,0,0,1,1,0,0,4.396519263534521,0,0,0,0,0,0,0,0,0,0,148,148,148,148
816,55572503,0,0,0,0,0,0,0,0,0,2,1,-1,1000,0,0,0,0,1305,0,701,0,0,0,90,89,87,89,148,148,148,148,1,0,0,1,1,0,0,4.396519263534521,0,0,0,0,0,0,0,0,0,0,148,148,148,148
832,55574500,0,0,0,0,0,0,0,0,0,2,1,-1,1000,0,0,0,0,1305,0,701,0,0,0,90,90,88,89,148,148,148,148,1,0,0,1,1,0,0,4.396519263534521,0,0,0,0,0,0,0,0,0,0,148,148,148,148
848,55576498,0,0,0,0,0,0,0,0,0,1,2,-1,1000,0,0,0,0,1305,0,701,0,0,0,90,90,88,89,148,148,148,148,1,0,0,1,1,0,0,4.396519263534521,0,0,0,0,0,0,0,0,0,0,148,148,148,148
864,55578496,0,0,0,0,0,0,0,0,0,1,2,-1,1000,0,0,0,0,1305,0,701,0,0,0,90,90,88,89,148,148,148,148,1,0,0,1,1,0,0,4.396519263534521,0,0,0,0,0,0,0,0,0,0,148,148,148,148
880,55580494,0,0,0,0,0,0,0,0,0,1,2,-1,1000,0,0,0,0,1303,0,701,0,0,0,90,91,88,89,148,148,148,148,1,0,0,1,1,0,0,4.396519263534521,0,0,0,0,0,0,0,0,0,0,148,148,148,148
896,55582492,0,0,0,0,0,0,0,0,0,1,2,-1,1000,0,0,0,0,1303,0,701,0,0,0,90,91,88,89,148,148,148,148,1,0,0,1,1,0,0,4.396519263534521,0,0,0,0,0,0,0,0,0,0,148,148,148,148
912,55584490,0,0,0,0,0,0,0,0,0,1,2,-1,1000,0,0,0,0,1303,105,703,0,0,-1,90,91,88,89,148,148,148,148,1,0,0,1,1,0,0,4.396554135212975,0,0,0,0,0,0,0,0,0,1,148,148,148,148
928,55586488,0,0,0,0,0,0,0,0,0,1,2,-1,1000,0,0,0,0,1303,105,703,0,0,0,90,90,88,89,148,148,148,148,1,0,0,1,1,0,0,4.396554135212975,0,0,0,0,0,0,0,0,0,0,148,148,148,148
944,55588490,0,0,0,0,0,0,0,0,0,1,2,-1,1000,0,0,0,0,1303,105,703,0,0,0,90,90,88,90,148,148,148,148,1,0,0,1,1,0,0,4.396554135212975,0,0,0,0,0,0,0,0,0,0,148,148,148,148
960,55590483,0,0,0,0,0,0,0,0,0,1,2,-1,1000,0,0,0,0,1303,105,703,0,0,0,90,90,88,90,148,148,148,148,1,0,0,1,1,0,0,4.396554135212975,0,0,0,0,0,0,0,0,0,0,148,148,148,148
976,55592481,0,0,0,0,0,0,0,0,0,1,2,-1,1000,0,0,0,0,1303,105,703,0,0,0,90,90,88,90,148,148,148,148,1,0,0,1,1,0,0,4.396554135212975,0,0,0,0,0,0,0,0,0,0,148,148,148,148
992,55594478,0,0,0,0,0,0,0,0,0,1,2,-1,1000,0,0,0,0,1303,105,703,0,0,0,90,91,89,90,148,148,148,148,1,0,0,1,1,0,0,4.396554135212975,0,0,0,0,0,0,0,0,0,0,148,148,148,148
1008,55596477,0,0,0,0,0,0,0,0,0,2,2,-1,1000,0,0,0,0,1303,105,702,0,0,0,90,91,89,90,148,148,148,148,1,0,0,1,1,0,0,4.396554135212975,0,0,0,0,0,0,0,0,0,0,148,148,148,148
1024,55598474,0,0,0,0,0,0,0,0,0,2,2,-1,1000,0,0,0,0,1303,105,702,0,0,0,90,91,89,90,148,148,148,148,1,0,0,1,1,0,0,4.396554135212975,0,0,0,0,0,0,0,0,0,0,148,148,148,148
1040,55600472,0,0,0,0,0,0,0,0,0,2,2,-1,1000,0,0,0,0,1306,105,702,0,0,0,90,91,89,90,148,148,148,148,1,0,0,1,1,0,0,4.396554135212975,0,0,0,0,0,0,0,0,0,0,148,148,148,148
1056,55602469,0,0,0,0,0,0,0,0,0,2,2,-1,1000,0,0,0,0,1306,105,702,0,-1,0,90,91,89,90,148,148,148,148,1,0,0,1,1,0,0,4.396554135213187,0,0,0,0,0,0,0,0,1,0,148,148,148,148
1072,55604467,0,0,0,0,0,0,0,0,0,2,2,-1,1000,0,0,0,0,1306,0,702,0,0,0,91,91,89,90,148,148,148,148,1,0,0,1,1,0,0,4.396554135213187,0,0,0,0,0,0,0,0,0,0,148,148,148,148
1088,55606465,0,0,0,0,0,0,0,0,0,2,2,-1,1000,0,0,0,0,1306,0,702,0,0,0,91,92,89,90,148,148,148,148,1,0,0,1,1,0,0,4.396554135213187,0,0,0,0,0,0,0,0,0,0,148,148,148,148
1104,55608463,0,0,0,0,0,0,0,0,0,1,2,-1,1000,0,0,0,0,1306,0,700,0,0,0,91,92,89,91,148,148,148,148,1,0,0,1,1,0,0,4.396554135213187,0,0,0,0,0,0,0,0,0,0,148,148,148,148
1120,55610463,0,0,0,0,0,0,0,0,0,1,2,-1,1000,0,0,0,0,1306,0,700,0,0,0,91,92,89,91,148,148,148,148,1,0,0,1,1,0,0,4.396554135213187,0,0,0,0,0,0,0,0,0,0,148,148,148,148
1136,55612460,0,0,0,0,0,0,0,0,0,1,2,-1,1000,0,0,0,0,1306,0,700,0,0,0,91,92,89,91,148,148,148,148,1,0,0,1,1,0,0,4.396554135213187,0,0,0,0,0,0,0,0,0,0,148,148,148,148
1152,55614458,0,0,0,0,0,0,0,0,0,1,2,-1,1000,0,0,0,0,1306,0,700,0,0,0,91,92,89,91,148,148,148,148,1,0,0,1,1,0,0,4.396554135213187,0,0,0,0,0,0,0,0,0,0,148,148,148,148
1168,55616455,0,0,0,0,0,0,0,0,0,1,2,-1,1000,0,0,0,0,1306,0,700,0,1,1,91,92,89,91,148,148,148,148,1,0,0,1,1,0,0,4.396519280987813,0,0,0,0,0,0,0,0,-1,-1,148,148,148,148
1184,55618451,0,0,0,0,0,0,0,0,0,1,2,-1,1000,0,0,0,0,1306,0,700,0,-1,1,91,92,89,91,148,148,148,148,1,0,0,1,1,0,0,4.396484444216049,0,0,0,0,0,0,0,0,1,-1,148,148,148,148
1200,55620451,0,0,0,0,0,0,0,0,0,1,2,-1,1000,0,0,0,0,1306,0,698,0,0,0,91,92,90,91,148,148,148,148,1,0,0,1,1,0,0,4.396484444216049,0,0,0,0,0,0,0,0,0,0,148,148,148,148
1216,55622448,0,0,0,0,0,0,0,0,0,1,2,-1,1000,0,0,0,0,1306,0,695,0,0,0,91,92,90,91,148,148,148,148,1,0,0,1,1,0,0,4.396484444216049,0,0,0,0,0,0,0,0,0,0,148,148,148,148
1232,55624445,0,0,0,0,0,0,0,0,0,1,2,-1,1000,0,0,0,0,1306,0,695,0,0,0,91,92,90,91,148,148,148,148,1,0,0,1,1,0,0,4.396484444216049,0,0,0,0,0,0,0,0,0,0,148,148,148,148
1248,55626442,0,0,0,0,0,0,0,0,0,1,2,-1,1000,0,0,0,0,1306,75,695,0,0,0,91,92,90,91,148,148,148,148,1,0,0,1,1,0,0,4.396484444216049,0,0,0,0,0,0,0,0,0,0,148,148,148,148
1264,55628440,0,0,0,0,0,0,0,0,0,1,2,-1,1000,0,0,0,0,1306,75,695,0,0,0,91,92,90,91,148,148,148,148,1,0,0,1,1,0,0,4.396484444216049,0,0,0,0,0,0,0,0,0,0,148,148,148,148
1280,55630437,0,0,0,0,0,0,0,0,0,1,2,-1,1000,0,0,0,0,1306,75,695,0,0,0,91,92,90,91,148,148,148,148,1,0,0,1,1,0,0,4.396484444216049,0,0,0,0,0,0,0,0,0,0,148,148,148,148
1296,55632437,0,0,0,0,0,0,0,0,0,1,2,-1,1000,0,0,0,0,1306,75,695,0,0,0,91,93,90,91,148,148,148,148,1,0,0,1,1,0,0,4.396484444216049,0,0,0,0,0,0,0,0,0,0,148,148,148,148
1312,55634432,0,0,0,0,0,0,0,0,0,1,2,-1,1000,0,0,0,0,1306,75,693,0,0,0,91,93,89,92,148,148,148,148,1,0,0,1,1,0,0,4.396484444216049,0,0,0,0,0,0,0,0,0,0,148,148,148,148
1328,55636431,0,0,0,0,0,0,0,0,0,1,2,-1,1000,0,0,0,0,1306,75,693,0,0,0,91,93,89,92,148,148,148,148,1,0,0,1,1,0,0,4.396484444216049,0,0,0,0,0,0,0,0,0,0,148,148,148,148
1344,55638429,0,0,0,0,0,0,0,0,0,1,2,-1,1000,0,0,0,0,1306,75,693,-1,0,0,92,93,89,92,148,148,148,148,1,0,0,1,1,0,0,4.396484447862764,0,0,0,0,0,0,0,1,0,0,148,148,148,148
1360,55640432,0,0,0,0,0,0,0,0,0,1,2,-1,1000,0,0,0,0,1306,75,693,0,0,0,92,93,90,92,148,148,148,148,1,0,0,1,1,0,0,4.396484447862764,0,0,0,0,0,0,0,0,0,0,148,148,148,148
1376,55642424,0,0,0,0,0,0,0,0,0,1,2,-1,1000,0,0,0,0,1303,75,693,0,0,0,92,93,90,92,148,148,148,148,1,0,0,1,1,0,0,4.396484447862764,0,0,0,0,0,0,0,0,0,0,148,148,148,148
1392,55644425,0,0,0,0,0,0,0,0,0,1,2,-1,1000,0,0,0,0,1303,75,693,0,0,0,92,93,90,92,148,148,148,148,1,0,0,1,1,0,0,4.396484447862764,0,0,0,0,0,0,0,0,0,0,148,148,148,148
1408,55646420,0,0,0,0,0,0,0,0,0,1,2,-1,1000,0,0,0,0,1303,67,693,0,0,0,92,93,90,91,148,148,148,148,1,0,0,1,1,0,0,4.396484447862764,0,0,0,0,0,0,0,0,0,0,148,148,148,148
1424,55648419,0,0,0,0,0,0,0,0,0,1,2,-1,1000,0,0,0,0,1303,67,693,0,0,1,92,93,90,91,148,148,148,148,1,0,0,1,1,0,0,4.396449558731017,0,0,0,0,0,0,0,0,0,-1,148,148,148,148
1440,55650415,0,0,0,0,0,0,0,0,0,1,2,-1,1000,0,0,0,0,1303,67,693,0,0,0,92,93,90,91,148,148,148,148,1,0,0,1,1,0,0,4.396449558731017,0,0,0,0,0,0,0,0,0,0,148,148,148,148
1456,55652415,0,0,0,0,0,0,0,0,0,1,2,-1,1000,0,0,0,0,1303,67,693,0,0,0,92,94,90,91,148,148,148,148,1,0,0,1,1,0,0,4.396449558731017,0,0,0,0,0,0,0,0,0,0,148,148,148,148
1472,55654413,0,0,0,0,0,0,0,0,0,1,2,-1,1000,0,0,0,0,1303,67,693,0,0,0,92,94,90,93,148,148,148,148,1,0,0,1,1,0,0,4.396449558731017,0,0,0,0,0,0,0,0,0,0,148,148,148,148
1488,55656410,0,0,0,0,0,0,0,0,0,1,2,-1,1000,0,0,0,0,1303,67,693,0,0,-1,92,94,90,93,148,148,148,148,1,0,0,1,1,0,0,4.3964844129561795,0,0,0,0,0,0,0,0,0,1,148,148,148,148
1504,55658405,0,0,0,0,0,0,0,0,0,1,2,-1,1000,0,0,0,0,1303,67,694,0,0,0,92,94,90,93,148,148,148,148,1,0,0,1,1,0,0,4.3964844129561795,0,0,0,0,0,0,0,0,0,0,148,148,148,148
1520,55660405,0,0,0,0,0,0,0,0,0,1,2,-1,1000,0,0,0,0,1303,67,694,0,0,0,92,94,90,92,148,148,148,148,1,0,0,1,1,0,0,4.3964844129561795,0,0,0,0,0,0,0,0,0,0,148,148,148,148
1536,55662401,0,0,0,0,0,0,0,0,0,1,2,-1,1000,0,0,0,0,1304,67,694,0,0,0,92,94,90,92,148,148,148,148,1,0,0,1,1,0,0,4.3964844129561795,0,0,0,0,0,0,0,0,0,0,148,148,148,148
1552,55664403,0,0,0,0,0,0,0,0,0,1,2,-1,1000,0,0,0,0,1304,67,694,0,0,0,93,94,90,92,148,148,148,148,1,0,0,1,1,0,0,4.3964844129561795,0,0,0,0,0,0,0,0,0,0,148,148,148,148
1568,55666397,0,0,0,0,0,0,0,0,0,1,2,-1,1000,0,0,0,0,1304,0,694,0,0,-1,93,94,91,92,148,148,148,148,1,0,0,1,1,0,0,4.396519214821464,0,0,0,0,0,0,0,0,0,1,148,148,148,148
1584,55668394,0,0,0,0,0,0,0,0,0,1,2,-1,1000,0,0,0,0,1304,0,694,0,-1,0,93,94,91,92,148,148,148,148,1,0,0,1,1,0,0,4.396519214821612,0,0,0,0,0,0,0,0,1,0,148,148,148,148
1600,55670392,0,0,0,0,0,0,0,0,0,1,2,-1,1000,0,0,0,0,1304,0,694,0,0,0,92,94,91,92,148,148,148,148,1,0,0,1,1,0,0,4.396519214821612,0,0,0,0,0,0,0,0,0,0,148,148,148,148
1616,55672390,0,0,0,0,0,0,0,0,0,1,2,-1,1000,0,0,0,0,1304,0,694,0,0,0,92,94,91,93,148,148,148,148,1,0,0,1,1,0,0,4.396519214821612,0,0,0,0,0,0,0,0,0,0,148,148,148,148
1632,55674388,0,0,0,0,0,0,0,0,0,1,2,-1,1000,0,0,0,0,1304,0,694,0,0,0,92,94,90,93,148,148,148,148,1,0,0,1,1,0,0,4.396519214821612,0,0,0,0,0,0,0,0,0,0,148,148,148,148
1648,55676388,0,0,0,0,0,0,0,0,0,1,2,-1,1000,0,0,0,0,1304,0,694,0,0,0,92,94,90,93,148,148,148,148,1,0,0,1,1,0,0,4.396519214821612,0,0,0,0,0,0,0,0,0,0,148,148,148,148
1664,55678383,0,0,0,0,0,0,0,0,0,1,2,-1,1000,0,0,0,0,1304,0,694,0,1,0,92,94,90,92,148,148,148,148,1,0,0,1,1,0,0,4.396519214821464,0,0,0,0,0,0,0,0,-1,0,148,148,148,148
1680,55680381,0,0,0,0,0,0,0,0,0,1,2,-1,1000,0,0,0,0,1304,0,694,0,0,0,92,94,91,92,148,148,148,148,1,0,0,1,1,0,0,4.396519214821464,0,0,0,0,0,0,0,0,0,0,148,148,148,148
1696,55682378,0,0,0,0,0,0,0,0,0,1,2,-1,1000,0,0,0,0,1306,0,693,0,0,0,92,94,91,92,148,148,148,148,1,0,0,1,1,0,0,4.396519214821464,0,0,0,0,0,0,0,0,0,0,148,148,148,148
1712,55684376,0,0,0,0,0,0,0,0,0,1,2,-1,1000,0,0,0,0,1306,0,693,0,0,0,92,94,91,92,148,148,148,148,1,0,0,1,1,0,0,4.396519214821464,0,0,0,0,0,0,0,0,0,0,148,148,148,148
1728,55686374,0,0,0,0,0,0,0,0,0,1,2,-1,1000,0,0,0,0,1306,0,693,0,0,0,92,94,91,93,148,148,148,148,1,0,0,1,1,0,0,4.396519214821464,0,0,0,0,0,0,0,0,0,0,148,148,148,148
1744,55688375,0,0,0,0,0,0,0,0,0,1,2,-1,1000,0,0,0,0,1306,0,693,0,0,0,92,94,91,93,148,148,148,148,1,0,0,1,1,0,0,4.396519214821464,0,0,0,0,0,0,0,0,0,0,148,148,148,148
1760,55690372,0,0,0,0,0,0,0,0,0,2,2,-1,1000,0,0,0,0,1306,0,693,0,0,0,92,95,91,93,148,148,148,148,1,0,0,1,1,0,0,4.396519214821464,0,0,0,0,0,0,0,0,0,0,148,148,148,148
1776,55692370,0,0,0,0,0,0,0,0,0,2,2,-1,1000,0,0,0,0,1306,0,693,0,0,0,92,95,91,93,148,148,148,148,1,0,0,1,1,0,0,4.396519214821464,0,0,0,0,0,0,0,0,0,0,148,148,148,148
1792,55694365,0,0,0,0,0,0,0,0,0,1,2,-1,1000,0,0,0,0,1306,0,693,0,0,-1,92,95,91,93,148,148,148,148,1,0,0,1,1,0,0,4.396554034140041,0,0,0,0,0,0,0,0,0,1,148,148,148,148
1808,55696363,0,0,0,0,0,0,0,0,0,1,2,-1,1000,0,0,0,0,1306,0,693,0,0,0,93,94,91,93,148,148,148,148,1,0,0,1,1,0,0,4.396554034140041,0,0,0,0,0,0,0,0,0,0,148,148,148,148
1824,55698363,0,0,0,0,0,0,0,0,0,1,2,-1,1000,0,0,0,0,1306,0,693,0,0,0,93,94,91,93,148,148,148,148,1,0,0,1,1,0,0,4.396554034140041,0,0,0,0,0,0,0,0,0,0,148,148,148,148
1840,55700358,0,0,0,0,0,0,0,0,0,1,2,-1,1000,0,0,0,0,1306,0,693,0,0,0,93,94,91,93,148,148,148,148,1,0,0,1,1,0,0,4.396554034140041,0,0,0,0,0,0,0,0,0,0,148,148,148,148
1856,55702356,0,0,0,0,0,0,0,0,0,1,2,-1,1000,0,0,0,0,1304,0,693,0,0,0,93,95,91,93,148,148,148,148,1,0,0,1,1,0,0,4.396554034140041,0,0,0,0,0,0,0,0,0,0,148,148,148,148
1872,55704354,0,0,0,0,0,0,0,0,0,1,2,-1,1000,0,0,0,0,1304,0,693,0,0,0,93,95,91,93,148,148,148,148,1,0,0,1,1,0,0,4.396554034140041,0,0,0,0,0,0,0,0,0,0,148,148,148,148
1888,55706352,0,0,0,0,0,0,0,0,0,1,2,-1,1000,0,0,0,0,1304,27,693,-1,0,0,93,95,91,93,148,148,148,148,1,0,0,1,1,0,0,4.396554037787931,0,0,0,0,0,0,0,1,0,0,148,148,148,148
1904,55708349,0,0,0,0,0,0,0,0,0,1,2,-1,1000,0,0,0,0,1304,27,693,0,0,0,93,95,91,93,148,148,148,148,1,0,0,1,1,0,0,4.396554037787931,0,0,0,0,0,0,0,0,0,0,148,148,148,148
1920,55710347,0,0,0,0,0,0,0,0,0,1,2,-1,1000,0,0,0,0,1304,27,693,0,0,0,93,95,91,93,148,148,148,148,1,0,0,1,1,0,0,4.396554037787931,0,0,0,0,0,0,0,0,0,0,148,148,148,148
1936,55712345,0,0,0,0,0,0,0,0,0,1,2,-1,1000,0,0,0,0,1304,27,693,0,0,1,93,95,91,93,148,148,148,148,1,0,0,1,1,0,0,4.396519166109476,0,0,0,0,0,0,0,0,0,-1,148,148,148,148
1952,55714342,0,0,0,0,0,0,0,0,0,2,2,-1,1000,0,0,0,0,1304,27,693,-1,0,0,93,95,91,93,148,148,148,148,1,0,0,1,1,0,0,4.396519169755477,0,0,0,0,0,0,0,1,0,0,148,148,148,148
1968,55716341,0,0,0,0,0,0,0,0,0,2,2,-1,1000,0,0,0,0,1304,27,693,0,0,0,93,95,91,93,148,148,148,148,1,0,0,1,1,0,0,4.396519169755477,0,0,0,0,0,0,0,0,0,0,148,148,148,148
1984,55718338,0,0,0,0,0,0,0,0,0,1,2,-1,1000,0,0,0,0,1304,27,692,0,0,0,93,95,91,93,148,148,148,148,1,0,0,1,1,0,0,4.396519169755477,0,0,0,0,0,0,0,0,0,0,148,148,148,148
2000,55720338,0,0,0,0,0,0,0,0,0,1,2,-1,1000,0,0,0,0,1304,27,692,0,0,0,93,95,91,93,148,148,148,148,1,0,0,1,1,0,0,4.396519169755477,0,0,0,0,0,0,0,0,0,0,148,148,148,148
2016,55722333,0,0,0,0,0,0,0,0,0,1,2,-1,1000,0,0,0,0,1303,27,692,0,0,0,93,95,91,93,148,148,148,148,1,0,0,1,1,0,0,4.396519169755477,0,0,0,0,0,0,0,0,0,0,148,148,148,148
2032,55724331,0,0,0,0,0,0,0,0,0,1,2,-1,1000,0,0,0,0,1303,27,692,0,0,0,93,95,91,93,148,148,148,148,1,0,0,1,1,0,0,4.396519169755477,0,0,0,0,0,0,0,0,0,0,148,148,148,148
2048,55726329,0,0,0,0,0,0,0,0,0,1,2,-1,1000,0,0,0,0,1303,7,692,0,0,1,93,95,91,93,148,148,148,148,1,0,0,1,1,0,0,4.396484298077022,0,0,0,0,0,0,0,0,0,-1,148,148,148,148
2064,55728327,0,0,0,0,0,0,0,0,0,1,2,-1,1000,0,0,0,0,1303,7,692,0,0,0,94,95,91,93,148,148,148,148,1,0,0,1,1,0,0,4.396484298077022,0,0,0,0,0,0,0,0,0,0,148,148,148,148
2080,55730324,0,0,0,0,0,0,0,0,0,1,2,-1,1000,0,0,0,0,1303,7,694,0,0,0,94,95,91,94,148,148,148,148,1,0,0,1,1,0,0,4.396484298077022,0,0,0,0,0,0,0,0,0,0,148,148,148,148
2096,55732321,0,0,0,0,0,0,0,0,0,1,2,-1,1000,0,0,0,0,1303,7,694,0,0,0,94,95,91,94,148,148,148,148,1,0,0,1,1,0,0,4.396484298077022,0,0,0,0,0,0,0,0,0,0,148,148,148,148
2112,55734319,0,0,0,0,0,0,0,0,0,2,2,-1,1000,0,0,0,0,1303,7,694,0,0,0,93,95,91,94,148,148,148,148,1,0,0,1,1,0,0,4.396484298077022,0,0,0,0,0,0,0,0,0,0,148,148,148,148
2128,55736318,0,0,0,0,0,0,0,0,0,2,2,-1,1000,0,0,0,0,1303,7,694,0,0,0,93,95,91,93,148,148,148,148,1,0,0,1,1,0,0,4.396484298077022,0,0,0,0,0,0,0,0,0,0,148,148,148,148
2144,55738316,0,0,0,0,0,0,0,0,0,1,2,-1,1000,0,0,0,0,1303,7,694,0,0,0,93,95,92,93,148,148,148,148,1,0,0,1,1,0,0,4.396484298077022,0,0,0,0,0,0,0,0,0,0,148,148,148,148
2160,55740313,0,0,0,0,0,0,0,0,0,1,2,-1,1000,0,0,0,0,1303,7,694,0,0,0,94,96,92,93,148,148,148,148,1,0,0,1,1,0,0,4.396484298077022,0,0,0,0,0,0,0,0,0,0,148,148,148,148
2176,55742314,0,0,0,0,0,0,0,0,0,2,2,-1,1000,0,0,0,0,1306,7,695,0,0,0,94,96,92,93,148,148,148,148,1,0,0,1,1,0,0,4.396484298077022,0,0,0,0,0,0,0,0,0,0,148,148,148,148
2192,55744309,0,0,0,0,0,0,0,0,0,2,2,-1,1000,0,0,0,0,1306,7,695,0,0,0,94,96,92,93,148,148,148,148,1,0,0,1,1,0,0,4.396484298077022,0,0,0,0,0,0,0,0,0,0,148,148,148,148
2208,55746306,0,0,0,0,0,0,0,0,0,1,2,-1,1000,0,0,0,0,1306,0,695,0,0,0,94,95,92,93,148,148,148,148,1,0,0,1,1,0,0,4.396484298077022,0,0,0,0,0,0,0,0,0,0,148,148,148,148
2224,55748304,0,0,0,0,0,0,0,0,0,1,2,-1,1000,0,0,0,0,1306,0,695,0,0,0,93,95,92,93,148,148,148,148,1,0,0,1,1,0,0,4.396484298077022,0,0,0,0,0,0,0,0,0,0,148,148,148,148
2240,55750303,0,0,0,0,0,0,0,0,0,1,2,-1,1000,0,0,0,0,1306,0,695,0,0,0,93,95,92,94,148,148,148,148,1,0,0,1,1,0,0,4.396484298077022,0,0,0,0,0,0,0,0,0,0,148,148,148,148
2256,55752299,0,0,0,0,0,0,0,0,0,1,2,-1,1000,0,0,0,0,1306,0,695,0,0,0,93,95,92,94,148,148,148,148,1,0,0,1,1,0,0,4.396484298077022,0,0,0,0,0,0,0,0,0,0,148,148,148,148
2272,55754298,0,0,0,0,0,0,0,0,0,1,2,-1,1000,0,0,0,0,1306,0,694,0,0,0,93,96,92,94,148,148,148,148,1,0,0,1,1,0,0,4.396484298077022,0,0,0,0,0,0,0,0,0,0,148,148,148,148
2288,55756295,0,0,0,0,0,0,0,0,0,1,2,-1,1000,0,0,0,0,1306,0,694,0,0,0,93,96,92,94,148,148,148,148,1,0,0,1,1,0,0,4.396484298077022,0,0,0,0,0,0,0,0,0,0,148,148,148,148
2304,55758293,0,0,0,0,0,0,0,0,0,1,2,-1,1000,0,0,0,0,1306,0,694,0,0,0,93,96,92,94,148,148,148,148,1,0,0,1,1,0,0,4.396484298077022,0,0,0,0,0,0,0,0,0,0,148,148,148,148
2320,55760291,0,0,0,0,0,0,0,0,0,1,2,-1,1000,0,0,0,0,1306,0,694,0,0,0,93,96,92,94,148,148,148,148,1,0,0,1,1,0,0,4.396484298077022,0,0,0,0,0,0,0,0,0,0,148,148,148,148
2336,55762289,0,0,0,0,0,0,0,0,0,1,2,-1,1000,0,0,0,0,1307,0,694,0,0,0,93,96,92,94,148,148,148,148,1,0,0,1,1,0,0,4.396484298077022,0,0,0,0,0,0,0,0,0,0,148,148,148,148
2352,55764288,0,0,0,0,0,0,0,0,0,1,2,-1,1000,0,0,0,0,1307,0,694,0,0,0,93,96,92,94,148,148,148,148,1,0,0,1,1,0,0,4.396484298077022,0,0,0,0,0,0,0,0,0,0,148,148,148,148
2368,55766284,0,0,0,0,0,0,0,0,0,1,2,-1,1000,0,0,0,0,1307,0,694,0,0,0,94,95,92,94,148,148,148,148,1,0,0,1,1,0,0,4.396484298077022,0,0,0,0,0,0,0,0,0,0,148,148,148,148
2384,55768281,0,0,0,0,0,0,0,0,0,2,2,-1,1000,0,0,0,0,1307,0,694,0,0,0,94,95,92,93,148,148,148,148,1,0,0,1,1,0,0,4.396484298077022,0,0,0,0,0,0,0,0,0,0,148,148,148,148
2400,55770279,0,0,0,0,0,0,0,0,0,2,2,-1,1000,0,0,0,0,1307,0,694,0,0,0,94,95,92,93,148,148,148,148,1,0,0,1,1,0,0,4.396484298077022,0,0,0,0,0,0,0,0,0,0,148,148,148,148
2416,55772276,0,0,0,0,0,0,0,0,0,1,1,-1,1000,0,0,0,0,1307,0,694,0,0,0,93,96,92,93,148,148,148,148,1,0,0,1,1,0,0,4.396484298077022,0,0,0,0,0,0,0,0,0,0,148,148,148,148
2432,55774275,0,0,0,0,0,0,0,0,0,1,1,-1,1000,0,0,0,0,1307,0,694,0,0,0,93,96,92,93,148,148,148,148,1,0,0,1,1,0,0,4.396484298077022,0,0,0,0,0,0,0,0,0,0,148,148,148,148
2448,55776272,0,0,0,0,0,0,0,0,0,1,2,-1,1000,0,0,0,0,1307,0,694,0,0,0,93,96,92,94,148,148,148,148,1,0,0,1,1,0,0,4.396484298077022,0,0,0,0,0,0,0,0,0,0,148,148,148,148
2464,55778270,0,0,0,0,0,0,0,0,0,1,2,-1,1000,0,0,0,0,1307,0,694,0,0,0,93,96,92,94,148,148,148,148,1,0,0,1,1,0,0,4.396484298077022,0,0,0,0,0,0,0,0,0,0,148,148,148,148
2480,55780268,0,0,0,0,0,0,0,0,0,1,2,-1,1000,0,0,0,0,1307,0,694,0,0,0,93,96,92,94,148,148,148,148,1,0,0,1,1,0,0,4.396484298077022,0,0,0,0,0,0,0,0,0,0,148,148,148,148
2496,55782268,0,0,0,0,0,0,0,0,0,1,2,-1,1000,0,0,0,0,1307,0,694,0,0,0,93,96,92,93,148,148,148,148,1,0,0,1,1,0,0,4.396484298077022,0,0,0,0,0,0,0,0,0,0,148,148,148,148
2512,55784265,0,0,0,0,0,0,0,0,0,1,2,-1,1000,0,0,0,0,1307,0,694,0,0,0,93,96,92,93,148,148,148,148,1,0,0,1,1,0,0,4.396484298077022,0,0,0,0,0,0,0,0,0,0,148,148,148,148
2528,55786267,0,0,0,0,0,0,0,0,0,1,2,-1,1000,0,0,0,0,1307,87,694,0,0,0,94,96,92,93,148,148,148,148,1,0,0,1,1,0,0,4.396484298077022,0,0,0,0,0,0,0,0,0,0,148,148,148,148
2544,55788262,0,0,0,0,0,0,0,0,0,1,2,-1,1000,0,0,0,0,1307,87,694,0,0,0,94,96,92,93,148,148,148,148,1,0,0,1,1,0,0,4.396484298077022,0,0,0,0,0,0,0,0,0,0,148,148,148,148
2560,55790258,0,0,0,0,0,0,0,0,0,1,2,-1,1000,0,0,0,0,1307,87,694,0,0,0,94,96,92,93,148,148,148,148,1,0,0,1,1,0,0,4.396484298077022,0,0,0,0,0,0,0,0,0,0,148,148,148,148
2576,55792255,0,0,0,0,0,0,0,0,0,1,2,-1,1000,0,0,0,0,1307,87,694,0,0,0,93,96,92,93,148,148,148,148,1,0,0,1,1,0,0,4.396484298077022,0,0,0,0,0,0,0,0,0,0,148,148,148,148
2592,55794255,0,0,0,0,0,0,0,0,0,1,2,-1,1000,0,0,0,0,1307,87,694,0,0,0,93,96,92,94,148,148,148,148,1,0,0,1,1,0,0,4.396484298077022,0,0,0,0,0,0,0,0,0,0,148,148,148,148
2608,55796250,0,0,0,0,0,0,0,0,0,1,2,-1,1000,0,0,0,0,1307,87,694,0,0,0,93,96,92,94,148,148,148,148,1,0,0,1,1,0,0,4.396484298077022,0,0,0,0,0,0,0,0,0,0,148,148,148,148
2624,55798250,0,0,0,0,0,0,0,0,0,1,2,-1,1000,0,0,0,0,1307,87,694,0,0,0,94,96,92,94,148,148,148,148,1,0,0,1,1,0,0,4.396484298077022,0,0,0,0,0,0,0,0,0,0,148,148,148,148
2640,55800248,0,0,0,0,0,0,0,0,0,1,2,-1,1000,0,0,0,0,1307,87,694,0,0,0,94,96,92,93,148,148,148,148,1,0,0,1,1,0,0,4.396484298077022,0,0,0,0,0,0,0,0,0,0,148,148,148,148
2656,55802246,0,0,0,0,0,0,0,0,0,1,2,-1,1000,0,0,0,0,1307,87,694,0,0,0,94,96,92,93,148,148,148,148,1,0,0,1,1,0,0,4.396484298077022,0,0,0,0,0,0,0,0,0,0,148,148,148,148
2672,55804243,0,0,0,0,0,0,0,0,0,1,2,-1,1000,0,0,0,0,1308,87,697,1,0,0,94,96,92,93,148,148,148,148,1,0,0,1,1,0,0,4.396484294431042,0,0,0,0,0,0,0,-1,0,0,148,148,148,148
2688,55806242,0,0,0,0,0,0,0,0,0,1,2,-1,1000,0,0,0,0,1308,0,697,0,0,0,94,96,92,93,148,148,148,148,1,0,0,1,1,0,0,4.396484294431042,0,0,0,0,0,0,0,0,0,0,148,148,148,148
2704,55808239,0,0,0,0,0,0,0,0,0,1,2,-1,1000,0,0,0,0,1308,0,697,0,0,0,94,96,92,94,148,148,148,148,1,0,0,1,1,0,0,4.396484294431042,0,0,0,0,0,0,0,0,0,0,148,148,148,148
2720,55810236,0,0,0,0,0,0,0,0,0,1,2,-1,1000,0,0,0,0,1308,0,697,0,0,0,94,96,93,94,148,148,148,148,1,0,0,1,1,0,0,4.396484294431042,0,0,0,0,0,0,0,0,0,0,148,148,148,148
2736,55812231,0,0,0,0,0,0,0,0,0,2,2,-1,1000,0,0,0,0,1308,0,697,0,0,0,94,96,93,94,148,148,148,148,1,0,0,1,1,0,0,4.396484294431042,0,0,0,0,0,0,0,0,0,0,148,148,148,148
2752,55814232,0,0,0,0,0,0,0,0,0,2,2,-1,1000,0,0,0,0,1308,0,697,0,0,0,94,96,93,94,148,148,148,148,1,0,0,1,1,0,0,4.396484294431042,0,0,0,0,0,0,0,0,0,0,148,148,148,148
2768,55816227,0,0,0,0,0,0,0,0,0,1,2,-1,1000,0,0,0,0,1308,0,700,0,0,0,94,97,92,94,148,148,148,148,1,0,0,1,1,0,0,4.396484294431042,0,0,0,0,0,0,0,0,0,0,148,148,148,148
2784,55818225,0,0,0,0,0,0,0,0,0,1,2,-1,1000,0,0,0,0,1308,0,700,0,0,0,94,97,92,94,148,148,148,148,1,0,0,1,1,0,0,4.396484294431042,0,0,0,0,0,0,0,0,0,0,148,148,148,148
2800,55820223,0,0,0,0,0,0,0,0,0,2,2,-1,1000,0,0,0,0,1308,0,700,0,0,0,94,97,92,94,148,148,148,148,1,0,0,1,1,0,0,4.396484294431042,0,0,0,0,0,0,0,0,0,0,148,148,148,148
2816,55822220,0,0,0,0,0,0,0,0,0,2,2,-1,1000,0,0,0,0,1308,0,700,0,0,0,94,96,92,94,148,148,148,148,1,0,0,1,1,0,0,4.396484294431042,0,0,0,0,0,0,0,0,0,0,148,148,148,148
2832,55824218,0,0,0,0,0,0,0,0,0,1,2,-1,1000,0,0,0,0,1304,0,700,0,0,0,93,96,92,94,148,148,148,148,1,0,0,1,1,0,0,4.396484294431042,0,0,0,0,0,0,0,0,0,0,148,148,148,148
2848,55826216,0,0,0,0,0,0,0,0,0,1,2,-1,1000,0,0,0,0,1304,0,700,0,0,0,93,96,92,94,148,148,148,148,1,0,0,1,1,0,0,4.396484294431042,0,0,0,0,0,0,0,0,0,0,148,148,148,148
2864,55828213,0,0,0,0,0,0,0,0,0,2,1,-1,1000,0,0,0,0,1304,0,701,0,0,0,93,96,92,94,148,148,148,148,1,0,0,1,1,0,0,4.396484294431042,0,0,0,0,0,0,0,0,0,0,148,148,148,148
2880,55830214,0,0,0,0,0,0,0,0,0,2,1,-1,1000,0,0,0,0,1304,0,701,0,0,0,94,96,93,94,148,148,148,148,1,0,0,1,1,0,0,4.396484294431042,0,0,0,0,0,0,0,0,0,0,148,148,148,148
2896,55832209,0,0,0,0,0,0,0,0,0,1,2,-1,1000,0,0,0,0,1304,0,701,0,0,0,94,96,93,94,148,148,148,148,1,0,0,1,1,0,0,4.396484294431042,0,0,0,0,0,0,0,0,0,0,148,148,148,148
2912,55834207,0,0,0,0,0,0,0,0,0,1,2,-1,1000,0,0,0,0,1304,0,701,0,0,0,94,97,93,94,148,148,148,148,1,0,0,1,1,0,0,4.396484294431042,0,0,0,0,0,0,0,0,0,0,148,148,148,148
2928,55836205,0,0,0,0,0,0,0,0,0,2,2,-1,1000,0,0,0,0,1304,0,701,0,0,0,93,97,92,94,148,148,148,148,1,0,0,1,1,0,0,4.396484294431042,0,0,0,0,0,0,0,0,0,0,148,148,148,148
2944,55838203,0,0,0,0,0,0,0,0,0,2,2,-1,1000,0,0,0,0,1304,0,701,0,0,0,93,97,92,94,148,148,148,148,1,0,0,1,1,0,0,4.396484294431042,0,0,0,0,0,0,0,0,0,0,148,148,148,148
2960,55840200,0,0,0,0,0,0,0,0,0,1,2,-1,1000,0,0,0,0,1304,0,701,0,0,0,93,96,92,94,148,148,148,148,1,0,0,1,1,0,0,4.396484294431042,0,0,0,0,0,0,0,0,0,0,148,148,148,148
2976,55842198,0,0,0,0,0,0,0,0,0,1,2,-1,1000,0,0,0,0,1304,0,701,0,0,0,93,96,92,94,148,148,148,148,1,0,0,1,1,0,0,4.396484294431042,0,0,0,0,0,0,0,0,0,0,148,148,148,148
2992,55844196,0,0,0,0,0,0,0,0,0,2,2,-1,1000,0,0,0,0,1305,0,701,0,0,0,94,96,92,94,148,148,148,148,1,0,0,1,1,0,0,4.396484294431042,0,0,0,0,0,0,0,0,0,0,148,148,148,148
3008,55846193,0,0,0,0,0,0,0,0,0,2,2,-1,1000,0,0,0,0,1305,0,701,0,0,0,94,97,92,94,148,148,148,148,1,0,0,1,1,0,0,4.396484294431042,0,0,0,0,0,0,0,0,0,0,148,148,148,148
3024,55848191,0,0,0,0,0,0,0,0,0,1,2,-1,1000,0,0,0,0,1305,0,701,0,0,-1,94,97,92,94,148,148,148,148,1,0,0,1,1,0,0,4.396519166109497,0,0,0,0,0,0,0,0,0,1,148,148,148,148
3040,55850189,0,0,0,0,0,0,0,0,0,1,2,-1,1000,0,0,0,0,1305,0,701,0,0,0,94,97,93,94,148,148,148,148,1,0,0,1,1,0,0,4.396519166109497,0,0,0,0,0,0,0,0,0,0,148,148,148,148
3056,55852189,0,0,0,0,0,0,0,0,0,1,2,-1,1000,0,0,0,0,1305,0,699,0,0,-1,94,96,93,94,148,148,148,148,1,0,0,1,1,0,0,4.396554072694538,0,0,0,0,0,0,0,0,0,1,148,148,148,148
3072,55854184,0,0,0,0,0,0,0,0,0,1,2,-1,1000,0,0,0,0,1305,0,699,0,0,0,94,96,93,94,148,148,148,148,1,0,0,1,1,0,0,4.396554072694538,0,0,0,0,0,0,0,0,0,0,148,148,148,148
3088,55856182,0,0,0,0,0,0,0,0,0,1,2,-1,1000,0,0,0,0,1305,0,699,0,0,0,94,96,92,94,148,148,148,148,1,0,0,1,1,0,0,4.396554072694538,0,0,0,0,0,0,0,0,0,0,148,148,148,148
3104,55858180,0,0,0,0,0,0,0,0,0,1,2,-1,1000,0,0,0,0,1305,0,699,0,0,0,94,96,92,94,148,148,148,148,1,0,0,1,1,0,0,4.396554072694538,0,0,0,0,0,0,0,0,0,0,148,148,148,148
3120,55860177,0,0,0,0,0,0,0,0,0,1,2,-1,1000,0,0,0,0,1305,0,699,0,0,0,94,96,92,94,148,148,148,148,1,0,0,1,1,0,0,4.396554072694538,0,0,0,0,0,0,0,0,0,0,148,148,148,148
3136,55862175,0,0,0,0,0,0,0,0,0,1,2,-1,1000,0,0,0,0,1305,0,699,0,0,0,94,96,92,94,148,148,148,148,1,0,0,1,1,0,0,4.396554072694538,0,0,0,0,0,0,0,0,0,0,148,148,148,148
3152,55864173,0,0,0,0,0,0,0,0,0,1,2,-1,1000,0,0,0,0,1307,0,698,0,0,0,94,96,92,94,148,148,148,148,1,0,0,1,1,0,0,4.396554072694538,0,0,0,0,0,0,0,0,0,0,148,148,148,148
3168,55866171,0,0,0,0,0,0,0,0,0,1,2,-1,1000,0,0,0,0,1307,0,698,0,0,0,94,96,92,94,148,148,148,148,1,0,0,1,1,0,0,4.396554072694538,0,0,0,0,0,0,0,0,0,0,148,148,148,148
3184,55868171,0,0,0,0,0,0,0,0,0,2,2,-1,1000,0,0,0,0,1307,0,698,0,0,0,94,96,92,94,148,148,148,148,1,0,0,1,1,0,0,4.396554072694538,0,0,0,0,0,0,0,0,0,0,148,148,148,148
3200,55870169,0,0,0,0,0,0,0,0,0,2,2,-1,1000,0,0,0,0,1307,0,698,0,0,0,94,96,92,94,148,148,148,148,1,0,0,1,1,0,0,4.396554072694538,0,0,0,0,0,0,0,0,0,0,148,148,148,148
3216,55872166,0,0,0,0,0,0,0,0,0,1,2,-1,1000,0,0,0,0,1307,0,698,0,0,0,94,97,92,94,148,148,148,148,1,0,0,1,1,0,0,4.396554072694538,0,0,0,0,0,0,0,0,0,0,148,148,148,148
3232,55874166,0,0,0,0,0,0,0,0,0,1,2,-1,1000,0,0,0,0,1307,0,698,0,0,0,94,97,92,94,148,148,148,148,1,0,0,1,1,0,0,4.396554072694538,0,0,0,0,0,0,0,0,0,0,148,148,148,148
3248,55876159,0,0,0,0,0,0,0,0,0,2,2,-1,1000,0,0,0,0,1307,0,699,0,0,-1,94,97,93,94,148,148,148,148,1,0,0,1,1,0,0,4.396588857106529,0,0,0,0,0,0,0,0,0,1,148,148,148,148
3264,55878157,0,0,0,0,0,0,0,0,0,2,2,-1,1000,0,0,0,0,1307,0,699,0,0,0,94,97,93,94,148,148,148,148,1,0,0,1,1,0,0,4.396588857106529,0,0,0,0,0,0,0,0,0,0,148,148,148,148
3280,55880154,0,0,0,0,0,0,0,0,0,2,2,-1,1000,0,0,0,0,1307,0,699,0,0,0,94,97,93,94,148,148,148,148,1,0,0,1,1,0,0,4.396588857106529,0,0,0,0,0,0,0,0,0,0,148,148,148,148
3296,55882152,0,0,0,0,0,0,0,0,0,2,2,-1,1000,0,0,0,0,1307,0,699,0,0,0,94,97,92,94,148,148,148,148,1,0,0,1,1,0,0,4.396588857106529,0,0,0,0,0,0,0,0,0,0,148,148,148,148
3312,55884150,0,0,0,0,0,0,0,0,0,1,2,-1,1000,0,0,0,0,1307,0,699,0,0,0,94,97,92,95,148,148,148,148,1,0,0,1,1,0,0,4.396588857106529,0,0,0,0,0,0,0,0,0,0,148,148,148,148
3328,55886149,0,0,0,0,0,0,0,0,0,1,2,-1,1000,0,0,0,0,1307,70,699,0,0,0,94,97,92,95,148,148,148,148,1,0,0,1,1,0,0,4.396588857106529,0,0,0,0,0,0,0,0,0,0,148,148,148,148
3344,55888146,0,0,0,0,0,0,0,0,0,1,2,-1,1000,0,0,0,0,1307,70,699,0,0,0,94,97,93,95,148,148,148,148,1,0,0,1,1,0,0,4.396588857106529,0,0,0,0,0,0,0,0,0,0,148,148,148,148
3360,55890144,0,0,0,0,0,0,0,0,0,1,2,-1,1000,0,0,0,0,1307,70,699,0,0,0,94,97,93,94,148,148,148,148,1,0,0,1,1,0,0,4.396588857106529,0,0,0,0,0,0,0,0,0,0,148,148,148,148
3376,55892142,0,0,0,0,0,0,0,0,0,1,2,-1,1000,0,0,0,0,1307,70,699,0,0,0,94,97,93,94,148,148,148,148,1,0,0,1,1,0,0,4.396588857106529,0,0,0,0,0,0,0,0,0,0,148,148,148,148
3392,55894141,0,0,0,0,0,0,0,0,0,1,2,-1,1000,0,0,0,0,1307,70,699,0,0,0,94,97,92,94,148,148,148,148,1,0,0,1,1,0,0,4.396588857106529,0,0,0,0,0,0,0,0,0,0,148,148,148,148
3408,55896142,0,0,0,0,0,0,0,0,0,1,2,-1,1000,0,0,0,0,1307,70,699,0,0,1,94,97,92,94,148,148,148,148,1,0,0,1,1,0,0,4.396553933068197,0,0,0,0,0,0,0,0,0,-1,148,148,148,148
3424,55898139,0,0,0,0,0,0,0,0,0,1,2,-1,1000,0,0,0,0,1307,70,699,0,0,0,94,97,92,94,148,148,148,148,1,0,0,1,1,0,0,4.396553933068197,0,0,0,0,0,0,0,0,0,0,148,148,148,148
3440,55900135,0,0,0,0,0,0,0,0,0,1,2,-1,1000,0,0,0,0,1307,70,700,0,0,0,94,97,92,94,148,148,148,148,1,0,0,1,1,0,0,4.396553933068197,0,0,0,0,0,0,0,0,0,0,148,148,148,148
3456,55902132,0,0,0,0,0,0,0,0,0,1,2,-1,1000,0,0,0,0,1307,70,700,0,0,0,94,97,92,94,148,148,148,148,1,0,0,1,1,0,0,4.396553933068197,0,0,0,0,0,0,0,0,0,0,148,148,148,148
3472,55904130,0,0,0,0,0,0,0,0,0,1,2,-1,1000,0,0,0,0,1304,70,700,0,0,0,94,97,92,94,148,148,148,148,1,0,0,1,1,0,0,4.396553933068197,0,0,0,0,0,0,0,0,0,0,148,148,148,148
3488,55906127,0,0,0,0,0,0,0,0,0,1,2,-1,1000,0,0,0,0,1304,90,700,0,0,0,94,97,92,94,148,148,148,148,1,0,0,1,1,0,0,4.396553933068197,0,0,0,0,0,0,0,0,0,0,148,148,148,148
3504,55908128,0,0,0,0,0,0,0,0,0,2,2,-1,1000,0,0,0,0,1304,90,700,0,0,0,94,97,92,95,148,148,148,148,1,0,0,1,1,0,0,4.396553933068197,0,0,0,0,0,0,0,0,0,0,148,148,148,148
3520,55910122,0,0,0,0,0,0,0,0,0,2,2,-1,1000,0,0,0,0,1304,90,700,0,0,0,94,97,92,95,148,148,148,148,1,0,0,1,1,0,0,4.396553933068197,0,0,0,0,0,0,0,0,0,0,148,148,148,148
3536,55912120,0,0,0,0,0,0,0,0,0,1,2,-1,1000,0,0,0,0,1304,90,699,0,0,0,94,97,92,95,148,148,148,148,1,0,0,1,1,0,0,4.396553933068197,0,0,0,0,0,0,0,0,0,0,148,148,148,148
3552,55914117,0,0,0,0,0,0,0,0,0,1,2,-1,1000,0,0,0,0,1304,90,699,0,0,0,94,97,92,94,148,148,148,148,1,0,0,1,1,0,0,4.396553933068197,0,0,0,0,0,0,0,0,0,0,148,148,148,148
3568,55916114,0,0,0,0,0,0,0,0,0,1,2,-1,1000,0,0,0,0,1304,90,699,0,0,0,94,97,92,94,148,148,148,148,1,0,0,1,1,0,0,4.396553933068197,0,0,0,0,0,0,0,0,0,0,148,148,148,148
3584,55918115,0,0,0,0,0,0,0,0,0,1,2,-1,1000,0,0,0,0,1304,90,699,0,0,0,94,97,92,94,148,148,148,148,1,0,0,1,1,0,0,4.396553933068197,0,0,0,0,0,0,0,0,0,0,148,148,148,148
3600,55920109,0,0,0,0,0,0,0,0,0,1,2,-1,1000,0,0,0,0,1304,90,699,0,0,0,94,97,93,94,148,148,148,148,1,0,0,1,1,0,0,4.396553933068197,0,0,0,0,0,0,0,0,0,0,148,148,148,148
3616,55922107,0,0,0,0,0,0,0,0,0,2,2,-1,1000,0,0,0,0,1304,90,699,0,0,0,94,97,93,94,148,148,148,148,1,0,0,1,1,0,0,4.396553933068197,0,0,0,0,0,0,0,0,0,0,148,148,148,148
3632,55924105,0,0,0,0,0,0,0,0,0,2,2,-1,1000,0,0,0,0,1304,90,699,0,0,0,94,97,93,94,148,148,148,148,1,0,0,1,1,0,0,4.396553933068197,0,0,0,0,0,0,0,0,0,0,148,148,148,148
3648,55926103,0,0,0,0,0,0,0,0,0,1,2,-1,1000,0,0,0,0,1304,0,699,0,0,0,94,97,92,94,148,148,148,148,1,0,0,1,1,0,0,4.396553933068197,0,0,0,0,0,0,0,0,0,0,148,148,148,148
3664,55928100,0,0,0,0,0,0,0,0,0,1,2,-1,1000,0,0,0,0,1304,0,699,0,0,0,94,97,92,94,148,148,148,148,1,0,0,1,1,0,0,4.396553933068197,0,0,0,0,0,0,0,0,0,0,148,148,148,148
3680,55930098,0,0,0,0,0,0,0,0,0,1,2,-1,1000,0,0,0,0,1304,0,699,0,0,0,94,97,92,94,148,148,148,148,1,0,0,1,1,0,0,4.396553933068197,0,0,0,0,0,0,0,0,0,0,148,148,148,148
3696,55932096,0,0,0,0,0,0,0,0,0,1,2,-1,1000,0,0,0,0,1304,0,699,0,0,0,95,97,92,94,148,148,148,148,1,0,0,1,1,0,0,4.396553933068197,0,0,0,0,0,0,0,0,0,0,148,148,148,148
3712,55934093,0,0,0,0,0,0,0,0,0,1,2,-1,1000,0,0,0,0,1304,0,699,0,0,0,95,97,93,94,148,148,148,148,1,0,0,1,1,0,0,4.396553933068197,0,0,0,0,0,0,0,0,0,0,148,148,148,148
3728,55936093,0,0,0,0,0,0,0,0,0,1,2,-1,1000,0,0,0,0,1304,0,698,0,0,0,95,97,93,94,148,148,148,148,1,0,0,1,1,0,0,4.396553933068197,0,0,0,0,0,0,0,0,0,0,148,148,148,148
3744,55938092,0,0,0,0,0,0,0,0,0,1,2,-1,1000,0,0,0,0,1304,0,698,0,0,0,94,97,93,94,148,148,148,148,1,0,0,1,1,0,0,4.396553933068197,0,0,0,0,0,0,0,0,0,0,148,148,148,148
3760,55940091,0,0,0,0,0,0,0,0,0,1,2,-1,1000,0,0,0,0,1304,0,698,0,0,0,94,97,93,95,148,148,148,148,1,0,0,1,1,0,0,4.396553933068197,0,0,0,0,0,0,0,0,0,0,148,148,148,148
3776,55942085,0,0,0,0,0,0,0,0,0,1,2,-1,1000,0,0,0,0,1304,0,698,0,0,0,94,97,93,95,148,148,148,148,1,0,0,1,1,0,0,4.396553933068197,0,0,0,0,0,0,0,0,0,0,148,148,148,148
3792,55944083,0,0,0,0,0,0,0,0,0,1,2,-1,1000,0,0,0,0,1304,0,698,0,0,0,94,97,93,95,148,148,148,148,1,0,0,1,1,0,0,4.396553933068197,0,0,0,0,0,0,0,0,0,0,148,148,148,148
3808,55946080,0,0,0,0,0,0,0,0,0,1,2,-1,1000,0,0,0,0,1306,25,698,0,0,0,94,97,92,94,148,148,148,148,1,0,0,1,1,0,0,4.396553933068197,0,0,0,0,0,0,0,0,0,0,148,148,148,148
3824,55948078,0,0,0,0,0,0,0,0,0,1,2,-1,1000,0,0,0,0,1306,25,698,0,0,0,94,97,92,94,148,148,148,148,1,0,0,1,1,0,0,4.396553933068197,0,0,0,0,0,0,0,0,0,0,148,148,148,148
3840,55950076,0,0,0,0,0,0,0,0,0,1,2,-1,1000,0,0,0,0,1306,25,698,0,0,0,94,97,92,94,148,148,148,148,1,0,0,1,1,0,0,4.396553933068197,0,0,0,0,0,0,0,0,0,0,148,148,148,148
3856,55952076,0,0,0,0,0,0,0,0,0,1,2,-1,1000,0,0,0,0,1306,25,698,0,0,0,94,97,92,95,148,148,148,148,1,0,0,1,1,0,0,4.396553933068197,0,0,0,0,0,0,0,0,0,0,148,148,148,148
3872,55954071,0,0,0,0,0,0,0,0,0,1,2,-1,1000,0,0,0,0,1306,25,698,0,0,0,94,97,92,95,148,148,148,148,1,0,0,1,1,0,0,4.396553933068197,0,0,0,0,0,0,0,0,0,0,148,148,148,148
3888,55956071,0,0,0,0,0,0,0,0,0,1,2,-1,1000,0,0,0,0,1306,25,698,0,0,0,94,97,92,95,148,148,148,148,1,0,0,1,1,0,0,4.396553933068197,0,0,0,0,0,0,0,0,0,0,148,148,148,148
3904,55958067,0,0,0,0,0,0,0,0,0,1,2,-1,1000,0,0,0,0,1306,25,698,0,0,0,95,97,92,95,148,148,148,148,1,0,0,1,1,0,0,4.396553933068197,0,0,0,0,0,0,0,0,0,0,148,148,148,148
3920,55960067,0,0,0,0,0,0,0,0,0,1,2,-1,1000,0,0,0,0,1306,25,698,0,0,0,95,97,93,94,148,148,148,148,1,0,0,1,1,0,0,4.396553933068197,0,0,0,0,0,0,0,0,0,0,148,148,148,148
3936,55962065,0,0,0,0,0,0,0,0,0,1,2,-1,1000,0,0,0,0,1306,25,699,0,0,0,95,97,93,94,148,148,148,148,1,0,0,1,1,0,0,4.396553933068197,0,0,0,0,0,0,0,0,0,0,148,148,148,148
3952,55964060,0,0,0,0,0,0,0,0,0,1,2,-1,1000,0,0,0,0,1306,25,699,0,0,0,94,97,93,94,148,148,148,148,1,0,0,1,1,0,0,4.396553933068197,0,0,0,0,0,0,0,0,0,0,148,148,148,148
3968,55966058,0,0,0,0,0,0,0,0,0,1,2,-1,1000,0,0,0,0,1305,0,699,0,0,0,94,97,93,94,148,148,148,148,1,0,0,1,1,0,0,4.396553933068197,0,0,0,0,0,0,0,0,0,0,148,148,148,148
3984,55968055,0,0,0,0,0,0,0,0,0,1,2,-1,1000,0,0,0,0,1305,0,699,0,0,0,94,97,93,94,148,148,148,148,1,0,0,1,1,0,0,4.396553933068197,0,0,0,0,0,0,0,0,0,0,148,148,148,148
4000,55970053,0,0,0,0,0,0,0,0,0,1,2,-1,1000,0,0,0,0,1305,0,699,0,0,0,94,97,93,94,148,148,148,148,1,0,0,1,1,0,0,4.396553933068197,0,0,0,0,0,0,0,0,0,0,148,148,148,148
4016,55972053,0,0,0,0,0,0,0,0,0,1,2,-1,1000,0,0,0,0,1305,0,699,1,0,-1,94,97,92,95,148,148,148,148,1,0,0,1,1,0,0,4.396588836001738,0,0,0,0,0,0,0,-1,0,1,148,148,148,148
4032,55974048,0,0,0,0,0,0,0,0,0,1,2,-1,1000,0,0,0,0,1305,0,699,-1,0,0,94,97,92,95,148,148,148,148,1,0,0,1,1,0,0,4.396588839644087,0,0,0,0,0,0,0,1,0,0,148,148,148,148
4048,55976046,0,0,0,0,0,0,0,0,0,1,2,-1,1000,0,0,0,0,1305,0,699,0,0,0,94,97,92,95,148,148,148,148,1,0,0,1,1,0,0,4.396588839644087,0,0,0,0,0,0,0,0,0,0,148,148,148,148
4064,55978044,0,0,0,0,0,0,0,0,0,2,2,-1,1000,0,0,0,0,1305,0,699,0,0,0,94,97,92,94,148,148,148,148,1,0,0,1,1,0,0,4.396588839644087,0,0,0,0,0,0,0,0,0,0,148,148,148,148
4080,55980042,0,0,0,0,0,0,0,0,0,2,2,-1,1000,0,0,0,0,1305,0,699,0,0,0,94,97,92,94,148,148,148,148,1,0,0,1,1,0,0,4.396588839644087,0,0,0,0,0,0,0,0,0,0,148,148,148,148
4096,55982039,0,0,0,0,0,0,0,0,0,1,2,-1,1000,0,0,0,0,1305,0,699,0,0,0,94,97,92,94,148,148,148,148,1,0,0,1,1,0,0,4.396588839644087,0,0,0,0,0,0,0,0,0,0,148,148,148,148
4112,55984041,0,0,0,0,0,0,0,0,0,1,2,-1,1000,0,0,0,0,1305,0,699,0,0,0,94,97,92,94,148,148,148,148,1,0,0,1,1,0,0,4.396588839644087,0,0,0,0,0,0,0,0,0,0,148,148,148,148
4128,55986036,0,0,0,0,0,0,0,0,0,2,2,-1,1000,0,0,0,0,1304,35,697,0,0,0,94,97,92,94,148,148,148,148,1,0,0,1,1,0,0,4.396588839644087,0,0,0,0,0,0,0,0,0,0,148,148,148,148
4144,55988033,0,0,0,0,0,0,0,0,0,2,2,-1,1000,0,0,0,0,1304,35,697,0,0,0,94,98,92,94,148,148,148,148,1,0,0,1,1,0,0,4.396588839644087,0,0,0,0,0,0,0,0,0,0,148,148,148,148
4160,55990031,0,0,0,0,0,0,0,0,0,1,2,-1,1000,0,0,0,0,1304,35,697,0,0,0,94,98,92,94,148,148,148,148,1,0,0,1,1,0,0,4.396588839644087,0,0,0,0,0,0,0,0,0,0,148,148,148,148
4176,55992029,0,0,0,0,0,0,0,0,0,1,2,-1,1000,0,0,0,0,1304,35,697,0,0,0,94,98,93,94,148,148,148,148,1,0,0,1,1,0,0,4.396588839644087,0,0,0,0,0,0,0,0,0,0,148,148,148,148
4192,55994026,0,0,0,0,0,0,0,0,0,2,2,-1,1000,0,0,0,0,1304,35,697,0,0,0,94,97,93,94,148,148,148,148,1,0,0,1,1,0,0,4.396588839644087,0,0,0,0,0,0,0,0,0,0,148,148,148,148
4208,55996024,0,0,0,0,0,0,0,0,0,2,2,-1,1000,0,0,0,0,1304,35,697,0,0,0,94,97,93,94,148,148,148,148,1,0,0,1,1,0,0,4.396588839644087,0,0,0,0,0,0,0,0,0,0,148,148,148,148
4224,55998022,0,0,0,0,0,0,0,0,0,1,2,-1,1000,0,0,0,0,1304,35,695,0,0,1,94,97,93,95,148,148,148,148,1,0,0,1,1,0,0,4.396553967965633,0,0,0,0,0,0,0,0,0,-1,148,148,148,148
4240,56000019,0,0,0,0,0,0,0,0,0,1,2,-1,1000,0,0,0,0,1304,35,695,0,0,0,94,97,93,95,148,148,148,148,1,0,0,1,1,0,0,4.396553967965633,0,0,0,0,0,0,0,0,0,0,148,148,148,148
4256,56002018,0,0,0,0,0,0,0,0,0,1,2,-1,1000,0,0,0,0,1304,35,695,0,0,0,94,97,93,95,148,148,148,148,1,0,0,1,1,0,0,4.396553967965633,0,0,0,0,0,0,0,0,0,0,148,148,148,148
4272,56004015,0,0,0,0,0,0,0,0,0,1,2,-1,1000,0,0,0,0,1304,35,695,0,0,0,94,97,93,94,148,148,148,148,1,0,0,1,1,0,0,4.396553967965633,0,0,0,0,0,0,0,0,0,0,148,148,148,148
4288,56006016,0,0,0,0,0,0,0,0,0,1,2,-1,1000,0,0,0,0,1303,35,695,0,0,0,94,97,93,94,148,148,148,148,1,0,0,1,1,0,0,4.396553967965633,0,0,0,0,0,0,0,0,0,0,148,148,148,148
4304,56008011,0,0,0,0,0,0,0,0,0,1,2,-1,1000,0,0,0,0,1303,0,695,0,0,0,94,98,93,94,148,148,148,148,1,0,0,1,1,0,0,4.396553967965633,0,0,0,0,0,0,0,0,0,0,148,148,148,148
4320,56010009,0,0,0,0,0,0,0,0,0,1,2,-1,1000,0,0,0,0,1303,0,694,0,0,0,94,98,93,94,148,148,148,148,1,0,0,1,1,0,0,4.396553967965633,0,0,0,0,0,0,0,0,0,0,148,148,148,148
4336,56012006,0,0,0,0,0,0,0,0,0,1,2,-1,1000,0,0,0,0,1303,0,694,0,0,0,94,98,93,94,148,148,148,148,1,0,0,1,1,0,0,4.396553967965633,0,0,0,0,0,0,0,0,0,0,148,148,148,148
4352,56014004,0,0,0,0,0,0,0,0,0,1,2,-1,1000,0,0,0,0,1303,0,694,0,0,0,94,97,93,94,148,148,148,148,1,0,0,1,1,0,0,4.396553967965633,0,0,0,0,0,0,0,0,0,0,148,148,148,148
4368,56016002,0,0,0,0,0,0,0,0,0,1,2,-1,1000,0,0,0,0,1303,0,694,0,0,0,94,97,92,95,148,148,148,148,1,0,0,1,1,0,0,4.396553967965633,0,0,0,0,0,0,0,0,0,0,148,148,148,148
4384,56017999,0,0,0,0,0,0,0,0,0,1,2,-1,1000,0,0,0,0,1303,0,694,0,0,0,94,97,92,95,148,148,148,148,1,0,0,1,1,0,0,4.396553967965633,0,0,0,0,0,0,0,0,0,0,148,148,148,148
4400,56019997,0,0,0,0,0,0,0,0,0,1,2,-1,1000,0,0,0,0,1303,0,694,0,0,0,94,97,92,95,148,148,148,148,1,0,0,1,1,0,0,4.396553967965633,0,0,0,0,0,0,0,0,0,0,148,148,148,148
4416,56021994,0,0,0,0,0,0,0,0,0,1,2,-1,1000,0,0,0,0,1303,0,692,0,0,-1,95,97,92,94,148,148,148,148,1,0,0,1,1,0,0,4.396588822190795,0,0,0,0,0,0,0,0,0,1,148,148,148,148
4432,56023992,0,0,0,0,0,0,0,0,0,1,2,-1,1000,0,0,0,0,1303,0,692,0,0,0,95,97,92,94,148,148,148,148,1,0,0,1,1,0,0,4.396588822190795,0,0,0,0,0,0,0,0,0,0,148,148,148,148
4448,56025990,0,0,0,0,0,0,0,0,0,2,2,-1,1000,0,0,0,0,1305,0,692,0,0,0,95,97,92,94,148,148,148,148,1,0,0,1,1,0,0,4.396588822190795,0,0,0,0,0,0,0,0,0,0,148,148,148,148
4464,56027990,0,0,0,0,0,0,0,0,0,2,2,-1,1000,0,0,0,0,1305,0,692,0,0,0,94,97,92,94,148,148,148,148,1,0,0,1,1,0,0,4.396588822190795,0,0,0,0,0,0,0,0,0,0,148,148,148,148
4480,56029985,0,0,0,0,0,0,0,0,0,1,2,-1,1000,0,0,0,0,1305,0,692,0,0,0,94,97,93,94,148,148,148,148,1,0,0,1,1,0,0,4.396588822190795,0,0,0,0,0,0,0,0,0,0,148,148,148,148
4496,56031983,0,0,0,0,0,0,0,0,0,1,2,-1,1000,0,0,0,0,1305,0,692,0,0,0,94,97,93,94,148,148,148,148,1,0,0,1,1,0,0,4.396588822190795,0,0,0,0,0,0,0,0,0,0,148,148,148,148
4512,56033982,0,0,0,0,0,0,0,0,0,1,2,-1,1000,0,0,0,0,1305,0,695,0,0,0,94,97,93,94,148,148,148,148,1,0,0,1,1,0,0,4.396588822190795,0,0,0,0,0,0,0,0,0,0,148,148,148,148
4528,56035981,0,0,0,0,0,0,0,0,0,1,2,-1,1000,0,0,0,0,1305,0,695,0,0,0,94,97,93,95,148,148,148,148,1,0,0,1,1,0,0,4.396588822190795,0,0,0,0,0,0,0,0,0,0,148,148,148,148
4544,56037979,0,0,0,0,0,0,0,0,0,1,2,-1,1000,0,0,0,0,1305,0,695,0,0,0,94,98,93,95,148,148,148,148,1,0,0,1,1,0,0,4.396588822190795,0,0,0,0,0,0,0,0,0,0,148,148,148,148
4560,56039976,0,0,0,0,0,0,0,0,0,1,2,-1,1000,0,0,0,0,1305,0,695,0,0,0,94,98,93,95,148,148,148,148,1,0,0,1,1,0,0,4.396588822190795,0,0,0,0,0,0,0,0,0,0,148,148,148,148
4576,56041972,0,0,0,0,0,0,0,0,0,1,2,-1,1000,0,0,0,0,1305,0,695,0,0,0,94,98,93,94,148,148,148,148,1,0,0,1,1,0,0,4.396588822190795,0,0,0,0,0,0,0,0,0,0,148,148,148,148
4592,56043970,0,0,0,0,0,0,0,0,0,1,2,-1,1000,0,0,0,0,1305,0,695,0,0,0,94,97,93,94,148,148,148,148,1,0,0,1,1,0,0,4.396588822190795,0,0,0,0,0,0,0,0,0,0,148,148,148,148
4608,56045968,0,0,0,0,0,0,0,0,0,1,2,-1,1000,0,0,0,0,1304,0,697,0,0,0,94,97,93,94,148,148,148,148,1,0,0,1,1,0,0,4.396588822190795,0,0,0,0,0,0,0,0,0,0,148,148,148,148
4624,56047965,0,0,0,0,0,0,0,0,0,1,2,-1,1000,0,0,0,0,1304,135,697,0,0,-1,94,97,93,95,148,148,148,148,1,0,0,1,1,0,0,4.396623676415957,0,0,0,0,0,0,0,0,0,1,148,148,148,148
4640,56049966,0,0,0,0,0,0,0,0,0,1,2,-1,1000,0,0,0,0,1304,135,697,0,0,0,94,97,93,95,148,148,148,148,1,0,0,1,1,0,0,4.396623676415957,0,0,0,0,0,0,0,0,0,0,148,148,148,148
4656,56051960,0,0,0,0,0,0,0,0,0,1,2,-1,1000,0,0,0,0,1304,135,697,0,0,0,94,97,93,95,148,148,148,148,1,0,0,1,1,0,0,4.396623676415957,0,0,0,0,0,0,0,0,0,0,148,148,148,148
4672,56053959,0,0,0,0,0,0,0,0,0,1,2,-1,1000,0,0,0,0,1304,135,697,0,0,0,94,97,93,94,148,148,148,148,1,0,0,1,1,0,0,4.396623676415957,0,0,0,0,0,0,0,0,0,0,148,148,148,148
4688,56055956,0,0,0,0,0,0,0,0,0,1,2,-1,1000,0,0,0,0,1304,135,697,0,0,0,94,97,92,94,148,148,148,148,1,0,0,1,1,0,0,4.396623676415957,0,0,0,0,0,0,0,0,0,0,148,148,148,148
4704,56057954,0,0,0,0,0,0,0,0,0,1,2,-1,1000,0,0,0,0,1304,135,695,0,0,0,94,97,92,94,148,148,148,148,1,0,0,1,1,0,0,4.396623676415957,0,0,0,0,0,0,0,0,0,0,148,148,148,148
4720,56059951,0,0,0,0,0,0,0,0,0,1,2,-1,1000,0,0,0,0,1304,135,695,0,0,0,94,97,92,94,148,148,148,148,1,0,0,1,1,0,0,4.396623676415957,0,0,0,0,0,0,0,0,0,0,148,148,148,148
4736,56061952,0,0,0,0,0,0,0,0,0,1,2,-1,1000,0,0,0,0,1304,135,695,0,0,0,94,98,92,94,148,148,148,148,1,0,0,1,1,0,0,4.396623676415957,0,0,0,0,0,0,0,0,0,0,148,148,148,148
4752,56063947,0,0,0,0,0,0,0,0,0,1,2,-1,1000,0,0,0,0,1304,135,695,0,0,0,94,98,92,94,148,148,148,148,1,0,0,1,1,0,0,4.396623676415957,0,0,0,0,0,0,0,0,0,0,148,148,148,148
4768,56065946,0,0,0,0,0,0,0,0,0,1,2,-1,1000,0,0,0,0,1306,135,695,0,0,0,95,98,92,95,148,148,148,148,1,0,0,1,1,0,0,4.396623676415957,0,0,0,0,0,0,0,0,0,0,148,148,148,148
4784,56067943,0,0,0,0,0,0,0,0,0,1,2,-1,1000,0,0,0,0,1306,12,695,0,0,0,95,97,93,95,148,148,148,148,1,0,0,1,1,0,0,4.396623676415957,0,0,0,0,0,0,0,0,0,0,148,148,148,148
4800,56069940,0,0,0,0,0,0,0,0,0,1,2,-1,1000,0,0,0,0,1306,12,694,0,0,0,95,97,93,95,148,148,148,148,1,0,0,1,1,0,0,4.396623676415957,0,0,0,0,0,0,0,0,0,0,148,148,148,148
4816,56071940,0,0,0,0,0,0,0,0,0,1,2,-1,1000,0,0,0,0,1306,12,694,0,0,0,94,97,93,95,148,148,148,148,1,0,0,1,1,0,0,4.396623676415957,0,0,0,0,0,0,0,0,0,0,148,148,148,148
4832,56073936,0,0,0,0,0,0,0,0,0,1,2,-1,1000,0,0,0,0,1306,12,694,0,0,0,94,97,93,94,148,148,148,148,1,0,0,1,1,0,0,4.396623676415957,0,0,0,0,0,0,0,0,0,0,148,148,148,148
4848,56075934,0,0,0,0,0,0,0,0,0,1,2,-1,1000,0,0,0,0,1306,12,694,0,0,0,94,97,93,94,148,148,148,148,1,0,0,1,1,0,0,4.396623676415957,0,0,0,0,0,0,0,0,0,0,148,148,148,148
4864,56077931,0,0,0,0,0,0,0,0,0,1,2,-1,1000,0,0,0,0,1306,12,694,0,0,0,94,97,93,94,148,148,148,148,1,0,0,1,1,0,0,4.396623676415957,0,0,0,0,0,0,0,0,0,0,148,148,148,148
4880,56079928,0,0,0,0,0,0,0,0,0,2,1,-1,1000,0,0,0,0,1306,12,694,0,0,0,94,97,93,94,148,148,148,148,1,0,0,1,1,0,0,4.396623676415957,0,0,0,0,0,0,0,0,0,0,148,148,148,148
4896,56081929,0,0,0,0,0,0,0,0,0,2,1,-1,1000,0,0,0,0,1306,12,692,0,0,0,94,97,93,94,148,148,148,148,1,0,0,1,1,0,0,4.396623676415957,0,0,0,0,0,0,0,0,0,0,148,148,148,148
4912,56083924,0,0,0,0,0,0,0,0,0,1,2,-1,1000,0,0,0,0,1306,12,692,0,0,0,94,97,93,94,148,148,148,148,1,0,0,1,1,0,0,4.396623676415957,0,0,0,0,0,0,0,0,0,0,148,148,148,148
4928,56085923,0,0,0,0,0,0,0,0,0,1,2,-1,1000,0,0,0,0,1306,12,692,0,0,0,94,97,93,94,148,148,148,148,1,0,0,1,1,0,0,4.396623676415957,0,0,0,0,0,0,0,0,0,0,148,148,148,148
4944,56087920,0,0,0,0,0,0,0,0,0,1,2,-1,1000,0,0,0,0,1304,0,692,0,0,0,94,97,92,94,148,148,148,148,1,0,0,1,1,0,0,4.396623676415957,0,0,0,0,0,0,0,0,0,0,148,148,148,148
4960,56089919,0,0,0,0,0,0,0,0,0,1,2,-1,1000,0,0,0,0,1304,0,692,0,0,0,94,97,92,94,148,148,148,148,1,0,0,1,1,0,0,4.396623676415957,0,0,0,0,0,0,0,0,0,0,148,148,148,148
4976,56091916,0,0,0,0,0,0,0,0,0,2,2,-1,1000,0,0,0,0,1304,0,692,0,0,0,94,97,92,94,148,148,148,148,1,0,0,1,1,0,0,4.396623676415957,0,0,0,0,0,0,0,0,0,0,148,148,148,148
4992,56093916,0,0,0,0,0,0,0,0,0,2,2,-1,1000,0,0,0,0,1304,0,692,0,0,0,94,98,92,94,148,148,148,148,1,0,0,1,1,0,0,4.396623676415957,0,0,0,0,0,0,0,0,0,0,148,148,148,148
5008,56095911,0,0,0,0,0,0,0,0,0,1,2,-1,1000,0,0,0,0,1304,0,691,0,0,0,94,98,92,94,148,148,148,148,1,0,0,1,1,0,0,4.396623676415957,0,0,0,0,0,0,0,0,0,0,148,148,148,148
5024,56097909,0,0,0,0,0,0,0,0,0,1,2,-1,1000,0,0,0,0,1304,0,691,0,0,0,94,98,92,94,148,148,148,148,1,0,0,1,1,0,0,4.396623676415957,0,0,0,0,0,0,0,0,0,0,148,148,148,148
5040,56099907,0,0,0,0,0,0,0,0,0,2,2,-1,1000,0,0,0,0,1304,0,691,0,0,0,94,97,92,94,148,148,148,148,1,0,0,1,1,0,0,4.396623676415957,0,0,0,0,0,0,0,0,0,0,148,148,148,148
5056,56101907,0,0,0,0,0,0,0,0,0,2,2,-1,1000,0,0,0,0,1304,0,691,0,0,0,94,97,92,94,148,148,148,148,1,0,0,1,1,0,0,4.396623676415957,0,0,0,0,0,0,0,0,0,0,148,148,148,148
5072,56103902,0,0,0,0,0,0,0,0,0,1,2,-1,1000,0,0,0,0,1304,0,691,0,0,0,94,97,92,94,148,148,148,148,1,0,0,1,1,0,0,4.396623676415957,0,0,0,0,0,0,0,0,0,0,148,148,148,148
5088,56105902,0,0,0,0,0,0,0,0,0,1,2,-1,1000,0,0,0,0,1304,0,691,0,0,0,94,97,92,94,148,148,148,148,1,0,0,1,1,0,0,4.396623676415957,0,0,0,0,0,0,0,0,0,0,148,148,148,148
5104,56107897,0,0,0,0,0,0,0,0,0,1,2,-1,1000,0,0,0,0,1305,0,691,0,0,0,94,97,93,94,148,148,148,148,1,0,0,1,1,0,0,4.396623676415957,0,0,0,0,0,0,0,0,0,0,148,148,148,148
5120,56109897,0,0,0,0,0,0,0,0,0,1,2,-1,1000,0,0,0,0,1305,0,691,0,0,0,94,97,93,94,148,148,148,148,1,0,0,1,1,0,0,4.396623676415957,0,0,0,0,0,0,0,0,0,0,148,148,148,148
5136,56111893,0,0,0,0,0,0,0,0,0,2,2,-1,1000,0,0,0,0,1305,0,691,0,0,0,94,97,93,95,148,148,148,148,1,0,0,1,1,0,0,4.396623676415957,0,0,0,0,0,0,0,0,0,0,148,148,148,148
5152,56113890,0,0,0,0,0,0,0,0,0,2,2,-1,1000,0,0,0,0,1305,0,691,0,0,0,94,97,92,95,148,148,148,148,1,0,0,1,1,0,0,4.396623676415957,0,0,0,0,0,0,0,0,0,0,148,148,148,148
5168,56115891,0,0,0,0,0,0,0,0,0,1,2,-1,1000,0,0,0,0,1305,0,691,0,0,0,94,97,92,95,148,148,148,148,1,0,0,1,1,0,0,4.396623676415957,0,0,0,0,0,0,0,0,0,0,148,148,148,148
5184,56117888,0,0,0,0,0,0,0,0,0,1,2,-1,1000,0,0,0,0,1305,0,691,0,0,0,94,98,92,94,148,148,148,148,1,0,0,1,1,0,0,4.396623676415957,0,0,0,0,0,0,0,0,0,0,148,148,148,148
5200,56119886,0,0,0,0,0,0,0,0,0,2,2,-1,1000,0,0,0,0,1305,0,692,0,0,0,94,98,93,94,148,148,148,148,1,0,0,1,1,0,0,4.396623676415957,0,0,0,0,0,0,0,0,0,0,148,148,148,148
5216,56121886,0,0,0,0,0,0,0,0,0,2,2,-1,1000,0,0,0,0,1305,0,692,0,0,0,94,98,93,94,148,148,148,148,1,0,0,1,1,0,0,4.396623676415957,0,0,0,0,0,0,0,0,0,0,148,148,148,148
5232,56123881,0,0,0,0,0,0,0,0,0,1,2,-1,1000,0,0,0,0,1305,0,692,0,0,0,94,98,93,95,148,148,148,148,1,0,0,1,1,0,0,4.396623676415957,0,0,0,0,0,0,0,0,0,0,148,148,148,148
5248,56125880,0,0,0,0,0,0,0,0,0,1,2,-1,1000,0,0,0,0,1305,0,692,0,0,0,94,98,93,95,148,148,148,148,1,0,0,1,1,0,0,4.396623676415957,0,0,0,0,0,0,0,0,0,0,148,148,148,148
5264,56127877,0,0,0,0,0,0,0,0,0,1,2,-1,1000,0,0,0,0,1302,0,692,0,0,-1,94,98,93,95,148,148,148,148,1,0,0,1,1,0,0,4.39665853064112,0,0,0,0,0,0,0,0,0,1,148,148,148,148
5280,56129872,0,0,0,0,0,0,0,0,0,1,2,-1,1000,0,0,0,0,1302,0,692,0,0,0,95,97,93,94,148,148,148,148,1,0,0,1,1,0,0,4.39665853064112,0,0,0,0,0,0,0,0,0,0,148,148,148,148
5296,56131870,0,0,0,0,0,0,0,0,0,1,2,-1,1000,0,0,0,0,1302,0,694,0,0,0,95,97,93,94,148,148,148,148,1,0,0,1,1,0,0,4.39665853064112,0,0,0,0,0,0,0,0,0,0,148,148,148,148
5312,56133868,0,0,0,0,0,0,0,0,0,1,2,-1,1000,0,0,0,0,1302,0,694,0,0,0,95,97,92,94,148,148,148,148,1,0,0,1,1,0,0,4.39665853064112,0,0,0,0,0,0,0,0,0,0,148,148,148,148
5328,56135866,0,0,0,0,0,0,0,0,0,1,2,-1,1000,0,0,0,0,1302,0,694,0,0,0,94,97,92,95,148,148,148,148,1,0,0,1,1,0,0,4.39665853064112,0,0,0,0,0,0,0,0,0,0,148,148,148,148
5344,56137867,0,0,0,0,0,0,0,0,0,1,2,-1,1000,0,0,0,0,1302,0,694,0,0,0,94,97,92,95,148,148,148,148,1,0,0,1,1,0,0,4.39665853064112,0,0,0,0,0,0,0,0,0,0,148,148,148,148
5360,56139862,0,0,0,0,0,0,0,0,0,1,2,-1,1000,0,0,0,0,1302,0,694,0,0,0,94,97,93,95,148,148,148,148,1,0,0,1,1,0,0,4.39665853064112,0,0,0,0,0,0,0,0,0,0,148,148,148,148
5376,56141861,0,0,0,0,0,0,0,0,0,1,2,-1,1000,0,0,0,0,1302,0,694,0,0,0,94,98,93,94,148,148,148,148,1,0,0,1,1,0,0,4.39665853064112,0,0,0,0,0,0,0,0,0,0,148,148,148,148
5392,56143857,0,0,0,0,0,0,0,0,0,1,2,-1,1000,0,0,0,0,1302,0,692,0,0,-1,94,98,93,94,148,148,148,148,1,0,0,1,1,0,0,4.396693367412989,0,0,0,0,0,0,0,0,0,1,148,148,148,148
5408,56145856,0,0,0,0,0,0,0,0,0,1,2,-1,1000,0,0,0,0,1302,0,692,0,0,0,94,98,92,94,148,148,148,148,1,0,0,1,1,0,0,4.396693367412989,0,0,0,0,0,0,0,0,0,0,148,148,148,148
5424,56147854,0,0,0,0,0,0,0,0,0,1,2,-1,1000,0,0,0,0,1304,45,692,0,0,0,94,98,92,94,148,148,148,148,1,0,0,1,1,0,0,4.396693367412989,0,0,0,0,0,0,0,0,0,0,148,148,148,148
5440,56149852,0,0,0,0,0,0,0,0,0,1,2,-1,1000,0,0,0,0,1304,45,692,0,0,0,94,98,92,94,148,148,148,148,1,0,0,1,1,0,0,4.396693367412989,0,0,0,0,0,0,0,0,0,0,148,148,148,148
5456,56151850,0,0,0,0,0,0,0,0,0,1,2,-1,1000,0,0,0,0,1304,45,692,0,0,0,94,98,92,94,148,148,148,148,1,0,0,1,1,0,0,4.396693367412989,0,0,0,0,0,0,0,0,0,0,148,148,148,148
5472,56153846,0,0,0,0,0,0,0,0,0,1,2,-1,1000,0,0,0,0,1304,45,692,0,0,0,94,97,92,94,148,148,148,148,1,0,0,1,1,0,0,4.396693367412989,0,0,0,0,0,0,0,0,0,0,148,148,148,148
5488,56155844,0,0,0,0,0,0,0,0,0,1,2,-1,1000,0,0,0,0,1304,45,692,0,0,0,94,97,92,95,148,148,148,148,1,0,0,1,1,0,0,4.396693367412989,0,0,0,0,0,0,0,0,0,0,148,148,148,148
5504,56157842,0,0,0,0,0,0,0,0,0,1,2,-1,1000,0,0,0,0,1304,45,692,-1,0,0,94,97,92,95,148,148,148,148,1,0,0,1,1,0,0,4.396693371060625,0,0,0,0,0,0,0,1,0,0,148,148,148,148
