"Product","Blackbox flight data recorder by Nicholas Sherlock"
"firmwareType",3
"firmware","4.3"
"firmwarePatch",0
"firmwareVersion","4.3.0"
"Firmware revision","Betaflight 4.3.0 (norevision) STM32F7X2"
"Firmware date","Dec 24 2021 18:42:12"
"Board information","FOXE FOXEERF722V2"
"Log start datetime","0000-01-01T00:00:00.000+00:00"
"Craft name","LIMON_6"
"frameIntervalI",256
"frameIntervalPNum",1
"frameIntervalPDenom",16
"minthrottle",1070
"maxthrottle",2000
"gyroScale",1.7453292519943295e-8
"motorOutput","148,2047"
"acc_1G",0
"vbatscale",121
"vbatmincellvoltage",330
"vbatwarningcellvoltage",350
"vbatmaxcellvoltage",430
"vbatref",1307
"currentMeterOffset",0
"currentMeterScale",400
"looptime",125
"gyro_sync_denom",1
"pid_process_denom",1
"thrMid",50
"thrExpo",0
"dynThrPID",60
"tpa_breakpoint",1350
"rc_rates","7,7,7"
"rc_expo","0,0,0"
"rates","67,67,67"
"rate_limits","1998,1998,1998"
"rollPID","0,0,0,0"
"pitchPID","0,0,0,0"
"yawPID","0,0,0,0"
"levelPID","50,50,75"
"magPID","40,,"
"d_min","0,0,0"
"yaw_lpf_hz",100
"dterm_notch_hz",0
"dterm_notch_cutoff",0
"itermWindupPointPercent",85
"iterm_relax",0
"iterm_relax_type",1
"iterm_relax_cutoff",15
"anti_gravity_mode",0
"anti_gravity_threshold",250
"anti_gravity_gain",0
"abs_control_gain",0
"use_integrated_yaw",0
"ff_transition",0
"yawRateAccelLimit",0
"rateAccelLimit",0
"pidSumLimit",500
"pidSumLimitYaw",400
"deadband",0
"yaw_deadband",0
"gyro_lpf",0
"gyro_notch_hz","0,0"
"gyro_notch_cutoff","0,0"
"gyro_to_use",0
"dyn_notch_max_hz",360
"dyn_notch_count",2
"dyn_notch_q",600
"dyn_notch_min_hz",180
"dshot_bidir",1
"motor_poles",14
"acc_lpf_hz",1000
"acc_hardware",1
"baro_hardware",1
"mag_hardware",1
"gyro_cal_on_first_arm",0
"airmode_activate_throttle",25
"serialrx_provider",14
"unsynced_fast_pwm",0
"fast_pwm_protocol",7
"motor_pwm_rate",480
"digitalIdleOffset",500
"debug_mode",45
"features",268698632
"rc_smoothing",1
"rc_smoothing_auto_factor_setpoint",30
"rc_smoothing_auto_factor_throttle",30
"rc_smoothing_debug_axis",0
"rc_smoothing_active_cutoffs_ff_sp_thr","93,93,93"
"rc_smoothing_rx_average",4048
"rates_type",3
"fields_disabled_mask",0
"vbat_sag_compensation",0
"loopIteration","time","axisP[0]","axisP[1]","axisP[2]","axisI[0]","axisI[1]","axisI[2]","axisF[0]","axisF[1]","axisF[2]","rcCommand[0]","rcCommand[1]","rcCommand[2]","rcCommand[3]","setpoint[0]","setpoint[1]","setpoint[2]","setpoint[3]","vbatLatest","amperageLatest","rssi","gyroADC[0]","gyroADC[1]","gyroADC[2]","debug[0]","debug[1]","debug[2]","debug[3]","motor[0]","motor[1]","motor[2]","motor[3]","flightModeFlags","stateFlags","failsafePhase","rxSignalReceived","rxFlightChannelsValid","heading[0]","heading[1]","heading[2]","axisSum[0]","axisSum[1]","axisSum[2]","rcCommands[0]","rcCommands[1]","rcCommands[2]","rcCommands[3]","axisError[0]","axisError[1]","axisError[2]","motorLegacy[0]","motorLegacy[1]","motorLegacy[2]","motorLegacy[3]"
0,58474605,0,0,0,0,0,0,0,0,0,1,2,-1,1000,0,0,0,0,1306,20,690,0,0,0,79,78,78,76,148,148,148,148,"","","","","",0,0,4.396484385773716,0,0,0,0,0,0,0,0,0,0,148,148,148,148
16,58476603,0,0,0,0,0,0,0,0,0,1,2,-1,1000,0,0,0,0,1306,20,690,0,0,0,79,79,78,76,148,148,148,148,1,0,0,1,1,0,0,4.396484385773716,0,0,0,0,0,0,0,0,0,0,148,148,148,148
32,58478604,0,0,0,0,0,0,0,0,0,1,2,-1,1000,0,0,0,0,1306,20,690,0,0,0,79,79,80,76,148,148,148,148,1,0,0,1,1,0,0,4.396484385773716,0,0,0,0,0,0,0,0,0,0,148,148,148,148
48,58480599,0,0,0,0,0,0,0,0,0,1,2,-1,1000,0,0,0,0,1306,35,691,0,0,0,81,79,80,76,148,148,148,148,1,0,0,1,1,0,0,4.396484385773716,0,0,0,0,0,0,0,0,0,0,148,148,148,148
64,58482597,0,0,0,0,0,0,0,0,0,1,2,-1,1000,0,0,0,0,1306,35,691,0,0,0,81,81,80,78,148,148,148,148,1,0,0,1,1,0,0,4.396484385773716,0,0,0,0,0,0,0,0,0,0,148,148,148,148
80,58484595,0,0,0,0,0,0,0,0,0,1,2,-1,1000,0,0,0,0,1306,35,691,0,0,0,81,81,80,78,148,148,148,148,1,0,0,1,1,0,0,4.396484385773716,0,0,0,0,0,0,0,0,0,0,148,148,148,148
96,58486593,0,0,0,0,0,0,0,0,0,1,2,-1,1000,0,0,0,0,1306,35,691,0,0,1,81,81,81,78,148,148,148,148,1,0,0,1,1,0,0,4.396449514095261,0,0,0,0,0,0,0,0,0,-1,148,148,148,148
112,58488590,0,0,0,0,0,0,0,0,0,1,2,-1,1000,0,0,0,0,1306,35,691,0,0,0,82,81,81,78,148,148,148,148,1,0,0,1,1,0,0,4.396449514095261,0,0,0,0,0,0,0,0,0,0,148,148,148,148
128,58490588,0,0,0,0,0,0,0,0,0,1,2,-1,1000,0,0,0,0,1306,35,691,0,0,0,82,82,81,80,148,148,148,148,1,0,0,1,1,0,0,4.396449514095261,0,0,0,0,0,0,0,0,0,0,148,148,148,148
144,58492586,0,0,0,0,0,0,0,0,0,1,2,-1,1000,0,0,0,0,1306,35,693,0,0,1,82,82,82,80,148,148,148,148,1,0,0,1,1,0,0,4.396414642416806,0,0,0,0,0,0,0,0,0,-1,148,148,148,148
160,58494585,0,0,0,0,0,0,0,0,0,1,2,-1,1000,0,0,0,0,1306,35,693,0,0,-1,83,82,82,80,148,148,148,148,1,0,0,1,1,0,0,4.396449531548554,0,0,0,0,0,0,0,0,0,1,148,148,148,148
176,58496583,0,0,0,0,0,0,0,0,0,1,2,-1,1000,0,0,0,0,1306,35,693,0,0,0,83,82,82,81,148,148,148,148,1,0,0,1,1,0,0,4.396449531548554,0,0,0,0,0,0,0,0,0,0,148,148,148,148
192,58498581,0,0,0,0,0,0,0,0,0,1,2,-1,1000,0,0,0,0,1308,35,693,0,0,0,83,83,82,81,148,148,148,148,1,0,0,1,1,0,0,4.396449531548554,0,0,0,0,0,0,0,0,0,0,148,148,148,148
208,58500582,0,0,0,0,0,0,0,0,0,1,2,-1,1000,0,0,0,0,1308,27,693,0,0,0,83,83,82,81,148,148,148,148,1,0,0,1,1,0,0,4.396449531548554,0,0,0,0,0,0,0,0,0,0,148,148,148,148
224,58502577,0,0,0,0,0,0,0,0,0,1,2,-1,1000,0,0,0,0,1308,27,693,0,0,0,84,83,82,81,148,148,148,148,1,0,0,1,1,0,0,4.396449531548554,0,0,0,0,0,0,0,0,0,0,148,148,148,148
240,58504575,0,0,0,0,0,0,0,0,0,1,2,-1,1000,0,0,0,0,1308,27,692,0,0,0,84,83,82,82,148,148,148,148,1,0,0,1,1,0,0,4.396449531548554,0,0,0,0,0,0,0,0,0,0,148,148,148,148
256,58506573,0,0,0,0,0,0,0,0,0,1,2,-1,1000,0,0,0,0,1308,27,692,0,0,0,84,83,83,82,148,148,148,148,1,0,0,1,1,0,0,4.396449531548554,0,0,0,0,0,0,0,0,0,0,148,148,148,148
272,58508571,0,0,0,0,0,0,0,0,0,1,2,-1,1000,0,0,0,0,1308,27,692,0,0,0,85,83,83,82,148,148,148,148,1,0,0,1,1,0,0,4.396449531548554,0,0,0,0,0,0,0,0,0,0,148,148,148,148
288,58510569,0,0,0,0,0,0,0,0,0,1,2,-1,1000,0,0,0,0,1308,27,692,0,0,0,85,83,83,83,148,148,148,148,1,0,0,1,1,0,0,4.396449531548554,0,0,0,0,0,0,0,0,0,0,148,148,148,148
304,58512567,0,0,0,0,0,0,0,0,0,1,2,-1,1000,0,0,0,0,1308,27,692,0,0,0,85,84,83,83,148,148,148,148,1,0,0,1,1,0,0,4.396449531548554,0,0,0,0,0,0,0,0,0,0,148,148,148,148
320,58514565,0,0,0,0,0,0,0,0,0,1,2,-1,1000,0,0,0,0,1308,27,692,0,0,0,85,84,84,83,148,148,148,148,1,0,0,1,1,0,0,4.396449531548554,0,0,0,0,0,0,0,0,0,0,148,148,148,148
336,58516563,0,0,0,0,0,0,0,0,0,1,2,-1,1000,0,0,0,0,1308,27,691,0,1,0,86,84,84,83,148,148,148,148,1,0,0,1,1,0,0,4.396449531548533,0,0,0,0,0,0,0,0,-1,0,148,148,148,148
352,58518562,0,0,0,0,0,0,0,0,0,1,2,-1,1000,0,0,0,0,1308,27,691,0,-1,0,86,85,84,84,148,148,148,148,1,0,0,1,1,0,0,4.396449531548554,0,0,0,0,0,0,0,0,1,0,148,148,148,148
368,58520559,0,0,0,0,0,0,0,0,0,1,2,-1,1000,0,0,0,0,1308,105,691,0,0,0,86,85,84,84,148,148,148,148,1,0,0,1,1,0,0,4.396449531548554,0,0,0,0,0,0,0,0,0,0,148,148,148,148
384,58522560,0,0,0,0,0,0,0,0,0,1,2,-1,1000,0,0,0,0,1308,105,691,0,0,0,86,85,84,84,148,148,148,148,1,0,0,1,1,0,0,4.396449531548554,0,0,0,0,0,0,0,0,0,0,148,148,148,148
400,58524555,0,0,0,0,0,0,0,0,0,1,2,-1,1000,0,0,0,0,1308,105,691,0,0,0,86,85,84,84,148,148,148,148,1,0,0,1,1,0,0,4.396449531548554,0,0,0,0,0,0,0,0,0,0,148,148,148,148
416,58526553,0,0,0,0,0,0,0,0,0,1,2,-1,1000,0,0,0,0,1308,105,691,0,0,0,86,86,84,85,148,148,148,148,1,0,0,1,1,0,0,4.396449531548554,0,0,0,0,0,0,0,0,0,0,148,148,148,148
432,58528552,0,0,0,0,0,0,0,0,0,1,2,-1,1000,0,0,0,0,1308,105,691,0,0,0,86,86,85,85,148,148,148,148,1,0,0,1,1,0,0,4.396449531548554,0,0,0,0,0,0,0,0,0,0,148,148,148,148
448,58530550,0,0,0,0,0,0,0,0,0,1,2,-1,1000,0,0,0,0,1308,105,691,0,0,0,87,86,85,85,148,148,148,148,1,0,0,1,1,0,0,4.396449531548554,0,0,0,0,0,0,0,0,0,0,148,148,148,148
464,58532548,0,0,0,0,0,0,0,0,0,1,2,-1,1000,0,0,0,0,1308,105,691,0,0,0,87,86,85,86,148,148,148,148,1,0,0,1,1,0,0,4.396449531548554,0,0,0,0,0,0,0,0,0,0,148,148,148,148
480,58534546,0,0,0,0,0,0,0,0,0,1,2,-1,1000,0,0,0,0,1308,105,691,0,0,-1,87,86,86,86,148,148,148,148,1,0,0,1,1,0,0,4.396484403227008,0,0,0,0,0,0,0,0,0,1,148,148,148,148
496,58536544,0,0,0,0,0,0,0,0,0,1,2,-1,1000,0,0,0,0,1308,105,691,0,0,0,88,86,86,86,148,148,148,148,1,0,0,1,1,0,0,4.396484403227008,0,0,0,0,0,0,0,0,0,0,148,148,148,148
512,58538541,0,0,0,0,0,0,0,0,0,1,2,-1,1000,0,0,0,0,1308,105,691,0,0,-1,88,86,86,86,148,148,148,148,1,0,0,1,1,0,0,4.396519257452171,0,0,0,0,0,0,0,0,0,1,148,148,148,148
528,58540539,0,0,0,0,0,0,0,0,0,1,2,-1,1000,0,0,0,0,1308,0,691,0,0,0,88,87,86,86,148,148,148,148,1,0,0,1,1,0,0,4.396519257452171,0,0,0,0,0,0,0,0,0,0,148,148,148,148
544,58542537,0,0,0,0,0,0,0,0,0,1,2,-1,1000,0,0,0,0,1308,0,691,0,-1,0,88,87,86,86,148,148,148,148,1,0,0,1,1,0,0,4.3965192574521925,0,0,0,0,0,0,0,0,1,0,148,148,148,148
560,58544538,0,0,0,0,0,0,0,0,0,1,2,-1,1000,0,0,0,0,1308,0,691,0,1,0,88,87,86,86,148,148,148,148,1,0,0,1,1,0,0,4.396519257452171,0,0,0,0,0,0,0,0,-1,0,148,148,148,148
576,58546533,0,0,0,0,0,0,0,0,0,1,2,-1,1000,0,0,0,0,1308,0,691,0,-1,-1,88,88,86,88,148,148,148,148,1,0,0,1,1,0,0,4.396554076770769,0,0,0,0,0,0,0,0,1,1,148,148,148,148
592,58548531,0,0,0,0,0,0,0,0,0,1,2,-1,1000,0,0,0,0,1308,0,691,0,0,0,88,88,87,88,148,148,148,148,1,0,0,1,1,0,0,4.396554076770769,0,0,0,0,0,0,0,0,0,0,148,148,148,148
608,58550530,0,0,0,0,0,0,0,0,0,1,2,-1,1000,0,0,0,0,1308,0,691,0,0,0,89,88,87,88,148,148,148,148,1,0,0,1,1,0,0,4.396554076770769,0,0,0,0,0,0,0,0,0,0,148,148,148,148
624,58552528,0,0,0,0,0,0,0,0,0,1,2,-1,1000,0,0,0,0,1308,0,692,0,0,0,89,88,87,87,148,148,148,148,1,0,0,1,1,0,0,4.396554076770769,0,0,0,0,0,0,0,0,0,0,148,148,148,148
640,58554526,0,0,0,0,0,0,0,0,0,1,2,-1,1000,0,0,0,0,1308,0,692,0,0,0,89,88,87,87,148,148,148,148,1,0,0,1,1,0,0,4.396554076770769,0,0,0,0,0,0,0,0,0,0,148,148,148,148
656,58556524,0,0,0,0,0,0,0,0,0,1,2,-1,1000,0,0,0,0,1308,0,692,0,0,0,89,88,87,87,148,148,148,148,1,0,0,1,1,0,0,4.396554076770769,0,0,0,0,0,0,0,0,0,0,148,148,148,148
672,58558522,0,0,0,0,0,0,0,0,0,1,2,-1,1000,0,0,0,0,1308,0,692,0,0,0,89,88,87,87,148,148,148,148,1,0,0,1,1,0,0,4.396554076770769,0,0,0,0,0,0,0,0,0,0,148,148,148,148
688,58560520,0,0,0,0,0,0,0,0,0,1,2,-1,1000,0,0,0,0,1306,0,692,0,0,0,89,88,87,88,148,148,148,148,1,0,0,1,1,0,0,4.396554076770769,0,0,0,0,0,0,0,0,0,0,148,148,148,148
704,58562518,0,0,0,0,0,0,0,0,0,1,2,-1,1000,0,0,0,0,1306,0,692,0,0,0,89,88,88,88,148,148,148,148,1,0,0,1,1,0,0,4.396554076770769,0,0,0,0,0,0,0,0,0,0,148,148,148,148
720,58564516,0,0,0,0,0,0,0,0,0,1,2,-1,1000,0,0,0,0,1306,0,692,0,0,0,90,88,88,88,148,148,148,148,1,0,0,1,1,0,0,4.396554076770769,0,0,0,0,0,0,0,0,0,0,148,148,148,148
736,58566517,0,0,0,0,0,0,0,0,0,1,2,-1,1000,0,0,0,0,1306,0,692,0,0,0,90,89,88,89,148,148,148,148,1,0,0,1,1,0,0,4.396554076770769,0,0,0,0,0,0,0,0,0,0,148,148,148,148
752,58568513,0,0,0,0,0,0,0,0,0,1,3,-1,1000,0,0,0,0,1306,0,692,0,0,0,90,89,88,89,148,148,148,148,1,0,0,1,1,0,0,4.396554076770769,0,0,0,0,0,0,0,0,0,0,148,148,148,148
768,58570510,0,0,0,0,0,0,0,0,0,1,3,-1,1000,0,0,0,0,1306,0,692,0,0,0,91,89,88,89,148,148,148,148,1,0,0,1,1,0,0,4.396554076770769,0,0,0,0,0,0,0,0,0,0,148,148,148,148
784,58572508,0,0,0,0,0,0,0,0,0,1,3,-1,1000,0,0,0,0,1306,0,692,0,0,0,91,89,88,90,148,148,148,148,1,0,0,1,1,0,0,4.396554076770769,0,0,0,0,0,0,0,0,0,0,148,148,148,148
800,58574506,0,0,0,0,0,0,0,0,0,1,3,-1,1000,0,0,0,0,1306,0,692,0,0,0,91,89,88,90,148,148,148,148,1,0,0,1,1,0,0,4.396554076770769,0,0,0,0,0,0,0,0,0,0,148,148,148,148
816,58576505,0,0,0,0,0,0,0,0,0,1,2,-1,1000,0,0,0,0,1306,0,692,0,0,0,90,89,88,90,148,148,148,148,1,0,0,1,1,0,0,4.396554076770769,0,0,0,0,0,0,0,0,0,0,148,148,148,148
832,58578503,0,0,0,0,0,0,0,0,0,1,2,-1,1000,0,0,0,0,1306,0,692,0,0,0,90,89,88,90,148,148,148,148,1,0,0,1,1,0,0,4.396554076770769,0,0,0,0,0,0,0,0,0,0,148,148,148,148
848,58580501,0,0,0,0,0,0,0,0,0,1,2,-1,1000,0,0,0,0,1305,70,692,0,0,0,90,90,88,90,148,148,148,148,1,0,0,1,1,0,0,4.396554076770769,0,0,0,0,0,0,0,0,0,0,148,148,148,148
864,58582499,0,0,0,0,0,0,0,0,0,1,2,-1,1000,0,0,0,0,1305,70,692,0,0,0,92,90,89,90,148,148,148,148,1,0,0,1,1,0,0,4.396554076770769,0,0,0,0,0,0,0,0,0,0,148,148,148,148
880,58584497,0,0,0,0,0,0,0,0,0,1,2,-1,1000,0,0,0,0,1305,70,692,0,0,0,92,90,89,90,148,148,148,148,1,0,0,1,1,0,0,4.396554076770769,0,0,0,0,0,0,0,0,0,0,148,148,148,148
896,58586495,0,0,0,0,0,0,0,0,0,1,2,-1,1000,0,0,0,0,1305,70,692,0,0,0,92,89,89,91,148,148,148,148,1,0,0,1,1,0,0,4.396554076770769,0,0,0,0,0,0,0,0,0,0,148,148,148,148
912,58588495,0,0,0,0,0,0,0,0,0,1,2,-1,1000,0,0,0,0,1305,70,692,0,0,0,92,89,89,91,148,148,148,148,1,0,0,1,1,0,0,4.396554076770769,0,0,0,0,0,0,0,0,0,0,148,148,148,148
928,58590490,0,0,0,0,0,0,0,0,0,1,2,-1,1000,0,0,0,0,1305,70,692,0,0,0,91,89,90,91,148,148,148,148,1,0,0,1,1,0,0,4.396554076770769,0,0,0,0,0,0,0,0,0,0,148,148,148,148
944,58592488,0,0,0,0,0,0,0,0,0,1,2,-1,1000,0,0,0,0,1305,70,692,0,0,0,91,89,90,91,148,148,148,148,1,0,0,1,1,0,0,4.396554076770769,0,0,0,0,0,0,0,0,0,0,148,148,148,148
960,58594486,0,0,0,0,0,0,0,0,0,1,2,-1,1000,0,0,0,0,1305,70,692,0,0,0,91,90,90,91,148,148,148,148,1,0,0,1,1,0,0,4.396554076770769,0,0,0,0,0,0,0,0,0,0,148,148,148,148
976,58596485,0,0,0,0,0,0,0,0,0,1,2,-1,1000,0,0,0,0,1305,70,692,0,0,0,91,90,89,91,148,148,148,148,1,0,0,1,1,0,0,4.396554076770769,0,0,0,0,0,0,0,0,0,0,148,148,148,148
992,58598483,0,0,0,0,0,0,0,0,0,1,2,-1,1000,0,0,0,0,1305,70,692,0,0,0,91,90,89,91,148,148,148,148,1,0,0,1,1,0,0,4.396554076770769,0,0,0,0,0,0,0,0,0,0,148,148,148,148
1008,58600481,0,0,0,0,0,0,0,0,0,1,2,-1,1000,0,0,0,0,1305,70,692,0,0,1,91,90,89,91,148,148,148,148,1,0,0,1,1,0,0,4.396519205092314,0,0,0,0,0,0,0,0,0,-1,148,148,148,148
1024,58602479,0,0,0,0,0,0,0,0,0,1,2,-1,1000,0,0,0,0,1305,0,692,0,0,0,92,90,90,91,148,148,148,148,1,0,0,1,1,0,0,4.396519205092314,0,0,0,0,0,0,0,0,0,0,148,148,148,148
1040,58604477,0,0,0,0,0,0,0,0,0,1,2,-1,1000,0,0,0,0,1305,0,692,0,0,1,92,90,90,91,148,148,148,148,1,0,0,1,1,0,0,4.396484333413859,0,0,0,0,0,0,0,0,0,-1,148,148,148,148
1056,58606475,0,0,0,0,0,0,0,0,0,1,2,-1,1000,0,0,0,0,1305,0,692,0,0,0,92,91,90,92,148,148,148,148,1,0,0,1,1,0,0,4.396484333413859,0,0,0,0,0,0,0,0,0,0,148,148,148,148
1072,58608473,0,0,0,0,0,0,0,0,0,1,2,-1,1000,0,0,0,0,1305,0,692,0,0,0,92,91,90,92,148,148,148,148,1,0,0,1,1,0,0,4.396484333413859,0,0,0,0,0,0,0,0,0,0,148,148,148,148
1088,58610473,0,0,0,0,0,0,0,0,0,1,2,-1,1000,0,0,0,0,1305,0,692,0,0,0,92,91,90,92,148,148,148,148,1,0,0,1,1,0,0,4.396484333413859,0,0,0,0,0,0,0,0,0,0,148,148,148,148
1104,58612471,0,0,0,0,0,0,0,0,0,1,2,-1,1000,0,0,0,0,1305,0,692,0,0,0,92,91,90,92,148,148,148,148,1,0,0,1,1,0,0,4.396484333413859,0,0,0,0,0,0,0,0,0,0,148,148,148,148
1120,58614467,0,0,0,0,0,0,0,0,0,1,2,-1,1000,0,0,0,0,1305,0,692,0,0,0,92,91,90,92,148,148,148,148,1,0,0,1,1,0,0,4.396484333413859,0,0,0,0,0,0,0,0,0,0,148,148,148,148
1136,58616465,0,0,0,0,0,0,0,0,0,1,2,-1,1000,0,0,0,0,1305,0,692,0,0,0,93,91,91,92,148,148,148,148,1,0,0,1,1,0,0,4.396484333413859,0,0,0,0,0,0,0,0,0,0,148,148,148,148
1152,58618463,0,0,0,0,0,0,0,0,0,1,2,-1,1000,0,0,0,0,1305,0,692,0,1,0,93,91,91,93,148,148,148,148,1,0,0,1,1,0,0,4.39648433341386,0,0,0,0,0,0,0,0,-1,0,148,148,148,148
1168,58620463,0,0,0,0,0,0,0,0,0,1,2,-1,1000,0,0,0,0,1306,0,692,1,0,0,93,91,91,93,148,148,148,148,1,0,0,1,1,0,0,4.396484333416906,0,0,0,0,0,0,0,-1,0,0,148,148,148,148
1184,58622459,0,0,0,0,0,0,0,0,0,1,2,-1,1000,0,0,0,0,1306,67,692,0,0,0,93,91,90,93,148,148,148,148,1,0,0,1,1,0,0,4.396484333416906,0,0,0,0,0,0,0,0,0,0,148,148,148,148
1200,58624459,0,0,0,0,0,0,0,0,0,1,2,-1,1000,0,0,0,0,1306,67,692,0,0,0,93,91,90,93,148,148,148,148,1,0,0,1,1,0,0,4.396484333416906,0,0,0,0,0,0,0,0,0,0,148,148,148,148
1216,58626455,0,0,0,0,0,0,0,0,0,1,2,-1,1000,0,0,0,0,1306,67,693,0,0,0,93,91,90,93,148,148,148,148,1,0,0,1,1,0,0,4.396484333416906,0,0,0,0,0,0,0,0,0,0,148,148,148,148
1232,58628456,0,0,0,0,0,0,0,0,0,1,2,-1,1000,0,0,0,0,1306,67,693,0,0,0,94,91,90,93,148,148,148,148,1,0,0,1,1,0,0,4.396484333416906,0,0,0,0,0,0,0,0,0,0,148,148,148,148
1248,58630452,0,0,0,0,0,0,0,0,0,1,2,-1,1000,0,0,0,0,1306,67,693,0,0,0,94,91,90,93,148,148,148,148,1,0,0,1,1,0,0,4.396484333416906,0,0,0,0,0,0,0,0,0,0,148,148,148,148
1264,58632455,0,0,0,0,0,0,0,0,0,1,2,-1,1000,0,0,0,0,1306,67,693,0,0,0,94,91,90,94,148,148,148,148,1,0,0,1,1,0,0,4.396484333416906,0,0,0,0,0,0,0,0,0,0,148,148,148,148
1280,58634448,0,0,0,0,0,0,0,0,0,1,2,-1,1000,0,0,0,0,1306,67,693,0,0,0,94,91,90,94,148,148,148,148,1,0,0,1,1,0,0,4.396484333416906,0,0,0,0,0,0,0,0,0,0,148,148,148,148
1296,58636445,0,0,0,0,0,0,0,0,0,1,2,-1,1000,0,0,0,0,1306,67,693,0,0,0,94,91,91,94,148,148,148,148,1,0,0,1,1,0,0,4.396484333416906,0,0,0,0,0,0,0,0,0,0,148,148,148,148
1312,58638443,0,0,0,0,0,0,0,0,0,1,2,-1,1000,0,0,0,0,1306,67,693,-1,1,0,94,91,91,94,148,148,148,148,1,0,0,1,1,0,0,4.396484333413863,0,0,0,0,0,0,0,1,-1,0,148,148,148,148
1328,58640441,0,0,0,0,0,0,0,0,0,1,2,-1,1000,0,0,0,0,1308,67,693,0,0,0,94,92,91,94,148,148,148,148,1,0,0,1,1,0,0,4.396484333413863,0,0,0,0,0,0,0,0,0,0,148,148,148,148
1344,58642439,0,0,0,0,0,0,0,0,0,1,2,-1,1000,0,0,0,0,1308,0,693,0,0,0,94,92,91,94,148,148,148,148,1,0,0,1,1,0,0,4.396484333413863,0,0,0,0,0,0,0,0,0,0,148,148,148,148
1360,58644437,0,0,0,0,0,0,0,0,0,1,2,-1,1000,0,0,0,0,1308,0,693,0,0,0,94,92,91,94,148,148,148,148,1,0,0,1,1,0,0,4.396484333413863,0,0,0,0,0,0,0,0,0,0,148,148,148,148
1376,58646435,0,0,0,0,0,0,0,0,0,1,2,-1,1000,0,0,0,0,1308,0,693,0,0,0,94,92,91,94,148,148,148,148,1,0,0,1,1,0,0,4.396484333413863,0,0,0,0,0,0,0,0,0,0,148,148,148,148
1392,58648434,0,0,0,0,0,0,0,0,0,1,2,-1,1000,0,0,0,0,1308,0,693,0,0,0,94,92,91,94,148,148,148,148,1,0,0,1,1,0,0,4.396484333413863,0,0,0,0,0,0,0,0,0,0,148,148,148,148
1408,58650432,0,0,0,0,0,0,0,0,0,1,2,-1,1000,0,0,0,0,1308,0,694,0,0,0,94,92,91,94,148,148,148,148,1,0,0,1,1,0,0,4.396484333413863,0,0,0,0,0,0,0,0,0,0,148,148,148,148
1424,58652430,0,0,0,0,0,0,0,0,0,1,2,-1,1000,0,0,0,0,1308,0,694,0,0,0,94,92,91,94,148,148,148,148,1,0,0,1,1,0,0,4.396484333413863,0,0,0,0,0,0,0,0,0,0,148,148,148,148
1440,58654430,0,0,0,0,0,0,0,0,0,1,2,-1,1000,0,0,0,0,1308,0,694,0,0,0,94,92,91,94,148,148,148,148,1,0,0,1,1,0,0,4.396484333413863,0,0,0,0,0,0,0,0,0,0,148,148,148,148
1456,58656425,0,0,0,0,0,0,0,0,0,1,2,-1,1000,0,0,0,0,1308,0,694,0,0,0,94,92,91,94,148,148,148,148,1,0,0,1,1,0,0,4.396484333413863,0,0,0,0,0,0,0,0,0,0,148,148,148,148
1472,58658424,0,0,0,0,0,0,0,0,0,1,2,-1,1000,0,0,0,0,1308,0,694,0,0,0,94,92,91,94,148,148,148,148,1,0,0,1,1,0,0,4.396484333413863,0,0,0,0,0,0,0,0,0,0,148,148,148,148
1488,58660422,0,0,0,0,0,0,0,0,0,1,2,-1,1000,0,0,0,0,1305,0,694,0,0,0,94,92,91,94,148,148,148,148,1,0,0,1,1,0,0,4.396484333413863,0,0,0,0,0,0,0,0,0,0,148,148,148,148
1504,58662420,0,0,0,0,0,0,0,0,0,1,2,-1,1000,0,0,0,0,1305,15,693,0,0,0,94,92,92,94,148,148,148,148,1,0,0,1,1,0,0,4.396484333413863,0,0,0,0,0,0,0,0,0,0,148,148,148,148
1520,58664418,0,0,0,0,0,0,0,0,0,1,2,-1,1000,0,0,0,0,1305,15,693,0,0,0,94,92,92,94,148,148,148,148,1,0,0,1,1,0,0,4.396484333413863,0,0,0,0,0,0,0,0,0,0,148,148,148,148
1536,58666416,0,0,0,0,0,0,0,0,0,1,2,-1,1000,0,0,0,0,1305,15,693,0,0,0,94,92,92,94,148,148,148,148,1,0,0,1,1,0,0,4.396484333413863,0,0,0,0,0,0,0,0,0,0,148,148,148,148
1552,58668414,0,0,0,0,0,0,0,0,0,1,2,-1,1000,0,0,0,0,1305,15,693,0,0,0,94,92,92,94,148,148,148,148,1,0,0,1,1,0,0,4.396484333413863,0,0,0,0,0,0,0,0,0,0,148,148,148,148
1568,58670412,0,0,0,0,0,0,0,0,0,1,2,-1,1000,0,0,0,0,1305,15,693,0,0,0,94,92,92,95,148,148,148,148,1,0,0,1,1,0,0,4.396484333413863,0,0,0,0,0,0,0,0,0,0,148,148,148,148
1584,58672411,0,0,0,0,0,0,0,0,0,1,2,-1,1000,0,0,0,0,1305,15,693,0,0,0,95,93,92,95,148,148,148,148,1,0,0,1,1,0,0,4.396484333413863,0,0,0,0,0,0,0,0,0,0,148,148,148,148
1600,58674408,0,0,0,0,0,0,0,0,0,1,2,-1,1000,0,0,0,0,1305,15,694,0,0,0,95,93,92,95,148,148,148,148,1,0,0,1,1,0,0,4.396484333413863,0,0,0,0,0,0,0,0,0,0,148,148,148,148
1616,58676409,0,0,0,0,0,0,0,0,0,1,2,-1,1000,0,0,0,0,1305,15,694,0,1,0,95,93,92,95,148,148,148,148,1,0,0,1,1,0,0,4.396484333413863,0,0,0,0,0,0,0,0,-1,0,148,148,148,148
1632,58678405,0,0,0,0,0,0,0,0,0,1,2,-1,1000,0,0,0,0,1305,15,694,1,0,0,95,93,92,95,148,148,148,148,1,0,0,1,1,0,0,4.39648433584836,0,0,0,0,0,0,0,-1,0,0,148,148,148,148
1648,58680403,0,0,0,0,0,0,0,0,0,1,2,-1,1000,0,0,0,0,1305,15,694,0,0,0,95,93,92,95,148,148,148,148,1,0,0,1,1,0,0,4.39648433584836,0,0,0,0,0,0,0,0,0,0,148,148,148,148
1664,58682401,0,0,0,0,0,0,0,0,0,1,2,-1,1000,0,0,0,0,1305,0,694,0,0,0,95,93,92,95,148,148,148,148,1,0,0,1,1,0,0,4.39648433584836,0,0,0,0,0,0,0,0,0,0,148,148,148,148
1680,58684399,0,0,0,0,0,0,0,0,0,1,2,-1,1000,0,0,0,0,1305,0,694,0,0,0,95,93,92,95,148,148,148,148,1,0,0,1,1,0,0,4.39648433584836,0,0,0,0,0,0,0,0,0,0,148,148,148,148
1696,58686397,0,0,0,0,0,0,0,0,0,1,2,-1,1000,0,0,0,0,1305,0,694,0,0,0,94,93,92,95,148,148,148,148,1,0,0,1,1,0,0,4.39648433584836,0,0,0,0,0,0,0,0,0,0,148,148,148,148
1712,58688394,0,0,0,0,0,0,0,0,0,1,2,-1,1000,0,0,0,0,1305,0,694,0,0,0,94,93,92,95,148,148,148,148,1,0,0,1,1,0,0,4.39648433584836,0,0,0,0,0,0,0,0,0,0,148,148,148,148
1728,58690392,0,0,0,0,0,0,0,0,0,1,2,-1,1000,0,0,0,0,1305,0,694,0,0,0,94,93,92,95,148,148,148,148,1,0,0,1,1,0,0,4.39648433584836,0,0,0,0,0,0,0,0,0,0,148,148,148,148
1744,58692390,0,0,0,0,0,0,0,0,0,1,2,-1,1000,0,0,0,0,1305,0,694,0,0,0,95,93,92,95,148,148,148,148,1,0,0,1,1,0,0,4.39648433584836,0,0,0,0,0,0,0,0,0,0,148,148,148,148
1760,58694389,0,0,0,0,0,0,0,0,0,1,2,-1,1000,0,0,0,0,1305,0,694,0,0,0,95,93,92,96,148,148,148,148,1,0,0,1,1,0,0,4.39648433584836,0,0,0,0,0,0,0,0,0,0,148,148,148,148
1776,58696386,0,0,0,0,0,0,0,0,0,1,2,-1,1000,0,0,0,0,1305,0,694,0,0,0,95,93,92,96,148,148,148,148,1,0,0,1,1,0,0,4.39648433584836,0,0,0,0,0,0,0,0,0,0,148,148,148,148
1792,58698387,0,0,0,0,0,0,0,0,0,1,2,-1,1000,0,0,0,0,1305,0,693,0,0,0,94,94,92,96,148,148,148,148,1,0,0,1,1,0,0,4.39648433584836,0,0,0,0,0,0,0,0,0,0,148,148,148,148
1808,58700383,0,0,0,0,0,0,0,0,0,1,2,-1,1000,0,0,0,0,1305,0,693,0,0,0,94,94,92,96,148,148,148,148,1,0,0,1,1,0,0,4.39648433584836,0,0,0,0,0,0,0,0,0,0,148,148,148,148
1824,58702381,0,0,0,0,0,0,0,0,0,1,2,-1,1000,0,0,0,0,1305,37,693,0,0,0,94,94,92,96,148,148,148,148,1,0,0,1,1,0,0,4.39648433584836,0,0,0,0,0,0,0,0,0,0,148,148,148,148
1840,58704379,0,0,0,0,0,0,0,0,0,1,2,-1,1000,0,0,0,0,1305,37,693,0,0,0,96,94,92,96,148,148,148,148,1,0,0,1,1,0,0,4.39648433584836,0,0,0,0,0,0,0,0,0,0,148,148,148,148
1856,58706377,0,0,0,0,0,0,0,0,0,1,2,-1,1000,0,0,0,0,1305,37,693,0,0,0,96,94,92,96,148,148,148,148,1,0,0,1,1,0,0,4.39648433584836,0,0,0,0,0,0,0,0,0,0,148,148,148,148
1872,58708374,0,0,0,0,0,0,0,0,0,1,2,-1,1000,0,0,0,0,1305,37,693,0,0,0,96,94,93,96,148,148,148,148,1,0,0,1,1,0,0,4.39648433584836,0,0,0,0,0,0,0,0,0,0,148,148,148,148
1888,58710373,0,0,0,0,0,0,0,0,0,1,2,-1,1000,0,0,0,0,1305,37,694,0,0,0,95,93,93,96,148,148,148,148,1,0,0,1,1,0,0,4.39648433584836,0,0,0,0,0,0,0,0,0,0,148,148,148,148
1904,58712371,0,0,0,0,0,0,0,0,0,1,2,-1,1000,0,0,0,0,1305,37,694,0,0,0,95,93,93,96,148,148,148,148,1,0,0,1,1,0,0,4.39648433584836,0,0,0,0,0,0,0,0,0,0,148,148,148,148
1920,58714369,0,0,0,0,0,0,0,0,0,1,2,-1,1000,0,0,0,0,1305,37,694,0,0,0,95,93,93,96,148,148,148,148,1,0,0,1,1,0,0,4.39648433584836,0,0,0,0,0,0,0,0,0,0,148,148,148,148
1936,58716367,0,0,0,0,0,0,0,0,0,1,2,-1,1000,0,0,0,0,1305,37,694,0,0,0,95,94,93,96,148,148,148,148,1,0,0,1,1,0,0,4.39648433584836,0,0,0,0,0,0,0,0,0,0,148,148,148,148
1952,58718365,0,0,0,0,0,0,0,0,0,1,2,-1,1000,0,0,0,0,1305,37,694,0,0,0,95,94,93,96,148,148,148,148,1,0,0,1,1,0,0,4.39648433584836,0,0,0,0,0,0,0,0,0,0,148,148,148,148
1968,58720366,0,0,0,0,0,0,0,0,0,1,2,-1,1000,0,0,0,0,1305,37,694,0,0,0,95,94,93,97,148,148,148,148,1,0,0,1,1,0,0,4.39648433584836,0,0,0,0,0,0,0,0,0,0,148,148,148,148
1984,58722362,0,0,0,0,0,0,0,0,0,1,2,-1,1000,0,0,0,0,1305,0,695,0,0,-1,95,94,93,97,148,148,148,148,1,0,0,1,1,0,0,4.39651917262023,0,0,0,0,0,0,0,0,0,1,148,148,148,148
2000,58724359,0,0,0,0,0,0,0,0,0,1,2,-1,1000,0,0,0,0,1305,0,695,0,0,0,96,94,93,97,148,148,148,148,1,0,0,1,1,0,0,4.39651917262023,0,0,0,0,0,0,0,0,0,0,148,148,148,148
2016,58726358,0,0,0,0,0,0,0,0,0,1,2,-1,1000,0,0,0,0,1305,0,695,0,0,0,96,94,93,96,148,148,148,148,1,0,0,1,1,0,0,4.39651917262023,0,0,0,0,0,0,0,0,0,0,148,148,148,148
2032,58728355,0,0,0,0,0,0,0,0,0,1,2,-1,1000,0,0,0,0,1305,0,695,0,0,0,96,94,93,96,148,148,148,148,1,0,0,1,1,0,0,4.39651917262023,0,0,0,0,0,0,0,0,0,0,148,148,148,148
2048,58730354,0,0,0,0,0,0,0,0,0,1,3,-1,1000,0,0,0,0,1305,0,695,0,0,0,95,94,93,96,148,148,148,148,1,0,0,1,1,0,0,4.39651917262023,0,0,0,0,0,0,0,0,0,0,148,148,148,148
2064,58732352,0,0,0,0,0,0,0,0,0,1,3,-1,1000,0,0,0,0,1305,0,695,0,0,0,95,94,93,96,148,148,148,148,1,0,0,1,1,0,0,4.39651917262023,0,0,0,0,0,0,0,0,0,0,148,148,148,148
2080,58734350,0,0,0,0,0,0,0,0,0,1,2,-1,1000,0,0,0,0,1305,0,694,0,0,-1,95,94,93,96,148,148,148,148,1,0,0,1,1,0,0,4.396554044298685,0,0,0,0,0,0,0,0,0,1,148,148,148,148
2096,58736348,0,0,0,0,0,0,0,0,0,1,2,-1,1000,0,0,0,0,1305,0,694,0,1,0,96,93,93,96,148,148,148,148,1,0,0,1,1,0,0,4.396554044298897,0,0,0,0,0,0,0,0,-1,0,148,148,148,148
2112,58738346,0,0,0,0,0,0,0,0,0,1,2,-1,1000,0,0,0,0,1305,0,694,1,0,0,96,93,93,97,148,148,148,148,1,0,0,1,1,0,0,4.396554047951826,0,0,0,0,0,0,0,-1,0,0,148,148,148,148
2128,58740343,0,0,0,0,0,0,0,0,0,1,2,-1,1000,0,0,0,0,1306,0,694,0,0,0,96,93,93,97,148,148,148,148,1,0,0,1,1,0,0,4.396554047951826,0,0,0,0,0,0,0,0,0,0,148,148,148,148
2144,58742344,0,0,0,0,0,0,0,0,0,1,2,-1,1000,0,0,0,0,1306,0,694,0,0,0,96,94,93,97,148,148,148,148,1,0,0,1,1,0,0,4.396554047951826,0,0,0,0,0,0,0,0,0,0,148,148,148,148
2160,58744339,0,0,0,0,0,0,0,0,0,1,2,-1,1000,0,0,0,0,1306,15,694,0,0,0,96,94,93,96,148,148,148,148,1,0,0,1,1,0,0,4.396554047951826,0,0,0,0,0,0,0,0,0,0,148,148,148,148
2176,58746338,0,0,0,0,0,0,0,0,0,1,2,-1,1000,0,0,0,0,1306,15,693,0,0,0,96,94,93,96,148,148,148,148,1,0,0,1,1,0,0,4.396554047951826,0,0,0,0,0,0,0,0,0,0,148,148,148,148
2192,58748335,0,0,0,0,0,0,0,0,0,1,2,-1,1000,0,0,0,0,1306,15,693,0,0,0,96,94,93,96,148,148,148,148,1,0,0,1,1,0,0,4.396554047951826,0,0,0,0,0,0,0,0,0,0,148,148,148,148
2208,58750334,0,0,0,0,0,0,0,0,0,1,2,-1,1000,0,0,0,0,1306,15,693,0,0,0,96,94,93,97,148,148,148,148,1,0,0,1,1,0,0,4.396554047951826,0,0,0,0,0,0,0,0,0,0,148,148,148,148
2224,58752331,0,0,0,0,0,0,0,0,0,1,2,-1,1000,0,0,0,0,1306,15,693,0,0,0,96,94,93,97,148,148,148,148,1,0,0,1,1,0,0,4.396554047951826,0,0,0,0,0,0,0,0,0,0,148,148,148,148
2240,58754330,0,0,0,0,0,0,0,0,0,1,2,-1,1000,0,0,0,0,1306,15,693,0,0,0,96,94,93,97,148,148,148,148,1,0,0,1,1,0,0,4.396554047951826,0,0,0,0,0,0,0,0,0,0,148,148,148,148
2256,58756328,0,0,0,0,0,0,0,0,0,1,2,-1,1000,0,0,0,0,1306,15,693,0,0,0,96,94,93,96,148,148,148,148,1,0,0,1,1,0,0,4.396554047951826,0,0,0,0,0,0,0,0,0,0,148,148,148,148
2272,58758326,0,0,0,0,0,0,0,0,0,1,2,-1,1000,0,0,0,0,1306,15,693,0,0,1,96,94,94,96,148,148,148,148,1,0,0,1,1,0,0,4.396519176273371,0,0,0,0,0,0,0,0,0,-1,148,148,148,148
2288,58760324,0,0,0,0,0,0,0,0,0,1,2,-1,1000,0,0,0,0,1303,15,691,0,0,0,97,94,94,96,148,148,148,148,1,0,0,1,1,0,0,4.396519176273371,0,0,0,0,0,0,0,0,0,0,148,148,148,148
2304,58762324,0,0,0,0,0,0,0,0,0,1,2,-1,1000,0,0,0,0,1303,15,691,0,0,1,97,94,94,97,148,148,148,148,1,0,0,1,1,0,0,4.39648426968833,0,0,0,0,0,0,0,0,0,-1,148,148,148,148
2320,58764323,0,0,0,0,0,0,0,0,0,1,2,-1,1000,0,0,0,0,1303,0,691,0,0,0,97,94,94,97,148,148,148,148,1,0,0,1,1,0,0,4.39648426968833,0,0,0,0,0,0,0,0,0,0,148,148,148,148
2336,58766320,0,0,0,0,0,0,0,0,0,1,2,-1,1000,0,0,0,0,1303,0,691,0,0,0,96,94,93,97,148,148,148,148,1,0,0,1,1,0,0,4.39648426968833,0,0,0,0,0,0,0,0,0,0,148,148,148,148
2352,58768316,0,0,0,0,0,0,0,0,0,1,2,-1,1000,0,0,0,0,1303,0,691,0,0,0,96,94,93,97,148,148,148,148,1,0,0,1,1,0,0,4.39648426968833,0,0,0,0,0,0,0,0,0,0,148,148,148,148
2368,58770315,0,0,0,0,0,0,0,0,0,1,2,-1,1000,0,0,0,0,1303,0,691,0,0,0,96,94,93,97,148,148,148,148,1,0,0,1,1,0,0,4.39648426968833,0,0,0,0,0,0,0,0,0,0,148,148,148,148
2384,58772312,0,0,0,0,0,0,0,0,0,1,2,-1,1000,0,0,0,0,1303,0,692,0,0,0,96,94,93,97,148,148,148,148,1,0,0,1,1,0,0,4.39648426968833,0,0,0,0,0,0,0,0,0,0,148,148,148,148
2400,58774311,0,0,0,0,0,0,0,0,0,1,2,-1,1000,0,0,0,0,1303,0,692,0,0,0,96,94,93,97,148,148,148,148,1,0,0,1,1,0,0,4.39648426968833,0,0,0,0,0,0,0,0,0,0,148,148,148,148
2416,58776308,0,0,0,0,0,0,0,0,0,1,4,-1,1000,0,0,0,0,1303,0,692,0,-1,0,96,94,93,97,148,148,148,148,1,0,0,1,1,0,0,4.396484269688331,0,0,0,0,0,0,0,0,1,0,148,148,148,148
2432,58778308,0,0,0,0,0,0,0,0,0,1,4,-1,1000,0,1,0,0,1303,0,692,0,0,0,96,94,93,97,148,148,148,148,1,0,0,1,1,0,0,4.396484269688331,0,0,0,0,1,0,0,0,1,0,148,148,148,148
2448,58780305,0,0,0,0,0,0,0,0,0,1,2,-1,1000,0,1,0,0,1305,0,692,0,0,0,96,94,93,97,148,148,148,148,1,0,0,1,1,0,0,4.396484269688331,0,0,0,0,1,0,0,0,1,0,148,148,148,148
2464,58782305,0,0,0,0,0,0,0,0,0,1,2,-1,1000,0,0,0,0,1305,0,692,0,0,0,96,94,93,97,148,148,148,148,1,0,0,1,1,0,0,4.396484269688331,0,0,0,0,0,0,0,0,0,0,148,148,148,148
2480,58784301,0,0,0,0,0,0,0,0,0,1,2,-1,1000,0,0,0,0,1305,67,693,0,0,0,96,94,94,97,148,148,148,148,1,0,0,1,1,0,0,4.396484269688331,0,0,0,0,0,0,0,0,0,0,148,148,148,148
2496,58786304,0,0,0,0,0,0,0,0,0,1,2,-1,1000,0,0,0,0,1305,67,693,0,0,0,96,94,94,97,148,148,148,148,1,0,0,1,1,0,0,4.396484269688331,0,0,0,0,0,0,0,0,0,0,148,148,148,148
2512,58788296,0,0,0,0,0,0,0,0,0,1,2,-1,1000,0,0,0,0,1305,67,693,0,0,0,96,94,94,97,148,148,148,148,1,0,0,1,1,0,0,4.396484269688331,0,0,0,0,0,0,0,0,0,0,148,148,148,148
2528,58790294,0,0,0,0,0,0,0,0,0,1,2,-1,1000,0,0,0,0,1305,67,693,0,0,0,96,94,94,97,148,148,148,148,1,0,0,1,1,0,0,4.396484269688331,0,0,0,0,0,0,0,0,0,0,148,148,148,148
2544,58792292,0,0,0,0,0,0,0,0,0,1,2,-1,1000,0,0,0,0,1305,67,693,0,0,0,96,94,94,97,148,148,148,148,1,0,0,1,1,0,0,4.396484269688331,0,0,0,0,0,0,0,0,0,0,148,148,148,148
2560,58794290,0,0,0,0,0,0,0,0,0,1,2,-1,1000,0,0,0,0,1305,67,693,0,0,0,96,95,94,97,148,148,148,148,1,0,0,1,1,0,0,4.396484269688331,0,0,0,0,0,0,0,0,0,0,148,148,148,148
2576,58796288,0,0,0,0,0,0,0,0,0,1,2,-1,1000,0,0,0,0,1305,67,693,0,0,0,96,95,94,97,148,148,148,148,1,0,0,1,1,0,0,4.396484269688331,0,0,0,0,0,0,0,0,0,0,148,148,148,148
2592,58798286,0,0,0,0,0,0,0,0,0,1,2,-1,1000,0,0,0,0,1305,67,693,0,0,0,96,95,94,97,148,148,148,148,1,0,0,1,1,0,0,4.396484269688331,0,0,0,0,0,0,0,0,0,0,148,148,148,148
2608,58800284,0,0,0,0,0,0,0,0,0,1,2,-1,1000,0,0,0,0,1307,67,693,0,0,0,96,94,94,97,148,148,148,148,1,0,0,1,1,0,0,4.396484269688331,0,0,0,0,0,0,0,0,0,0,148,148,148,148
2624,58802282,0,0,0,0,0,0,0,0,0,1,2,-1,1000,0,0,0,0,1307,67,693,0,0,0,96,94,94,97,148,148,148,148,1,0,0,1,1,0,0,4.396484269688331,0,0,0,0,0,0,0,0,0,0,148,148,148,148
2640,58804281,0,0,0,0,0,0,0,0,0,1,2,-1,1000,0,0,0,0,1307,2,693,0,0,0,96,94,94,97,148,148,148,148,1,0,0,1,1,0,0,4.396484269688331,0,0,0,0,0,0,0,0,0,0,148,148,148,148
2656,58806278,0,0,0,0,0,0,0,0,0,1,2,-1,1000,0,0,0,0,1307,2,693,0,-1,0,96,95,94,98,148,148,148,148,1,0,0,1,1,0,0,4.396484269688331,0,0,0,0,0,0,0,0,1,0,148,148,148,148
2672,58808280,0,0,0,0,0,0,0,0,0,1,2,-1,1000,0,0,0,0,1307,2,694,0,0,0,96,95,94,98,148,148,148,148,1,0,0,1,1,0,0,4.396484269688331,0,0,0,0,0,0,0,0,0,0,148,148,148,148
2688,58810275,0,0,0,0,0,0,0,0,0,1,2,-1,1000,0,0,0,0,1307,2,694,0,0,0,97,95,94,98,148,148,148,148,1,0,0,1,1,0,0,4.396484269688331,0,0,0,0,0,0,0,0,0,0,148,148,148,148
2704,58812273,0,0,0,0,0,0,0,0,0,1,2,-1,1000,0,0,0,0,1307,2,694,0,0,0,97,95,94,98,148,148,148,148,1,0,0,1,1,0,0,4.396484269688331,0,0,0,0,0,0,0,0,0,0,148,148,148,148
2720,58814271,0,0,0,0,0,0,0,0,0,1,2,-1,1000,0,0,0,0,1307,2,694,0,0,0,97,95,94,98,148,148,148,148,1,0,0,1,1,0,0,4.396484269688331,0,0,0,0,0,0,0,0,0,0,148,148,148,148
2736,58816269,0,0,0,0,0,0,0,0,0,1,2,-1,1000,0,0,0,0,1307,2,694,0,0,0,96,95,94,98,148,148,148,148,1,0,0,1,1,0,0,4.396484269688331,0,0,0,0,0,0,0,0,0,0,148,148,148,148
2752,58818267,0,0,0,0,0,0,0,0,0,1,2,-1,1000,0,0,0,0,1307,2,694,0,0,0,96,95,94,97,148,148,148,148,1,0,0,1,1,0,0,4.396484269688331,0,0,0,0,0,0,0,0,0,0,148,148,148,148
2768,58820265,0,0,0,0,0,0,0,0,0,1,2,-1,1000,0,0,0,0,1307,2,694,0,0,0,96,95,94,97,148,148,148,148,1,0,0,1,1,0,0,4.396484269688331,0,0,0,0,0,0,0,0,0,0,148,148,148,148
2784,58822263,0,0,0,0,0,0,0,0,0,1,2,-1,1000,0,0,0,0,1307,2,694,0,0,0,97,95,93,97,148,148,148,148,1,0,0,1,1,0,0,4.396484269688331,0,0,0,0,0,0,0,0,0,0,148,148,148,148
2800,58824261,0,0,0,0,0,0,0,0,0,1,2,-1,1000,0,0,0,0,1307,0,694,0,0,0,97,95,93,98,148,148,148,148,1,0,0,1,1,0,0,4.396484269688331,0,0,0,0,0,0,0,0,0,0,148,148,148,148
2816,58826259,0,0,0,0,0,0,0,0,0,1,2,-1,1000,0,0,0,0,1307,0,694,0,0,0,97,95,93,98,148,148,148,148,1,0,0,1,1,0,0,4.396484269688331,0,0,0,0,0,0,0,0,0,0,148,148,148,148
2832,58828258,0,0,0,0,0,0,0,0,0,1,2,-1,1000,0,0,0,0,1307,0,694,0,0,0,97,95,93,98,148,148,148,148,1,0,0,1,1,0,0,4.396484269688331,0,0,0,0,0,0,0,0,0,0,148,148,148,148
2848,58830258,0,0,0,0,0,0,0,0,0,1,2,-1,1000,0,0,0,0,1307,0,694,0,0,0,96,95,94,97,148,148,148,148,1,0,0,1,1,0,0,4.396484269688331,0,0,0,0,0,0,0,0,0,0,148,148,148,148
2864,58832254,0,0,0,0,0,0,0,0,0,1,2,-1,1000,0,0,0,0,1307,0,694,0,0,0,96,94,94,97,148,148,148,148,1,0,0,1,1,0,0,4.396484269688331,0,0,0,0,0,0,0,0,0,0,148,148,148,148
2880,58834251,0,0,0,0,0,0,0,0,0,1,2,-1,1000,0,0,0,0,1307,0,694,0,0,0,96,94,94,97,148,148,148,148,1,0,0,1,1,0,0,4.396484269688331,0,0,0,0,0,0,0,0,0,0,148,148,148,148
2896,58836250,0,0,0,0,0,0,0,0,0,1,2,-1,1000,0,0,0,0,1307,0,694,0,0,0,97,94,94,98,148,148,148,148,1,0,0,1,1,0,0,4.396484269688331,0,0,0,0,0,0,0,0,0,0,148,148,148,148
2912,58838247,0,0,0,0,0,0,0,0,0,1,2,-1,1000,0,0,0,0,1307,0,694,0,0,0,97,95,94,98,148,148,148,148,1,0,0,1,1,0,0,4.396484269688331,0,0,0,0,0,0,0,0,0,0,148,148,148,148
2928,58840245,0,0,0,0,0,0,0,0,0,1,2,-1,1000,0,0,0,0,1304,0,694,0,0,0,97,95,94,98,148,148,148,148,1,0,0,1,1,0,0,4.396484269688331,0,0,0,0,0,0,0,0,0,0,148,148,148,148
2944,58842243,0,0,0,0,0,0,0,0,0,1,2,-1,1000,0,0,0,0,1304,0,694,0,0,0,96,95,94,98,148,148,148,148,1,0,0,1,1,0,0,4.396484269688331,0,0,0,0,0,0,0,0,0,0,148,148,148,148
2960,58844241,0,0,0,0,0,0,0,0,0,1,2,-1,1000,0,0,0,0,1304,0,695,0,0,0,96,95,94,98,148,148,148,148,1,0,0,1,1,0,0,4.396484269688331,0,0,0,0,0,0,0,0,0,0,148,148,148,148
2976,58846239,0,0,0,0,0,0,0,0,0,1,2,-1,1000,0,0,0,0,1304,0,695,0,0,0,96,95,94,98,148,148,148,148,1,0,0,1,1,0,0,4.396484269688331,0,0,0,0,0,0,0,0,0,0,148,148,148,148
2992,58848238,0,0,0,0,0,0,0,0,0,1,2,-1,1000,0,0,0,0,1304,0,695,0,0,0,97,95,94,98,148,148,148,148,1,0,0,1,1,0,0,4.396484269688331,0,0,0,0,0,0,0,0,0,0,148,148,148,148
3008,58850235,0,0,0,0,0,0,0,0,0,1,2,-1,1000,0,0,0,0,1304,0,695,0,0,0,97,95,94,98,148,148,148,148,1,0,0,1,1,0,0,4.396484269688331,0,0,0,0,0,0,0,0,0,0,148,148,148,148
3024,58852236,0,0,0,0,0,0,0,0,0,1,2,-1,1000,0,0,0,0,1304,0,695,0,0,0,97,95,94,98,148,148,148,148,1,0,0,1,1,0,0,4.396484269688331,0,0,0,0,0,0,0,0,0,0,148,148,148,148
3040,58854231,0,0,0,0,0,0,0,0,0,1,2,-1,1000,0,0,0,0,1304,0,695,0,0,0,97,95,94,98,148,148,148,148,1,0,0,1,1,0,0,4.396484269688331,0,0,0,0,0,0,0,0,0,0,148,148,148,148
3056,58856229,0,0,0,0,0,0,0,0,0,1,2,-1,1000,0,0,0,0,1304,0,694,0,0,0,97,94,94,98,148,148,148,148,1,0,0,1,1,0,0,4.396484269688331,0,0,0,0,0,0,0,0,0,0,148,148,148,148
3072,58858228,0,0,0,0,0,0,0,0,0,1,2,-1,1000,0,0,0,0,1304,0,694,0,0,0,97,94,94,98,148,148,148,148,1,0,0,1,1,0,0,4.396484269688331,0,0,0,0,0,0,0,0,0,0,148,148,148,148
3088,58860226,0,0,0,0,0,0,0,0,0,1,2,-1,1000,0,0,0,0,1303,0,694,0,-1,0,97,94,94,98,148,148,148,148,1,0,0,1,1,0,0,4.396484269688331,0,0,0,0,0,0,0,0,1,0,148,148,148,148
3104,58862224,0,0,0,0,0,0,0,0,0,1,2,-1,1000,0,0,0,0,1303,0,694,0,0,-1,97,95,94,98,148,148,148,148,1,0,0,1,1,0,0,4.396519141366786,0,0,0,0,0,0,0,0,0,1,148,148,148,148
3120,58864222,0,0,0,0,0,0,0,0,0,1,2,-1,1000,0,0,0,0,1303,7,694,0,0,0,97,95,94,98,148,148,148,148,1,0,0,1,1,0,0,4.396519141366786,0,0,0,0,0,0,0,0,0,0,148,148,148,148
3136,58866220,0,0,0,0,0,0,0,0,0,1,2,-1,1000,0,0,0,0,1303,7,694,0,0,0,97,95,94,98,148,148,148,148,1,0,0,1,1,0,0,4.396519141366786,0,0,0,0,0,0,0,0,0,0,148,148,148,148
3152,58868218,0,0,0,0,0,0,0,0,0,1,2,-1,1000,0,0,0,0,1303,7,694,0,0,0,97,95,94,98,148,148,148,148,1,0,0,1,1,0,0,4.396519141366786,0,0,0,0,0,0,0,0,0,0,148,148,148,148
3168,58870216,0,0,0,0,0,0,0,0,0,1,2,-1,1000,0,0,0,0,1303,7,694,0,0,0,97,95,94,98,148,148,148,148,1,0,0,1,1,0,0,4.396519141366786,0,0,0,0,0,0,0,0,0,0,148,148,148,148
3184,58872214,0,0,0,0,0,0,0,0,0,1,2,-1,1000,0,0,0,0,1303,7,694,0,0,0,96,95,94,98,148,148,148,148,1,0,0,1,1,0,0,4.396519141366786,0,0,0,0,0,0,0,0,0,0,148,148,148,148
3200,58874215,0,0,0,0,0,0,0,0,0,1,2,-1,1000,0,0,0,0,1303,7,694,1,0,0,96,95,94,98,148,148,148,148,1,0,0,1,1,0,0,4.396519141372775,0,0,0,0,0,0,0,-1,0,0,148,148,148,148
3216,58876211,0,0,0,0,0,0,0,0,0,1,2,-1,1000,0,0,0,0,1303,7,694,0,0,0,96,95,94,98,148,148,148,148,1,0,0,1,1,0,0,4.396519141372775,0,0,0,0,0,0,0,0,0,0,148,148,148,148
3232,58878208,0,0,0,0,0,0,0,0,0,1,2,-1,1000,0,0,0,0,1303,7,694,0,0,0,97,95,94,98,148,148,148,148,1,0,0,1,1,0,0,4.396519141372775,0,0,0,0,0,0,0,0,0,0,148,148,148,148
3248,58880207,0,0,0,0,0,0,0,0,0,1,2,-1,1000,0,0,0,0,1305,7,694,0,0,0,97,95,94,98,148,148,148,148,1,0,0,1,1,0,0,4.396519141372775,0,0,0,0,0,0,0,0,0,0,148,148,148,148
3264,58882204,0,0,0,0,0,0,0,0,0,1,2,-1,1000,0,0,0,0,1305,7,694,0,0,0,97,95,94,98,148,148,148,148,1,0,0,1,1,0,0,4.396519141372775,0,0,0,0,0,0,0,0,0,0,148,148,148,148
3280,58884203,0,0,0,0,0,0,0,0,0,1,2,-1,1000,0,0,0,0,1305,0,694,0,0,-1,96,95,94,98,148,148,148,148,1,0,0,1,1,0,0,4.396554030504523,0,0,0,0,0,0,0,0,0,1,148,148,148,148
3296,58886201,0,0,0,0,0,0,0,0,0,1,2,-1,1000,0,0,0,0,1305,0,694,0,0,0,96,95,94,97,148,148,148,148,1,0,0,1,1,0,0,4.396554030504523,0,0,0,0,0,0,0,0,0,0,148,148,148,148
3312,58888198,0,0,0,0,0,0,0,0,0,1,2,-1,1000,0,0,0,0,1305,0,694,0,0,0,96,95,94,97,148,148,148,148,1,0,0,1,1,0,0,4.396554030504523,0,0,0,0,0,0,0,0,0,0,148,148,148,148
3328,58890196,0,0,0,0,0,0,0,0,0,1,2,-1,1000,0,0,0,0,1305,0,694,0,0,0,96,95,94,97,148,148,148,148,1,0,0,1,1,0,0,4.396554030504523,0,0,0,0,0,0,0,0,0,0,148,148,148,148
3344,58892195,0,0,0,0,0,0,0,0,0,1,2,-1,1000,0,0,0,0,1305,0,692,0,0,0,97,95,94,99,148,148,148,148,1,0,0,1,1,0,0,4.396554030504523,0,0,0,0,0,0,0,0,0,0,148,148,148,148
3360,58894192,0,0,0,0,0,0,0,0,0,1,2,-1,1000,0,0,0,0,1305,0,692,0,0,0,97,95,94,99,148,148,148,148,1,0,0,1,1,0,0,4.396554030504523,0,0,0,0,0,0,0,0,0,0,148,148,148,148
3376,58896193,0,0,0,0,0,0,0,0,0,1,2,-1,1000,0,0,0,0,1305,0,692,0,0,0,97,95,94,99,148,148,148,148,1,0,0,1,1,0,0,4.396554030504523,0,0,0,0,0,0,0,0,0,0,148,148,148,148
3392,58898188,0,0,0,0,0,0,0,0,0,1,2,-1,1000,0,0,0,0,1305,0,692,0,0,0,97,95,94,98,148,148,148,148,1,0,0,1,1,0,0,4.396554030504523,0,0,0,0,0,0,0,0,0,0,148,148,148,148
3408,58900187,0,0,0,0,0,0,0,0,0,1,2,-1,1000,0,0,0,0,1305,0,692,0,0,0,97,95,94,98,148,148,148,148,1,0,0,1,1,0,0,4.396554030504523,0,0,0,0,0,0,0,0,0,0,148,148,148,148
3424,58902185,0,0,0,0,0,0,0,0,0,1,2,-1,1000,0,0,0,0,1305,0,692,0,0,0,97,95,94,98,148,148,148,148,1,0,0,1,1,0,0,4.396554030504523,0,0,0,0,0,0,0,0,0,0,148,148,148,148
3440,58904183,0,0,0,0,0,0,0,0,0,1,2,-1,1000,0,0,0,0,1305,0,693,0,0,0,96,95,94,98,148,148,148,148,1,0,0,1,1,0,0,4.396554030504523,0,0,0,0,0,0,0,0,0,0,148,148,148,148
3456,58906181,0,0,0,0,0,0,0,0,0,1,2,-1,1000,0,0,0,0,1305,0,693,0,0,0,96,95,94,98,148,148,148,148,1,0,0,1,1,0,0,4.396554030504523,0,0,0,0,0,0,0,0,0,0,148,148,148,148
3472,58908179,0,0,0,0,0,0,0,0,0,1,2,-1,1000,0,0,0,0,1305,0,693,0,0,0,96,95,94,98,148,148,148,148,1,0,0,1,1,0,0,4.396554030504523,0,0,0,0,0,0,0,0,0,0,148,148,148,148
3488,58910177,0,0,0,0,0,0,0,0,0,1,2,-1,1000,0,0,0,0,1305,0,693,0,0,0,97,95,94,98,148,148,148,148,1,0,0,1,1,0,0,4.396554030504523,0,0,0,0,0,0,0,0,0,0,148,148,148,148
3504,58912175,0,0,0,0,0,0,0,0,0,1,2,-1,1000,0,0,0,0,1305,0,693,0,0,-1,97,95,94,98,148,148,148,148,1,0,0,1,1,0,0,4.396588902182978,0,0,0,0,0,0,0,0,0,1,148,148,148,148
3520,58914173,0,0,0,0,0,0,0,0,0,1,2,-1,1000,0,0,0,0,1305,0,693,0,0,0,97,95,94,98,148,148,148,148,1,0,0,1,1,0,0,4.396588902182978,0,0,0,0,0,0,0,0,0,0,148,148,148,148
3536,58916171,0,0,0,0,0,0,0,0,0,1,2,-1,1000,0,0,0,0,1305,0,693,0,0,0,96,95,94,98,148,148,148,148,1,0,0,1,1,0,0,4.396588902182978,0,0,0,0,0,0,0,0,0,0,148,148,148,148
3552,58918172,0,0,0,0,0,0,0,0,0,1,2,-1,1000,0,0,0,0,1305,0,694,0,0,0,96,95,94,98,148,148,148,148,1,0,0,1,1,0,0,4.396588902182978,0,0,0,0,0,0,0,0,0,0,148,148,148,148
3568,58920168,0,0,0,0,0,0,0,0,0,1,2,-1,1000,0,0,0,0,1305,0,694,0,0,0,96,95,94,98,148,148,148,148,1,0,0,1,1,0,0,4.396588902182978,0,0,0,0,0,0,0,0,0,0,148,148,148,148
3584,58922165,0,0,0,0,0,0,0,0,0,1,2,-1,1000,0,0,0,0,1307,0,694,0,0,0,97,95,94,98,148,148,148,148,1,0,0,1,1,0,0,4.396588902182978,0,0,0,0,0,0,0,0,0,0,148,148,148,148
3600,58924165,0,0,0,0,0,0,0,0,0,1,2,-1,1000,0,0,0,0,1307,62,694,0,0,0,97,95,94,98,148,148,148,148,1,0,0,1,1,0,0,4.396588902182978,0,0,0,0,0,0,0,0,0,0,148,148,148,148
3616,58926161,0,0,0,0,0,0,0,0,0,1,2,-1,1000,0,0,0,0,1307,62,694,0,0,0,97,95,94,98,148,148,148,148,1,0,0,1,1,0,0,4.396588902182978,0,0,0,0,0,0,0,0,0,0,148,148,148,148
3632,58928161,0,0,0,0,0,0,0,0,0,1,2,-1,1000,0,0,0,0,1307,62,694,0,0,0,97,95,94,98,148,148,148,148,1,0,0,1,1,0,0,4.396588902182978,0,0,0,0,0,0,0,0,0,0,148,148,148,148
3648,58930157,0,0,0,0,0,0,0,0,0,1,2,-1,1000,0,0,0,0,1307,62,693,0,0,0,97,95,94,98,148,148,148,148,1,0,0,1,1,0,0,4.396588902182978,0,0,0,0,0,0,0,0,0,0,148,148,148,148
3664,58932158,0,0,0,0,0,0,0,0,0,1,2,-1,1000,0,0,0,0,1307,62,693,0,0,0,97,95,94,98,148,148,148,148,1,0,0,1,1,0,0,4.396588902182978,0,0,0,0,0,0,0,0,0,0,148,148,148,148
3680,58934154,0,0,0,0,0,0,0,0,0,1,2,-1,1000,0,0,0,0,1307,62,693,0,0,0,97,95,94,98,148,148,148,148,1,0,0,1,1,0,0,4.396588902182978,0,0,0,0,0,0,0,0,0,0,148,148,148,148
3696,58936152,0,0,0,0,0,0,0,0,0,1,2,-1,1000,0,0,0,0,1307,62,693,0,0,1,97,95,94,98,148,148,148,148,1,0,0,1,1,0,0,4.396554030504523,0,0,0,0,0,0,0,0,0,-1,148,148,148,148
3712,58938151,0,0,0,0,0,0,0,0,0,1,2,-1,1000,0,0,0,0,1307,62,693,0,0,0,97,95,94,98,148,148,148,148,1,0,0,1,1,0,0,4.396554030504523,0,0,0,0,0,0,0,0,0,0,148,148,148,148
3728,58940152,0,0,0,0,0,0,0,0,0,1,2,-1,1000,0,0,0,0,1307,62,693,0,0,0,97,95,94,99,148,148,148,148,1,0,0,1,1,0,0,4.396554030504523,0,0,0,0,0,0,0,0,0,0,148,148,148,148
3744,58942145,0,0,0,0,0,0,0,0,0,1,2,-1,1000,0,0,0,0,1304,62,694,0,0,0,97,95,94,99,148,148,148,148,1,0,0,1,1,0,0,4.396554030504523,0,0,0,0,0,0,0,0,0,0,148,148,148,148
3760,58944143,0,0,0,0,0,0,0,0,0,1,2,-1,1000,0,0,0,0,1304,37,694,0,0,0,97,95,94,99,148,148,148,148,1,0,0,1,1,0,0,4.396554030504523,0,0,0,0,0,0,0,0,0,0,148,148,148,148
3776,58946141,0,0,0,0,0,0,0,0,0,1,2,-1,1000,0,0,0,0,1304,37,694,0,0,0,97,95,94,98,148,148,148,148,1,0,0,1,1,0,0,4.396554030504523,0,0,0,0,0,0,0,0,0,0,148,148,148,148
3792,58948141,0,0,0,0,0,0,0,0,0,1,2,-1,1000,0,0,0,0,1304,37,694,0,0,0,97,95,94,98,148,148,148,148,1,0,0,1,1,0,0,4.396554030504523,0,0,0,0,0,0,0,0,0,0,148,148,148,148
3808,58950137,0,0,0,0,0,0,0,0,0,1,2,-1,1000,0,0,0,0,1304,37,694,0,0,0,97,95,94,98,148,148,148,148,1,0,0,1,1,0,0,4.396554030504523,0,0,0,0,0,0,0,0,0,0,148,148,148,148
3824,58952135,0,0,0,0,0,0,0,0,0,1,2,-1,1000,0,0,0,0,1304,37,694,0,0,0,97,95,94,98,148,148,148,148,1,0,0,1,1,0,0,4.396554030504523,0,0,0,0,0,0,0,0,0,0,148,148,148,148
3840,58954134,0,0,0,0,0,0,0,0,0,1,2,-1,1000,0,0,0,0,1304,37,695,0,0,0,97,95,94,98,148,148,148,148,1,0,0,1,1,0,0,4.396554030504523,0,0,0,0,0,0,0,0,0,0,148,148,148,148
3856,58956132,0,0,0,0,0,0,0,0,0,1,2,-1,1000,0,0,0,0,1304,37,695,0,0,0,97,95,94,98,148,148,148,148,1,0,0,1,1,0,0,4.396554030504523,0,0,0,0,0,0,0,0,0,0,148,148,148,148
3872,58958130,0,0,0,0,0,0,0,0,0,1,2,-1,1000,0,0,0,0,1304,37,695,0,0,0,97,95,94,99,148,148,148,148,1,0,0,1,1,0,0,4.396554030504523,0,0,0,0,0,0,0,0,0,0,148,148,148,148
3888,58960128,0,0,0,0,0,0,0,0,0,1,2,-1,1000,0,0,0,0,1304,37,695,0,0,0,97,95,94,99,148,148,148,148,1,0,0,1,1,0,0,4.396554030504523,0,0,0,0,0,0,0,0,0,0,148,148,148,148
3904,58962130,0,0,0,0,0,0,0,0,0,1,2,-1,1000,0,0,0,0,1304,37,695,0,0,0,97,95,94,99,148,148,148,148,1,0,0,1,1,0,0,4.396554030504523,0,0,0,0,0,0,0,0,0,0,148,148,148,148
3920,58964124,0,0,0,0,0,0,0,0,0,1,2,-1,1000,0,0,0,0,1304,42,695,0,0,0,97,95,94,98,148,148,148,148,1,0,0,1,1,0,0,4.396554030504523,0,0,0,0,0,0,0,0,0,0,148,148,148,148
3936,58966122,0,0,0,0,0,0,0,0,0,1,2,-1,1000,0,0,0,0,1304,42,694,0,0,0,97,95,94,98,148,148,148,148,1,0,0,1,1,0,0,4.396554030504523,0,0,0,0,0,0,0,0,0,0,148,148,148,148
3952,58968120,0,0,0,0,0,0,0,0,0,1,2,-1,1000,0,0,0,0,1304,42,694,0,0,0,97,95,94,98,148,148,148,148,1,0,0,1,1,0,0,4.396554030504523,0,0,0,0,0,0,0,0,0,0,148,148,148,148
3968,58970118,0,0,0,0,0,0,0,0,0,1,2,-1,1000,0,0,0,0,1304,42,694,0,0,0,97,95,94,98,148,148,148,148,1,0,0,1,1,0,0,4.396554030504523,0,0,0,0,0,0,0,0,0,0,148,148,148,148
3984,58972116,0,0,0,0,0,0,0,0,0,1,2,-1,1000,0,0,0,0,1304,42,694,0,0,0,97,95,94,98,148,148,148,148,1,0,0,1,1,0,0,4.396554030504523,0,0,0,0,0,0,0,0,0,0,148,148,148,148
4000,58974114,0,0,0,0,0,0,0,0,0,1,2,-1,1000,0,0,0,0,1304,42,694,0,0,0,97,95,94,98,148,148,148,148,1,0,0,1,1,0,0,4.396554030504523,0,0,0,0,0,0,0,0,0,0,148,148,148,148
4016,58976112,0,0,0,0,0,0,0,0,0,1,2,-1,1000,0,0,0,0,1304,42,694,0,0,0,97,95,94,99,148,148,148,148,1,0,0,1,1,0,0,4.396554030504523,0,0,0,0,0,0,0,0,0,0,148,148,148,148
4032,58978110,0,0,0,0,0,0,0,0,0,1,2,-1,1000,0,0,0,0,1304,42,693,0,0,0,97,95,94,99,148,148,148,148,1,0,0,1,1,0,0,4.396554030504523,0,0,0,0,0,0,0,0,0,0,148,148,148,148
4048,58980109,0,0,0,0,0,0,0,0,0,1,2,-1,1000,0,0,0,0,1304,42,693,0,0,0,97,95,94,99,148,148,148,148,1,0,0,1,1,0,0,4.396554030504523,0,0,0,0,0,0,0,0,0,0,148,148,148,148
4064,58982106,0,0,0,0,0,0,0,0,0,1,2,-1,1000,0,0,0,0,1307,42,693,0,0,0,97,95,94,98,148,148,148,148,1,0,0,1,1,0,0,4.396554030504523,0,0,0,0,0,0,0,0,0,0,148,148,148,148
4080,58984107,0,0,0,0,0,0,0,0,0,1,2,-1,1000,0,0,0,0,1307,0,693,0,0,0,97,95,94,98,148,148,148,148,1,0,0,1,1,0,0,4.396554030504523,0,0,0,0,0,0,0,0,0,0,148,148,148,148
4096,58986103,0,0,0,0,0,0,0,0,0,1,2,-1,1000,0,0,0,0,1307,0,693,0,0,0,97,95,94,98,148,148,148,148,1,0,0,1,1,0,0,4.396554030504523,0,0,0,0,0,0,0,0,0,0,148,148,148,148
4112,58988100,0,0,0,0,0,0,0,0,0,1,2,-1,1000,0,0,0,0,1307,0,693,0,0,0,97,95,94,98,148,148,148,148,1,0,0,1,1,0,0,4.396554030504523,0,0,0,0,0,0,0,0,0,0,148,148,148,148
4128,58990098,0,0,0,0,0,0,0,0,0,1,2,-1,1000,0,0,0,0,1307,0,692,0,0,0,97,95,94,98,148,148,148,148,1,0,0,1,1,0,0,4.396554030504523,0,0,0,0,0,0,0,0,0,0,148,148,148,148
4144,58992096,0,0,0,0,0,0,0,0,0,1,2,-1,1000,0,0,0,0,1307,0,692,0,0,0,97,95,94,98,148,148,148,148,1,0,0,1,1,0,0,4.396554030504523,0,0,0,0,0,0,0,0,0,0,148,148,148,148
4160,58994094,0,0,0,0,0,0,0,0,0,1,2,-1,1000,0,0,0,0,1307,0,692,0,0,-1,97,95,94,98,148,148,148,148,1,0,0,1,1,0,0,4.396588902182978,0,0,0,0,0,0,0,0,0,1,148,148,148,148
4176,58996092,0,0,0,0,0,0,0,0,0,1,2,-1,1000,0,0,0,0,1307,0,692,0,0,0,97,96,94,98,148,148,148,148,1,0,0,1,1,0,0,4.396588902182978,0,0,0,0,0,0,0,0,0,0,148,148,148,148
4192,58998090,0,0,0,0,0,0,0,0,0,1,2,-1,1000,0,0,0,0,1307,0,692,0,0,0,97,96,94,98,148,148,148,148,1,0,0,1,1,0,0,4.396588902182978,0,0,0,0,0,0,0,0,0,0,148,148,148,148
4208,59000089,0,0,0,0,0,0,0,0,0,1,2,-1,1000,0,0,0,0,1307,0,692,0,0,0,97,96,94,98,148,148,148,148,1,0,0,1,1,0,0,4.396588902182978,0,0,0,0,0,0,0,0,0,0,148,148,148,148
4224,59002087,0,0,0,0,0,0,0,0,0,1,2,-1,1000,0,0,0,0,1304,0,692,0,0,1,97,95,94,98,148,148,148,148,1,0,0,1,1,0,0,4.396554030504523,0,0,0,0,0,0,0,0,0,-1,148,148,148,148
4240,59004085,0,0,0,0,0,0,0,0,0,1,2,-1,1000,0,0,0,0,1304,5,692,0,0,0,97,95,94,98,148,148,148,148,1,0,0,1,1,0,0,4.396554030504523,0,0,0,0,0,0,0,0,0,0,148,148,148,148
4256,59006085,0,0,0,0,0,0,0,0,0,1,2,-1,1000,0,0,0,0,1304,5,692,0,0,0,97,95,94,98,148,148,148,148,1,0,0,1,1,0,0,4.396554030504523,0,0,0,0,0,0,0,0,0,0,148,148,148,148
4272,59008081,0,0,0,0,0,0,0,0,0,1,2,-1,1000,0,0,0,0,1304,5,692,0,0,0,97,95,94,98,148,148,148,148,1,0,0,1,1,0,0,4.396554030504523,0,0,0,0,0,0,0,0,0,0,148,148,148,148
4288,59010078,0,0,0,0,0,0,0,0,0,1,2,-1,1000,0,0,0,0,1304,5,692,0,0,0,97,95,94,98,148,148,148,148,1,0,0,1,1,0,0,4.396554030504523,0,0,0,0,0,0,0,0,0,0,148,148,148,148
4304,59012077,0,0,0,0,0,0,0,0,0,1,2,-1,1000,0,0,0,0,1304,5,692,0,0,0,97,95,94,98,148,148,148,148,1,0,0,1,1,0,0,4.396554030504523,0,0,0,0,0,0,0,0,0,0,148,148,148,148
4320,59014075,0,0,0,0,0,0,0,0,0,1,2,-1,1000,0,0,0,0,1304,5,693,0,0,0,97,95,95,99,148,148,148,148,1,0,0,1,1,0,0,4.396554030504523,0,0,0,0,0,0,0,0,0,0,148,148,148,148
4336,59016073,0,0,0,0,0,0,0,0,0,1,2,-1,1000,0,0,0,0,1304,5,693,0,0,0,97,95,95,99,148,148,148,148,1,0,0,1,1,0,0,4.396554030504523,0,0,0,0,0,0,0,0,0,0,148,148,148,148
4352,59018071,0,0,0,0,0,0,0,0,0,1,2,-1,1000,0,0,0,0,1304,5,693,0,0,0,97,95,95,99,148,148,148,148,1,0,0,1,1,0,0,4.396554030504523,0,0,0,0,0,0,0,0,0,0,148,148,148,148
4368,59020069,0,0,0,0,0,0,0,0,0,1,2,-1,1000,0,0,0,0,1304,5,693,0,0,0,97,95,94,98,148,148,148,148,1,0,0,1,1,0,0,4.396554030504523,0,0,0,0,0,0,0,0,0,0,148,148,148,148
4384,59022067,0,0,0,0,0,0,0,0,0,1,2,-1,1000,0,0,0,0,1305,5,693,0,0,0,97,95,94,98,148,148,148,148,1,0,0,1,1,0,0,4.396554030504523,0,0,0,0,0,0,0,0,0,0,148,148,148,148
4400,59024066,0,0,0,0,0,0,0,0,0,1,2,-1,1000,0,0,0,0,1305,5,693,0,0,0,97,95,94,98,148,148,148,148,1,0,0,1,1,0,0,4.396554030504523,0,0,0,0,0,0,0,0,0,0,148,148,148,148
4416,59026064,0,0,0,0,0,0,0,0,0,1,2,-1,1000,0,0,0,0,1305,0,692,0,0,0,97,95,94,99,148,148,148,148,1,0,0,1,1,0,0,4.396554030504523,0,0,0,0,0,0,0,0,0,0,148,148,148,148
4432,59028064,0,0,0,0,0,0,0,0,0,1,2,-1,1000,0,0,0,0,1305,0,692,0,0,0,97,95,94,99,148,148,148,148,1,0,0,1,1,0,0,4.396554030504523,0,0,0,0,0,0,0,0,0,0,148,148,148,148
4448,59030060,0,0,0,0,0,0,0,0,0,1,3,-1,1000,0,0,0,0,1305,0,692,0,0,0,97,95,94,99,148,148,148,148,1,0,0,1,1,0,0,4.396554030504523,0,0,0,0,0,0,0,0,0,0,148,148,148,148
4464,59032058,0,0,0,0,0,0,0,0,0,1,3,-1,1000,0,0,0,0,1305,0,692,0,0,0,97,95,95,98,148,148,148,148,1,0,0,1,1,0,0,4.396554030504523,0,0,0,0,0,0,0,0,0,0,148,148,148,148
4480,59034056,0,0,0,0,0,0,0,0,0,1,2,-1,1000,0,0,0,0,1305,0,692,0,0,1,97,95,95,98,148,148,148,148,1,0,0,1,1,0,0,4.396519158826068,0,0,0,0,0,0,0,0,0,-1,148,148,148,148
4496,59036054,0,0,0,0,0,0,0,0,0,1,2,-1,1000,0,0,0,0,1305,0,692,0,0,0,97,95,95,98,148,148,148,148,1,0,0,1,1,0,0,4.396519158826068,0,0,0,0,0,0,0,0,0,0,148,148,148,148
4512,59038052,0,0,0,0,0,0,0,0,0,1,2,-1,1000,0,0,0,0,1305,0,692,0,0,0,97,95,94,98,148,148,148,148,1,0,0,1,1,0,0,4.396519158826068,0,0,0,0,0,0,0,0,0,0,148,148,148,148
4528,59040049,0,0,0,0,0,0,0,0,0,1,2,-1,1000,0,0,0,0,1305,0,692,0,0,0,97,95,94,98,148,148,148,148,1,0,0,1,1,0,0,4.396519158826068,0,0,0,0,0,0,0,0,0,0,148,148,148,148
4544,59042047,0,0,0,0,0,0,0,0,0,1,2,-1,1000,0,0,0,0,1306,0,692,0,0,0,97,95,94,98,148,148,148,148,1,0,0,1,1,0,0,4.396519158826068,0,0,0,0,0,0,0,0,0,0,148,148,148,148
4560,59044045,0,0,0,0,0,0,0,0,0,1,2,-1,1000,0,0,0,0,1306,0,692,0,0,-1,97,95,94,98,148,148,148,148,1,0,0,1,1,0,0,4.396554030504523,0,0,0,0,0,0,0,0,0,1,148,148,148,148
4576,59046044,0,0,0,0,0,0,0,0,0,1,2,-1,1000,0,0,0,0,1306,0,692,0,0,0,97,95,95,98,148,148,148,148,1,0,0,1,1,0,0,4.396554030504523,0,0,0,0,0,0,0,0,0,0,148,148,148,148
4592,59048041,0,0,0,0,0,0,0,0,0,1,2,-1,1000,0,0,0,0,1306,0,692,0,0,0,97,95,95,98,148,148,148,148,1,0,0,1,1,0,0,4.396554030504523,0,0,0,0,0,0,0,0,0,0,148,148,148,148
4608,59050043,0,0,0,0,0,0,0,0,0,1,2,-1,1000,0,0,0,0,1306,0,692,0,0,0,97,95,95,98,148,148,148,148,1,0,0,1,1,0,0,4.396554030504523,0,0,0,0,0,0,0,0,0,0,148,148,148,148
4624,59052037,0,0,0,0,0,0,0,0,0,1,2,-1,1000,0,0,0,0,1306,0,692,0,0,0,97,95,94,98,148,148,148,148,1,0,0,1,1,0,0,4.396554030504523,0,0,0,0,0,0,0,0,0,0,148,148,148,148
4640,59054036,0,0,0,0,0,0,0,0,0,1,2,-1,1000,0,0,0,0,1306,0,692,0,0,0,97,95,94,98,148,148,148,148,1,0,0,1,1,0,0,4.396554030504523,0,0,0,0,0,0,0,0,0,0,148,148,148,148
4656,59056034,0,0,0,0,0,0,0,0,0,1,2,-1,1000,0,0,0,0,1306,0,692,0,0,0,97,95,94,99,148,148,148,148,1,0,0,1,1,0,0,4.396554030504523,0,0,0,0,0,0,0,0,0,0,148,148,148,148
4672,59058032,0,0,0,0,0,0,0,0,0,1,2,-1,1000,0,0,0,0,1306,0,692,0,0,0,97,95,95,99,148,148,148,148,1,0,0,1,1,0,0,4.396554030504523,0,0,0,0,0,0,0,0,0,0,148,148,148,148
4688,59060030,0,0,0,0,0,0,0,0,0,1,2,-1,1000,0,0,0,0,1306,0,692,0,0,0,97,95,95,99,148,148,148,148,1,0,0,1,1,0,0,4.396554030504523,0,0,0,0,0,0,0,0,0,0,148,148,148,148
4704,59062028,0,0,0,0,0,0,0,0,0,1,2,-1,1000,0,0,0,0,1306,0,691,0,0,0,97,95,95,98,148,148,148,148,1,0,0,1,1,0,0,4.396554030504523,0,0,0,0,0,0,0,0,0,0,148,148,148,148
4720,59064026,0,0,0,0,0,0,0,0,0,1,2,-1,1000,0,0,0,0,1302,0,690,0,0,0,97,96,94,98,148,148,148,148,1,0,0,1,1,0,0,4.396554030504523,0,0,0,0,0,0,0,0,0,0,148,148,148,148
4736,59066024,0,0,0,0,0,0,0,0,0,1,2,-1,1000,0,0,0,0,1302,57,690,0,0,0,97,96,94,98,148,148,148,148,1,0,0,1,1,0,0,4.396554030504523,0,0,0,0,0,0,0,0,0,0,148,148,148,148
4752,59068022,0,0,0,0,0,0,0,0,0,1,2,-1,1000,0,0,0,0,1302,57,690,0,0,0,97,96,94,98,148,148,148,148,1,0,0,1,1,0,0,4.396554030504523,0,0,0,0,0,0,0,0,0,0,148,148,148,148
4768,59070022,0,0,0,0,0,0,0,0,0,1,2,-1,1000,0,0,0,0,1302,57,690,0,0,0,97,95,94,98,148,148,148,148,1,0,0,1,1,0,0,4.396554030504523,0,0,0,0,0,0,0,0,0,0,148,148,148,148
4784,59072021,0,0,0,0,0,0,0,0,0,1,2,-1,1000,0,0,0,0,1302,57,690,0,0,0,97,95,94,98,148,148,148,148,1,0,0,1,1,0,0,4.396554030504523,0,0,0,0,0,0,0,0,0,0,148,148,148,148
4800,59074017,0,0,0,0,0,0,0,0,0,1,2,-1,1000,0,0,0,0,1302,57,690,0,0,0,97,95,94,98,148,148,148,148,1,0,0,1,1,0,0,4.396554030504523,0,0,0,0,0,0,0,0,0,0,148,148,148,148
4816,59076015,0,0,0,0,0,0,0,0,0,1,2,-1,1000,0,0,0,0,1302,57,692,0,0,0,97,95,94,98,148,148,148,148,1,0,0,1,1,0,0,4.396554030504523,0,0,0,0,0,0,0,0,0,0,148,148,148,148
4832,59078015,0,0,0,0,0,0,0,0,0,1,2,-1,1000,0,0,0,0,1302,57,692,0,0,0,97,95,94,98,148,148,148,148,1,0,0,1,1,0,0,4.396554030504523,0,0,0,0,0,0,0,0,0,0,148,148,148,148
4848,59080011,0,0,0,0,0,0,0,0,0,1,2,-1,1000,0,0,0,0,1302,57,692,0,0,0,97,95,94,98,148,148,148,148,1,0,0,1,1,0,0,4.396554030504523,0,0,0,0,0,0,0,0,0,0,148,148,148,148
4864,59082011,0,0,0,0,0,0,0,0,0,1,2,-1,1000,0,0,0,0,1302,57,692,0,0,0,97,95,95,98,148,148,148,148,1,0,0,1,1,0,0,4.396554030504523,0,0,0,0,0,0,0,0,0,0,148,148,148,148
4880,59084007,0,0,0,0,0,0,0,0,0,1,2,-1,1000,0,0,0,0,1301,57,692,0,0,0,97,95,95,98,148,148,148,148,1,0,0,1,1,0,0,4.396554030504523,0,0,0,0,0,0,0,0,0,0,148,148,148,148
4896,59086007,0,0,0,0,0,0,0,0,0,1,2,-1,1000,0,0,0,0,1301,55,692,0,0,0,97,95,95,99,148,148,148,148,1,0,0,1,1,0,0,4.396554030504523,0,0,0,0,0,0,0,0,0,0,148,148,148,148
4912,59088003,0,0,0,0,0,0,0,0,0,1,2,-1,1000,0,0,0,0,1301,55,691,0,0,0,97,95,95,99,148,148,148,148,1,0,0,1,1,0,0,4.396554030504523,0,0,0,0,0,0,0,0,0,0,148,148,148,148
4928,59090003,0,0,0,0,0,0,0,0,0,1,2,-1,1000,0,0,0,0,1301,55,691,0,0,0,96,95,94,99,148,148,148,148,1,0,0,1,1,0,0,4.396554030504523,0,0,0,0,0,0,0,0,0,0,148,148,148,148
4944,59091998,0,0,0,0,0,0,0,0,0,1,2,-1,1000,0,0,0,0,1301,55,691,0,0,0,96,95,94,98,148,148,148,148,1,0,0,1,1,0,0,4.396554030504523,0,0,0,0,0,0,0,0,0,0,148,148,148,148
4960,59094002,0,0,0,0,0,0,0,0,0,1,2,-1,1000,0,0,0,0,1301,55,691,0,0,0,96,95,94,98,148,148,148,148,1,0,0,1,1,0,0,4.396554030504523,0,0,0,0,0,0,0,0,0,0,148,148,148,148
4976,59095995,0,0,0,0,0,0,0,0,0,1,2,-1,1000,0,0,0,0,1301,55,691,0,0,0,97,95,95,98,148,148,148,148,1,0,0,1,1,0,0,4.396554030504523,0,0,0,0,0,0,0,0,0,0,148,148,148,148
4992,59097993,0,0,0,0,0,0,0,0,0,1,2,-1,1000,0,0,0,0,1301,55,691,0,0,0,97,95,95,98,148,148,148,148,1,0,0,1,1,0,0,4.396554030504523,0,0,0,0,0,0,0,0,0,0,148,148,148,148
5008,59099991,0,0,0,0,0,0,0,0,0,1,2,-1,1000,0,0,0,0,1301,55,691,0,0,0,97,95,95,98,148,148,148,148,1,0,0,1,1,0,0,4.396554030504523,0,0,0,0,0,0,0,0,0,0,148,148,148,148
5024,59101989,0,0,0,0,0,0,0,0,0,1,2,-1,1000,0,0,0,0,1301,55,691,0,0,0,97,95,94,98,148,148,148,148,1,0,0,1,1,0,0,4.396554030504523,0,0,0,0,0,0,0,0,0,0,148,148,148,148
5040,59103987,0,0,0,0,0,0,0,0,0,1,2,-1,1000,0,0,0,0,1305,55,691,0,0,0,97,95,94,99,148,148,148,148,1,0,0,1,1,0,0,4.396554030504523,0,0,0,0,0,0,0,0,0,0,148,148,148,148
5056,59105985,0,0,0,0,0,0,0,0,0,1,2,-1,1000,0,0,0,0,1305,90,691,0,0,0,97,95,94,99,148,148,148,148,1,0,0,1,1,0,0,4.396554030504523,0,0,0,0,0,0,0,0,0,0,148,148,148,148
5072,59107983,0,0,0,0,0,0,0,0,0,1,2,-1,1000,0,0,0,0,1305,90,691,0,0,0,97,96,95,99,148,148,148,148,1,0,0,1,1,0,0,4.396554030504523,0,0,0,0,0,0,0,0,0,0,148,148,148,148
5088,59109981,0,0,0,0,0,0,0,0,0,1,2,-1,1000,0,0,0,0,1305,90,691,0,0,0,97,96,95,98,148,148,148,148,1,0,0,1,1,0,0,4.396554030504523,0,0,0,0,0,0,0,0,0,0,148,148,148,148
5104,59111979,0,0,0,0,0,0,0,0,0,1,2,-1,1000,0,0,0,0,1305,90,691,0,0,0,97,96,95,98,148,148,148,148,1,0,0,1,1,0,0,4.396554030504523,0,0,0,0,0,0,0,0,0,0,148,148,148,148
5120,59113977,0,0,0,0,0,0,0,0,0,1,2,-1,1000,0,0,0,0,1305,90,691,0,0,0,97,95,94,98,148,148,148,148,1,0,0,1,1,0,0,4.396554030504523,0,0,0,0,0,0,0,0,0,0,148,148,148,148
5136,59115978,0,0,0,0,0,0,0,0,0,1,2,-1,1000,0,0,0,0,1305,90,691,0,0,0,97,95,94,98,148,148,148,148,1,0,0,1,1,0,0,4.396554030504523,0,0,0,0,0,0,0,0,0,0,148,148,148,148
5152,59117973,0,0,0,0,0,0,0,0,0,1,2,-1,1000,0,0,0,0,1305,90,691,0,0,0,97,95,94,98,148,148,148,148,1,0,0,1,1,0,0,4.396554030504523,0,0,0,0,0,0,0,0,0,0,148,148,148,148
5168,59119971,0,0,0,0,0,0,0,0,0,1,2,-1,1000,0,0,0,0,1305,90,691,0,0,0,97,95,94,98,148,148,148,148,1,0,0,1,1,0,0,4.396554030504523,0,0,0,0,0,0,0,0,0,0,148,148,148,148
5184,59121969,0,0,0,0,0,0,0,0,0,1,2,-1,1000,0,0,0,0,1305,90,691,0,0,0,97,95,94,99,148,148,148,148,1,0,0,1,1,0,0,4.396554030504523,0,0,0,0,0,0,0,0,0,0,148,148,148,148
5200,59123968,0,0,0,0,0,0,0,0,0,1,2,-1,1000,0,0,0,0,1302,90,689,0,0,0,97,95,94,99,148,148,148,148,1,0,0,1,1,0,0,4.396554030504523,0,0,0,0,0,0,0,0,0,0,148,148,148,148
5216,59125966,0,0,0,0,0,0,0,0,0,1,2,-1,1000,0,0,0,0,1302,0,689,0,0,0,97,95,94,99,148,148,148,148,1,0,0,1,1,0,0,4.396554030504523,0,0,0,0,0,0,0,0,0,0,148,148,148,148
5232,59127964,0,0,0,0,0,0,0,0,0,1,2,-1,1000,0,0,0,0,1302,0,689,0,0,0,97,96,95,98,148,148,148,148,1,0,0,1,1,0,0,4.396554030504523,0,0,0,0,0,0,0,0,0,0,148,148,148,148
5248,59129961,0,0,0,0,0,0,0,0,0,1,2,-1,1000,0,0,0,0,1302,0,689,0,0,0,97,96,95,98,148,148,148,148,1,0,0,1,1,0,0,4.396554030504523,0,0,0,0,0,0,0,0,0,0,148,148,148,148
5264,59131960,0,0,0,0,0,0,0,0,0,1,2,-1,1000,0,0,0,0,1302,0,689,0,0,0,97,96,95,98,148,148,148,148,1,0,0,1,1,0,0,4.396554030504523,0,0,0,0,0,0,0,0,0,0,148,148,148,148
5280,59133958,0,0,0,0,0,0,0,0,0,1,2,-1,1000,0,0,0,0,1302,0,689,0,0,0,97,96,94,98,148,148,148,148,1,0,0,1,1,0,0,4.396554030504523,0,0,0,0,0,0,0,0,0,0,148,148,148,148
5296,59135956,0,0,0,0,0,0,0,0,0,1,2,-1,1000,0,0,0,0,1302,0,689,0,0,0,97,96,94,98,148,148,148,148,1,0,0,1,1,0,0,4.396554030504523,0,0,0,0,0,0,0,0,0,0,148,148,148,148
5312,59137956,0,0,0,0,0,0,0,0,0,1,2,-1,1000,0,0,0,0,1302,0,689,0,0,0,97,96,94,98,148,148,148,148,1,0,0,1,1,0,0,4.396554030504523,0,0,0,0,0,0,0,0,0,0,148,148,148,148
5328,59139951,0,0,0,0,0,0,0,0,0,1,2,-1,1000,0,0,0,0,1302,0,689,0,0,0,97,95,94,99,148,148,148,148,1,0,0,1,1,0,0,4.396554030504523,0,0,0,0,0,0,0,0,0,0,148,148,148,148
5344,59141949,0,0,0,0,0,0,0,0,0,1,2,-1,1000,0,0,0,0,1302,0,689,0,0,0,97,95,94,99,148,148,148,148,1,0,0,1,1,0,0,4.396554030504523,0,0,0,0,0,0,0,0,0,0,148,148,148,148
5360,59143947,0,0,0,0,0,0,0,0,0,1,2,-1,1000,0,0,0,0,1307,0,689,0,0,0,97,95,94,99,148,148,148,148,1,0,0,1,1,0,0,4.396554030504523,0,0,0,0,0,0,0,0,0,0,148,148,148,148
5376,59145946,0,0,0,0,0,0,0,0,0,1,2,-1,1000,0,0,0,0,1307,0,689,0,0,0,97,95,95,99,148,148,148,148,1,0,0,1,1,0,0,4.396554030504523,0,0,0,0,0,0,0,0,0,0,148,148,148,148
5392,59147944,0,0,0,0,0,0,0,0,0,1,2,-1,1000,0,0,0,0,1307,0,690,0,0,0,97,95,95,98,148,148,148,148,1,0,0,1,1,0,0,4.396554030504523,0,0,0,0,0,0,0,0,0,0,148,148,148,148
5408,59149941,0,0,0,0,0,0,0,0,0,1,2,-1,1000,0,0,0,0,1307,0,690,0,0,0,97,95,95,98,148,148,148,148,1,0,0,1,1,0,0,4.396554030504523,0,0,0,0,0,0,0,0,0,0,148,148,148,148
5424,59151940,0,0,0,0,0,0,0,0,0,1,2,-1,1000,0,0,0,0,1307,0,690,0,0,0,97,96,94,98,148,148,148,148,1,0,0,1,1,0,0,4.396554030504523,0,0,0,0,0,0,0,0,0,0,148,148,148,148
5440,59153938,0,0,0,0,0,0,0,0,0,1,2,-1,1000,0,0,0,0,1307,0,690,0,0,0,97,96,94,99,148,148,148,148,1,0,0,1,1,0,0,4.396554030504523,0,0,0,0,0,0,0,0,0,0,148,148,148,148
5456,59155936,0,0,0,0,0,0,0,0,0,1,2,-1,1000,0,0,0,0,1307,0,690,0,0,0,97,96,94,99,148,148,148,148,1,0,0,1,1,0,0,4.396554030504523,0,0,0,0,0,0,0,0,0,0,148,148,148,148
5472,59157934,0,0,0,0,0,0,0,0,0,1,2,-1,1000,0,0,0,0,1307,0,690,0,0,0,97,95,94,99,148,148,148,148,1,0,0,1,1,0,0,4.396554030504523,0,0,0,0,0,0,0,0,0,0,148,148,148,148
5488,59159935,0,0,0,0,0,0,0,0,0,1,2,-1,1000,0,0,0,0,1307,0,690,0,0,0,97,95,94,98,148,148,148,148,1,0,0,1,1,0,0,4.396554030504523,0,0,0,0,0,0,0,0,0,0,148,148,148,148
5504,59161930,0,0,0,0,0,0,0,0,0,1,2,-1,1000,0,0,0,0,1307,0,690,0,0,0,97,95,94,98,148,148,148,148,1,0,0,1,1,0,0,4.396554030504523,0,0,0,0,0,0,0,0,0,0,148,148,148,148
