"Product","Blackbox flight data recorder by Nicholas Sherlock"
"firmwareType",3
"firmware","4.3"
"firmwarePatch",0
"firmwareVersion","4.3.0"
"Firmware revision","Betaflight 4.3.0 (norevision) STM32F7X2"
"Firmware date","Dec 24 2021 18:42:12"
"Board information","FOXE FOXEERF722V2"
"Log start datetime","2022-01-16T21:08:43.631+00:00"
"Craft name","LIMON_6"
"frameIntervalI",256
"frameIntervalPNum",1
"frameIntervalPDenom",16
"minthrottle",1070
"maxthrottle",2000
"gyroScale",1.7453292519943295e-8
"motorOutput","148,2047"
"acc_1G",0
"vbatscale",121
"vbatmincellvoltage",330
"vbatwarningcellvoltage",350
"vbatmaxcellvoltage",430
"vbatref",1305
"currentMeterOffset",0
"currentMeterScale",400
"looptime",125
"gyro_sync_denom",1
"pid_process_denom",1
"thrMid",50
"thrExpo",0
"dynThrPID",60
"tpa_breakpoint",1350
"rc_rates","7,7,7"
"rc_expo","0,0,0"
"rates","67,67,67"
"rate_limits","1998,1998,1998"
"rollPID","0,0,0,0"
"pitchPID","0,0,0,0"
"yawPID","0,0,0,0"
"levelPID","50,50,75"
"magPID","40,,"
"d_min","0,0,0"
"yaw_lpf_hz",100
"dterm_notch_hz",0
"dterm_notch_cutoff",0
"itermWindupPointPercent",85
"iterm_relax",0
"iterm_relax_type",1
"iterm_relax_cutoff",15
"anti_gravity_mode",0
"anti_gravity_threshold",250
"anti_gravity_gain",0
"abs_control_gain",0
"use_integrated_yaw",0
"ff_transition",0
"yawRateAccelLimit",0
"rateAccelLimit",0
"pidSumLimit",500
"pidSumLimitYaw",400
"deadband",0
"yaw_deadband",0
"gyro_lpf",0
"gyro_notch_hz","0,0"
"gyro_notch_cutoff","0,0"
"gyro_to_use",0
"dyn_notch_max_hz",360
"dyn_notch_count",2
"dyn_notch_q",600
"dyn_notch_min_hz",180
"dshot_bidir",1
"motor_poles",14
"acc_lpf_hz",1000
"acc_hardware",1
"baro_hardware",1
"mag_hardware",1
"gyro_cal_on_first_arm",0
"airmode_activate_throttle",25
"serialrx_provider",14
"unsynced_fast_pwm",0
"fast_pwm_protocol",7
"motor_pwm_rate",480
"digitalIdleOffset",500
"debug_mode",45
"features",268698632
"rc_smoothing",1
"rc_smoothing_auto_factor_setpoint",30
"rc_smoothing_auto_factor_throttle",30
"rc_smoothing_debug_axis",0
"rc_smoothing_active_cutoffs_ff_sp_thr","93,93,93"
"rc_smoothing_rx_average",4048
"rates_type",3
"fields_disabled_mask",0
"vbat_sag_compensation",0
"loopIteration","time","axisP[0]","axisP[1]","axisP[2]","axisI[0]","axisI[1]","axisI[2]","axisF[0]","axisF[1]","axisF[2]","rcCommand[0]","rcCommand[1]","rcCommand[2]","rcCommand[3]","setpoint[0]","setpoint[1]","setpoint[2]","setpoint[3]","vbatLatest","amperageLatest","rssi","gyroADC[0]","gyroADC[1]","gyroADC[2]","debug[0]","debug[1]","debug[2]","debug[3]","motor[0]","motor[1]","motor[2]","motor[3]","flightModeFlags","stateFlags","failsafePhase","rxSignalReceived","rxFlightChannelsValid","heading[0]","heading[1]","heading[2]","axisSum[0]","axisSum[1]","axisSum[2]","rcCommands[0]","rcCommands[1]","rcCommands[2]","rcCommands[3]","axisError[0]","axisError[1]","axisError[2]","motorLegacy[0]","motorLegacy[1]","motorLegacy[2]","motorLegacy[3]"
0,1882298472,0,0,0,0,0,0,0,0,0,1,2,-1,1000,0,0,0,0,1302,15,676,0,0,0,81,79,80,77,148,148,148,148,"","","","","",0,0,4.396484385773716,0,0,0,0,0,0,0,0,0,0,148,148,148,148
16,1882300470,0,0,0,0,0,0,0,0,0,1,2,-1,1000,0,0,0,0,1302,15,676,0,0,0,81,80,80,77,148,148,148,148,1,0,0,1,1,0,0,4.396484385773716,0,0,0,0,0,0,0,0,0,0,148,148,148,148
32,1882302467,0,0,0,0,0,0,0,0,0,1,2,-1,1000,0,0,0,0,1302,15,676,0,0,0,81,80,80,78,148,148,148,148,1,0,0,1,1,0,0,4.396484385773716,0,0,0,0,0,0,0,0,0,0,148,148,148,148
48,1882304465,0,0,0,0,0,0,0,0,0,1,2,-1,1000,0,0,0,0,1303,15,676,0,0,0,83,80,81,78,148,148,148,148,1,0,0,1,1,0,0,4.396484385773716,0,0,0,0,0,0,0,0,0,0,148,148,148,148
64,1882306463,0,0,0,0,0,0,0,0,0,1,2,-1,1000,0,0,0,0,1303,15,676,0,0,0,83,80,81,78,148,148,148,148,1,0,0,1,1,0,0,4.396484385773716,0,0,0,0,0,0,0,0,0,0,148,148,148,148
80,1882308462,0,0,0,0,0,0,0,0,0,1,2,-1,1000,0,0,0,0,1303,0,676,0,0,0,83,82,81,78,148,148,148,148,1,0,0,1,1,0,0,4.396484385773716,0,0,0,0,0,0,0,0,0,0,148,148,148,148
96,1882310457,0,0,0,0,0,0,0,0,0,1,2,-1,1000,0,0,0,0,1303,0,676,0,0,0,83,82,82,80,148,148,148,148,1,0,0,1,1,0,0,4.396484385773716,0,0,0,0,0,0,0,0,0,0,148,148,148,148
112,1882312458,0,0,0,0,0,0,0,0,0,1,2,-1,1000,0,0,0,0,1303,0,676,0,0,0,83,82,82,80,148,148,148,148,1,0,0,1,1,0,0,4.396484385773716,0,0,0,0,0,0,0,0,0,0,148,148,148,148
128,1882314454,0,0,0,0,0,0,0,0,0,1,2,-1,1000,0,0,0,0,1303,0,676,0,0,0,83,82,82,80,148,148,148,148,1,0,0,1,1,0,0,4.396484385773716,0,0,0,0,0,0,0,0,0,0,148,148,148,148
144,1882316452,0,0,0,0,0,0,0,0,0,1,2,-1,1000,0,0,0,0,1303,0,677,0,0,0,83,83,82,80,148,148,148,148,1,0,0,1,1,0,0,4.396484385773716,0,0,0,0,0,0,0,0,0,0,148,148,148,148
160,1882318452,0,0,0,0,0,0,0,0,0,1,2,-1,1000,0,0,0,0,1303,0,677,0,0,0,85,83,84,81,148,148,148,148,1,0,0,1,1,0,0,4.396484385773716,0,0,0,0,0,0,0,0,0,0,148,148,148,148
176,1882320446,0,0,0,0,0,0,0,0,0,1,2,-1,1000,0,0,0,0,1303,0,677,0,0,0,85,83,84,81,148,148,148,148,1,0,0,1,1,0,0,4.396484385773716,0,0,0,0,0,0,0,0,0,0,148,148,148,148
192,1882322444,0,0,0,0,0,0,0,0,0,1,2,-1,1000,0,0,0,0,1303,0,677,0,0,0,85,84,84,81,148,148,148,148,1,0,0,1,1,0,0,4.396484385773716,0,0,0,0,0,0,0,0,0,0,148,148,148,148
208,1882324442,0,0,0,0,0,0,0,0,0,1,2,-1,1000,0,0,0,0,1302,0,677,0,0,0,86,84,84,82,148,148,148,148,1,0,0,1,1,0,0,4.396484385773716,0,0,0,0,0,0,0,0,0,0,148,148,148,148
224,1882326440,0,0,0,0,0,0,0,0,0,1,2,-1,1000,0,0,0,0,1302,0,677,0,0,0,86,84,85,82,148,148,148,148,1,0,0,1,1,0,0,4.396484385773716,0,0,0,0,0,0,0,0,0,0,148,148,148,148
240,1882328437,0,0,0,0,0,0,0,0,0,1,2,-1,1000,0,0,0,0,1302,0,677,0,0,0,86,84,85,82,148,148,148,148,1,0,0,1,1,0,0,4.396484385773716,0,0,0,0,0,0,0,0,0,0,148,148,148,148
256,1882330434,0,0,0,0,0,0,0,0,0,1,2,-1,1000,0,0,0,0,1302,0,677,0,0,0,86,85,85,82,148,148,148,148,1,0,0,1,1,0,0,4.396484385773716,0,0,0,0,0,0,0,0,0,0,148,148,148,148
272,1882332432,0,0,0,0,0,0,0,0,0,1,2,-1,1000,0,0,0,0,1302,0,677,0,0,0,87,85,85,83,148,148,148,148,1,0,0,1,1,0,0,4.396484385773716,0,0,0,0,0,0,0,0,0,0,148,148,148,148
288,1882334429,0,0,0,0,0,0,0,0,0,1,2,-1,1000,0,0,0,0,1302,0,677,0,0,0,87,85,85,83,148,148,148,148,1,0,0,1,1,0,0,4.396484385773716,0,0,0,0,0,0,0,0,0,0,148,148,148,148
304,1882336427,0,0,0,0,0,0,0,0,0,1,2,-1,1000,0,0,0,0,1302,0,677,0,0,0,87,86,85,83,148,148,148,148,1,0,0,1,1,0,0,4.396484385773716,0,0,0,0,0,0,0,0,0,0,148,148,148,148
320,1882338426,0,0,0,0,0,0,0,0,0,1,2,-1,1000,0,0,0,0,1302,0,677,0,0,0,88,86,85,85,148,148,148,148,1,0,0,1,1,0,0,4.396484385773716,0,0,0,0,0,0,0,0,0,0,148,148,148,148
336,1882340425,0,0,0,0,0,0,0,0,0,1,2,-1,1000,0,0,0,0,1302,0,677,0,0,0,88,86,86,85,148,148,148,148,1,0,0,1,1,0,0,4.396484385773716,0,0,0,0,0,0,0,0,0,0,148,148,148,148
352,1882342421,0,0,0,0,0,0,0,0,0,1,2,-1,1000,0,0,0,0,1302,0,677,0,0,0,88,86,86,85,148,148,148,148,1,0,0,1,1,0,0,4.396484385773716,0,0,0,0,0,0,0,0,0,0,148,148,148,148
368,1882344419,0,0,0,0,0,0,0,0,0,1,2,-1,1000,0,0,0,0,1304,0,677,0,0,-1,88,87,86,85,148,148,148,148,1,0,0,1,1,0,0,4.396519257452171,0,0,0,0,0,0,0,0,0,1,148,148,148,148
384,1882346417,0,0,0,0,0,0,0,0,0,1,2,-1,1000,0,0,0,0,1304,0,677,0,0,0,88,87,87,85,148,148,148,148,1,0,0,1,1,0,0,4.396519257452171,0,0,0,0,0,0,0,0,0,0,148,148,148,148
400,1882348412,0,0,0,0,0,0,0,0,0,1,2,-1,1000,0,0,0,0,1304,0,677,0,0,0,88,87,87,85,148,148,148,148,1,0,0,1,1,0,0,4.396519257452171,0,0,0,0,0,0,0,0,0,0,148,148,148,148
416,1882350410,0,0,0,0,0,0,0,0,0,1,2,-1,1000,0,0,0,0,1304,0,677,0,0,0,88,88,87,85,148,148,148,148,1,0,0,1,1,0,0,4.396519257452171,0,0,0,0,0,0,0,0,0,0,148,148,148,148
432,1882352407,0,0,0,0,0,0,0,0,0,1,2,-1,1000,0,0,0,0,1304,0,677,0,0,0,89,88,88,87,148,148,148,148,1,0,0,1,1,0,0,4.396519257452171,0,0,0,0,0,0,0,0,0,0,148,148,148,148
448,1882354405,0,0,0,0,0,0,0,0,0,1,2,-1,1000,0,0,0,0,1304,0,677,0,0,0,89,88,88,87,148,148,148,148,1,0,0,1,1,0,0,4.396519257452171,0,0,0,0,0,0,0,0,0,0,148,148,148,148
464,1882356404,0,0,0,0,0,0,0,0,0,1,2,-1,1000,0,0,0,0,1304,0,677,0,0,0,89,88,88,87,148,148,148,148,1,0,0,1,1,0,0,4.396519257452171,0,0,0,0,0,0,0,0,0,0,148,148,148,148
480,1882358400,0,0,0,0,0,0,0,0,0,1,2,-1,1000,0,0,0,0,1304,0,677,0,0,0,90,88,88,87,148,148,148,148,1,0,0,1,1,0,0,4.396519257452171,0,0,0,0,0,0,0,0,0,0,148,148,148,148
496,1882360397,0,0,0,0,0,0,0,0,0,1,2,-1,1000,0,0,0,0,1304,0,677,0,0,0,90,88,89,87,148,148,148,148,1,0,0,1,1,0,0,4.396519257452171,0,0,0,0,0,0,0,0,0,0,148,148,148,148
512,1882362400,0,0,0,0,0,0,0,0,0,1,2,-1,1000,0,0,0,0,1304,0,677,0,0,0,90,88,89,87,148,148,148,148,1,0,0,1,1,0,0,4.396519257452171,0,0,0,0,0,0,0,0,0,0,148,148,148,148
528,1882364394,0,0,0,0,0,0,0,0,0,1,2,-1,1000,0,0,0,0,1304,0,676,0,0,0,91,89,89,87,148,148,148,148,1,0,0,1,1,0,0,4.396519257452171,0,0,0,0,0,0,0,0,0,0,148,148,148,148
544,1882366392,0,0,0,0,0,0,0,0,0,1,2,-1,1000,0,0,0,0,1304,0,676,0,0,0,91,89,89,89,148,148,148,148,1,0,0,1,1,0,0,4.396519257452171,0,0,0,0,0,0,0,0,0,0,148,148,148,148
560,1882368389,0,0,0,0,0,0,0,0,0,1,2,-1,1000,0,0,0,0,1304,50,676,0,0,0,91,89,89,89,148,148,148,148,1,0,0,1,1,0,0,4.396519257452171,0,0,0,0,0,0,0,0,0,0,148,148,148,148
576,1882370387,0,0,0,0,0,0,0,0,0,1,2,-1,1000,0,0,0,0,1304,50,676,0,0,0,91,90,89,89,148,148,148,148,1,0,0,1,1,0,0,4.396519257452171,0,0,0,0,0,0,0,0,0,0,148,148,148,148
592,1882372387,0,0,0,0,0,0,0,0,0,1,2,-1,1000,0,0,0,0,1304,50,676,0,0,0,91,90,90,89,148,148,148,148,1,0,0,1,1,0,0,4.396519257452171,0,0,0,0,0,0,0,0,0,0,148,148,148,148
608,1882374384,0,0,0,0,0,0,0,0,0,1,2,-1,1000,0,0,0,0,1304,50,676,0,0,0,91,90,90,89,148,148,148,148,1,0,0,1,1,0,0,4.396519257452171,0,0,0,0,0,0,0,0,0,0,148,148,148,148
624,1882376381,0,0,0,0,0,0,0,0,0,1,2,-1,1000,0,0,0,0,1304,50,676,0,0,0,91,90,90,89,148,148,148,148,1,0,0,1,1,0,0,4.396519257452171,0,0,0,0,0,0,0,0,0,0,148,148,148,148
640,1882378379,0,0,0,0,0,0,0,0,0,1,2,-1,1000,0,0,0,0,1304,50,676,0,0,0,92,90,90,89,148,148,148,148,1,0,0,1,1,0,0,4.396519257452171,0,0,0,0,0,0,0,0,0,0,148,148,148,148
656,1882380378,0,0,0,0,0,0,0,0,0,1,2,-1,1000,0,0,0,0,1304,50,676,0,0,0,92,90,90,89,148,148,148,148,1,0,0,1,1,0,0,4.396519257452171,0,0,0,0,0,0,0,0,0,0,148,148,148,148
672,1882382374,0,0,0,0,0,0,0,0,0,1,2,-1,1000,0,0,0,0,1304,50,676,0,0,0,92,90,90,89,148,148,148,148,1,0,0,1,1,0,0,4.396519257452171,0,0,0,0,0,0,0,0,0,0,148,148,148,148
688,1882384374,0,0,0,0,0,0,0,0,0,1,2,-1,1000,0,0,0,0,1303,50,676,0,0,0,92,91,90,89,148,148,148,148,1,0,0,1,1,0,0,4.396519257452171,0,0,0,0,0,0,0,0,0,0,148,148,148,148
704,1882386367,0,0,0,0,0,0,0,0,0,1,2,-1,1000,0,0,0,0,1303,50,676,0,0,0,92,91,91,90,148,148,148,148,1,0,0,1,1,0,0,4.396519257452171,0,0,0,0,0,0,0,0,0,0,148,148,148,148
720,1882388365,0,0,0,0,0,0,0,0,0,1,2,-1,1000,0,0,0,0,1303,0,677,0,0,0,92,91,91,90,148,148,148,148,1,0,0,1,1,0,0,4.396519257452171,0,0,0,0,0,0,0,0,0,0,148,148,148,148
736,1882390363,0,0,0,0,0,0,0,0,0,1,2,-1,1000,0,0,0,0,1303,0,677,0,0,0,94,92,91,90,148,148,148,148,1,0,0,1,1,0,0,4.396519257452171,0,0,0,0,0,0,0,0,0,0,148,148,148,148
752,1882392360,0,0,0,0,0,0,0,0,0,1,2,-1,1000,0,0,0,0,1303,0,677,0,0,-1,94,92,91,91,148,148,148,148,1,0,0,1,1,0,0,4.396554111677333,0,0,0,0,0,0,0,0,0,1,148,148,148,148
768,1882394359,0,0,0,0,0,0,0,0,0,1,2,-1,1000,0,0,0,0,1303,0,677,0,0,0,94,92,91,91,148,148,148,148,1,0,0,1,1,0,0,4.396554111677333,0,0,0,0,0,0,0,0,0,0,148,148,148,148
784,1882396357,0,0,0,0,0,0,0,0,0,1,2,-1,1000,0,0,0,0,1303,0,677,0,0,0,94,92,91,91,148,148,148,148,1,0,0,1,1,0,0,4.396554111677333,0,0,0,0,0,0,0,0,0,0,148,148,148,148
800,1882398352,0,0,0,0,0,0,0,0,0,1,2,-1,1000,0,0,0,0,1303,0,677,0,0,-1,93,92,91,91,148,148,148,148,1,0,0,1,1,0,0,4.396588930995911,0,0,0,0,0,0,0,0,0,1,148,148,148,148
816,1882400352,0,0,0,0,0,0,0,0,0,1,2,-1,1000,0,0,0,0,1303,0,676,0,0,0,93,92,92,91,148,148,148,148,1,0,0,1,1,0,0,4.396588930995911,0,0,0,0,0,0,0,0,0,0,148,148,148,148
832,1882402350,0,0,0,0,0,0,0,0,0,1,2,-1,1000,0,0,0,0,1303,0,676,0,0,0,93,92,92,91,148,148,148,148,1,0,0,1,1,0,0,4.396588930995911,0,0,0,0,0,0,0,0,0,0,148,148,148,148
848,1882404345,0,0,0,0,0,0,0,0,0,1,2,-1,1000,0,0,0,0,1303,0,676,0,0,0,94,92,92,91,148,148,148,148,1,0,0,1,1,0,0,4.396588930995911,0,0,0,0,0,0,0,0,0,0,148,148,148,148
864,1882406346,0,0,0,0,0,0,0,0,0,1,2,-1,1000,0,0,0,0,1302,0,676,0,0,0,94,92,92,92,148,148,148,148,1,0,0,1,1,0,0,4.396588930995911,0,0,0,0,0,0,0,0,0,0,148,148,148,148
880,1882408341,0,0,0,0,0,0,0,0,0,1,2,-1,1000,0,0,0,0,1302,0,676,1,0,0,94,92,92,92,148,148,148,148,1,0,0,1,1,0,0,4.396588930995847,0,0,0,0,0,0,0,-1,0,0,148,148,148,148
896,1882410338,0,0,0,0,0,0,0,0,0,1,2,-1,1000,0,0,0,0,1302,0,676,0,0,0,95,93,92,92,148,148,148,148,1,0,0,1,1,0,0,4.396588930995847,0,0,0,0,0,0,0,0,0,0,148,148,148,148
912,1882412337,0,0,0,0,0,0,0,0,0,1,2,-1,1000,0,0,0,0,1302,0,676,0,0,0,95,93,92,93,148,148,148,148,1,0,0,1,1,0,0,4.396588930995847,0,0,0,0,0,0,0,0,0,0,148,148,148,148
928,1882414334,0,0,0,0,0,0,0,0,0,1,2,-1,1000,0,0,0,0,1302,0,676,0,0,0,95,93,92,93,148,148,148,148,1,0,0,1,1,0,0,4.396588930995847,0,0,0,0,0,0,0,0,0,0,148,148,148,148
944,1882416332,0,0,0,0,0,0,0,0,0,1,2,-1,1000,0,0,0,0,1302,0,676,0,0,0,94,93,92,93,148,148,148,148,1,0,0,1,1,0,0,4.396588930995847,0,0,0,0,0,0,0,0,0,0,148,148,148,148
960,1882418331,0,0,0,0,0,0,0,0,0,1,2,-1,1000,0,0,0,0,1302,0,676,0,0,0,94,93,93,93,148,148,148,148,1,0,0,1,1,0,0,4.396588930995847,0,0,0,0,0,0,0,0,0,0,148,148,148,148
976,1882420331,0,0,0,0,0,0,0,0,0,1,2,-1,1000,0,0,0,0,1302,0,676,0,0,0,94,93,93,93,148,148,148,148,1,0,0,1,1,0,0,4.396588930995847,0,0,0,0,0,0,0,0,0,0,148,148,148,148
992,1882422326,0,0,0,0,0,0,0,0,0,1,2,-1,1000,0,0,0,0,1302,0,676,0,0,0,96,94,93,93,148,148,148,148,1,0,0,1,1,0,0,4.396588930995847,0,0,0,0,0,0,0,0,0,0,148,148,148,148
1008,1882424326,0,0,0,0,0,0,0,0,0,1,2,-1,1000,0,0,0,0,1302,0,676,0,0,0,96,94,94,93,148,148,148,148,1,0,0,1,1,0,0,4.396588930995847,0,0,0,0,0,0,0,0,0,0,148,148,148,148
1024,1882426322,0,0,0,0,0,0,0,0,0,1,2,-1,1000,0,0,0,0,1303,0,677,0,0,0,96,94,94,93,148,148,148,148,1,0,0,1,1,0,0,4.396588930995847,0,0,0,0,0,0,0,0,0,0,148,148,148,148
1040,1882428323,0,0,0,0,0,0,0,0,0,1,2,-1,1000,0,0,0,0,1303,0,677,0,0,0,95,94,94,93,148,148,148,148,1,0,0,1,1,0,0,4.396588930995847,0,0,0,0,0,0,0,0,0,0,148,148,148,148
1056,1882430315,0,0,0,0,0,0,0,0,0,1,2,-1,1000,0,0,0,0,1303,52,677,0,0,0,95,94,94,93,148,148,148,148,1,0,0,1,1,0,0,4.396588930995847,0,0,0,0,0,0,0,0,0,0,148,148,148,148
1072,1882432313,0,0,0,0,0,0,0,0,0,1,2,-1,1000,0,0,0,0,1303,52,677,0,0,0,95,94,94,94,148,148,148,148,1,0,0,1,1,0,0,4.396588930995847,0,0,0,0,0,0,0,0,0,0,148,148,148,148
1088,1882434310,0,0,0,0,0,0,0,0,0,1,2,-1,1000,0,0,0,0,1303,52,677,0,0,1,96,94,94,94,148,148,148,148,1,0,0,1,1,0,0,4.396554076770685,0,0,0,0,0,0,0,0,0,-1,148,148,148,148
1104,1882436310,0,0,0,0,0,0,0,0,0,1,2,-1,1000,0,0,0,0,1303,52,677,0,0,0,96,94,94,94,148,148,148,148,1,0,0,1,1,0,0,4.396554076770685,0,0,0,0,0,0,0,0,0,0,148,148,148,148
1120,1882438305,0,0,0,0,0,0,0,0,0,1,2,-1,1000,0,0,0,0,1303,52,676,0,0,0,96,94,94,94,148,148,148,148,1,0,0,1,1,0,0,4.396554076770685,0,0,0,0,0,0,0,0,0,0,148,148,148,148
1136,1882440306,0,0,0,0,0,0,0,0,0,1,2,-1,1000,0,0,0,0,1303,52,676,0,0,0,96,94,94,94,148,148,148,148,1,0,0,1,1,0,0,4.396554076770685,0,0,0,0,0,0,0,0,0,0,148,148,148,148
1152,1882442302,0,0,0,0,0,0,0,0,0,1,2,-1,1000,0,0,0,0,1303,52,676,0,0,0,96,95,94,94,148,148,148,148,1,0,0,1,1,0,0,4.396554076770685,0,0,0,0,0,0,0,0,0,0,148,148,148,148
1168,1882444302,0,0,0,0,0,0,0,0,0,1,2,-1,1000,0,0,0,0,1303,52,676,0,0,0,96,95,95,95,148,148,148,148,1,0,0,1,1,0,0,4.396554076770685,0,0,0,0,0,0,0,0,0,0,148,148,148,148
1184,1882446298,0,0,0,0,0,0,0,0,0,1,2,-1,1000,0,0,0,0,1304,52,676,0,0,0,96,95,95,95,148,148,148,148,1,0,0,1,1,0,0,4.396554076770685,0,0,0,0,0,0,0,0,0,0,148,148,148,148
1200,1882448293,0,0,0,0,0,0,0,0,0,1,2,-1,1000,0,0,0,0,1304,52,676,0,0,0,97,94,95,95,148,148,148,148,1,0,0,1,1,0,0,4.396554076770685,0,0,0,0,0,0,0,0,0,0,148,148,148,148
1216,1882450295,0,0,0,0,0,0,0,0,0,1,2,-1,1000,0,0,0,0,1304,0,676,0,0,0,97,94,95,95,148,148,148,148,1,0,0,1,1,0,0,4.396554076770685,0,0,0,0,0,0,0,0,0,0,148,148,148,148
1232,1882452290,0,0,0,0,0,0,0,0,0,1,2,-1,1000,0,0,0,0,1304,0,676,0,0,0,97,94,95,95,148,148,148,148,1,0,0,1,1,0,0,4.396554076770685,0,0,0,0,0,0,0,0,0,0,148,148,148,148
1248,1882454288,0,0,0,0,0,0,0,0,0,1,2,-1,1000,0,0,0,0,1304,0,676,-1,0,0,97,95,95,95,148,148,148,148,1,0,0,1,1,0,0,4.396554076770769,0,0,0,0,0,0,0,1,0,0,148,148,148,148
1264,1882456284,0,0,0,0,0,0,0,0,0,1,2,-1,1000,0,0,0,0,1304,0,676,0,0,0,97,95,95,96,148,148,148,148,1,0,0,1,1,0,0,4.396554076770769,0,0,0,0,0,0,0,0,0,0,148,148,148,148
1280,1882458281,0,0,0,0,0,0,0,0,0,1,2,-1,1000,0,0,0,0,1304,0,676,0,0,0,97,95,95,96,148,148,148,148,1,0,0,1,1,0,0,4.396554076770769,0,0,0,0,0,0,0,0,0,0,148,148,148,148
1296,1882460278,0,0,0,0,0,0,0,0,0,1,2,-1,1000,0,0,0,0,1304,0,676,0,0,0,97,95,95,96,148,148,148,148,1,0,0,1,1,0,0,4.396554076770769,0,0,0,0,0,0,0,0,0,0,148,148,148,148
1312,1882462277,0,0,0,0,0,0,0,0,0,1,2,-1,1000,0,0,0,0,1304,0,676,0,0,0,97,95,95,96,148,148,148,148,1,0,0,1,1,0,0,4.396554076770769,0,0,0,0,0,0,0,0,0,0,148,148,148,148
1328,1882464275,0,0,0,0,0,0,0,0,0,1,2,-1,1000,0,0,0,0,1304,0,676,0,0,0,97,95,95,96,148,148,148,148,1,0,0,1,1,0,0,4.396554076770769,0,0,0,0,0,0,0,0,0,0,148,148,148,148
1344,1882466272,0,0,0,0,0,0,0,0,0,1,2,-1,1000,0,0,0,0,1302,0,676,0,0,0,97,96,95,96,148,148,148,148,1,0,0,1,1,0,0,4.396554076770769,0,0,0,0,0,0,0,0,0,0,148,148,148,148
1360,1882468270,0,0,0,0,0,0,0,0,0,1,2,-1,1000,0,0,0,0,1302,0,676,0,0,0,97,96,95,96,148,148,148,148,1,0,0,1,1,0,0,4.396554076770769,0,0,0,0,0,0,0,0,0,0,148,148,148,148
1376,1882470268,0,0,0,0,0,0,0,0,0,1,2,-1,1000,0,0,0,0,1302,2,676,0,0,0,97,96,96,96,148,148,148,148,1,0,0,1,1,0,0,4.396554076770769,0,0,0,0,0,0,0,0,0,0,148,148,148,148
1392,1882472268,0,0,0,0,0,0,0,0,0,1,2,-1,1000,0,0,0,0,1302,2,676,0,0,0,97,96,96,96,148,148,148,148,1,0,0,1,1,0,0,4.396554076770769,0,0,0,0,0,0,0,0,0,0,148,148,148,148
1408,1882474263,0,0,0,0,0,0,0,0,0,1,2,-1,1000,0,0,0,0,1302,2,675,0,0,0,97,96,96,96,148,148,148,148,1,0,0,1,1,0,0,4.396554076770769,0,0,0,0,0,0,0,0,0,0,148,148,148,148
1424,1882476260,0,0,0,0,0,0,0,0,0,1,2,-1,1000,0,0,0,0,1302,2,675,0,0,0,97,96,96,96,148,148,148,148,1,0,0,1,1,0,0,4.396554076770769,0,0,0,0,0,0,0,0,0,0,148,148,148,148
1440,1882478258,0,0,0,0,0,0,0,0,0,1,2,-1,1000,0,0,0,0,1302,2,675,-1,0,0,98,96,96,96,148,148,148,148,1,0,0,1,1,0,0,4.396554076770769,0,0,0,0,0,0,0,1,0,0,148,148,148,148
1456,1882480255,0,0,0,0,0,0,0,0,0,1,2,-1,1000,0,0,0,0,1302,2,675,0,0,0,98,96,96,96,148,148,148,148,1,0,0,1,1,0,0,4.396554076770769,0,0,0,0,0,0,0,0,0,0,148,148,148,148
1472,1882482253,0,0,0,0,0,0,0,0,0,1,2,-1,1000,0,0,0,0,1302,2,675,0,0,0,98,96,96,97,148,148,148,148,1,0,0,1,1,0,0,4.396554076770769,0,0,0,0,0,0,0,0,0,0,148,148,148,148
1488,1882484250,0,0,0,0,0,0,0,0,0,1,2,-1,1000,0,0,0,0,1302,2,675,0,0,0,98,96,96,97,148,148,148,148,1,0,0,1,1,0,0,4.396554076770769,0,0,0,0,0,0,0,0,0,0,148,148,148,148
1504,1882486248,0,0,0,0,0,0,0,0,0,1,2,-1,1000,0,0,0,0,1304,2,675,0,0,0,98,96,96,97,148,148,148,148,1,0,0,1,1,0,0,4.396554076770769,0,0,0,0,0,0,0,0,0,0,148,148,148,148
1520,1882488246,0,0,0,0,0,0,0,0,0,1,2,-1,1000,0,0,0,0,1304,2,675,0,0,0,98,96,96,97,148,148,148,148,1,0,0,1,1,0,0,4.396554076770769,0,0,0,0,0,0,0,0,0,0,148,148,148,148
1536,1882490243,0,0,0,0,0,0,0,0,0,1,2,-1,1000,0,0,0,0,1304,0,675,0,0,1,98,96,96,97,148,148,148,148,1,0,0,1,1,0,0,4.396519222545607,0,0,0,0,0,0,0,0,0,-1,148,148,148,148
1552,1882492240,0,0,0,0,0,0,0,0,0,1,2,-1,1000,0,0,0,0,1304,0,675,0,0,0,98,97,96,97,148,148,148,148,1,0,0,1,1,0,0,4.396519222545607,0,0,0,0,0,0,0,0,0,0,148,148,148,148
1568,1882494241,0,0,0,0,0,0,0,0,0,1,2,-1,1000,0,0,0,0,1304,0,675,0,0,0,98,97,97,97,148,148,148,148,1,0,0,1,1,0,0,4.396519222545607,0,0,0,0,0,0,0,0,0,0,148,148,148,148
1584,1882496236,0,0,0,0,0,0,0,0,0,1,2,-1,1000,0,0,0,0,1304,0,675,0,0,0,98,97,97,97,148,148,148,148,1,0,0,1,1,0,0,4.396519222545607,0,0,0,0,0,0,0,0,0,0,148,148,148,148
1600,1882498233,0,0,0,0,0,0,0,0,0,1,2,-1,1000,0,0,0,0,1304,0,675,0,0,0,98,96,97,97,148,148,148,148,1,0,0,1,1,0,0,4.396519222545607,0,0,0,0,0,0,0,0,0,0,148,148,148,148
1616,1882500231,0,0,0,0,0,0,0,0,0,1,2,-1,1000,0,0,0,0,1304,0,675,0,0,0,98,96,97,98,148,148,148,148,1,0,0,1,1,0,0,4.396519222545607,0,0,0,0,0,0,0,0,0,0,148,148,148,148
1632,1882502228,0,0,0,0,0,0,0,0,0,1,2,-1,1000,0,0,0,0,1304,0,675,0,0,0,98,96,97,98,148,148,148,148,1,0,0,1,1,0,0,4.396519222545607,0,0,0,0,0,0,0,0,0,0,148,148,148,148
1648,1882504226,0,0,0,0,0,0,0,0,0,1,2,-1,1000,0,0,0,0,1304,0,675,0,0,0,98,97,97,98,148,148,148,148,1,0,0,1,1,0,0,4.396519222545607,0,0,0,0,0,0,0,0,0,0,148,148,148,148
1664,1882506225,0,0,0,0,0,0,0,0,0,1,2,-1,1000,0,0,0,0,1302,0,675,-1,0,0,98,97,97,97,148,148,148,148,1,0,0,1,1,0,0,4.396519222545543,0,0,0,0,0,0,0,1,0,0,148,148,148,148
1680,1882508223,0,0,0,0,0,0,0,0,0,1,2,-1,1000,0,0,0,0,1302,0,675,0,0,0,99,97,97,97,148,148,148,148,1,0,0,1,1,0,0,4.396519222545543,0,0,0,0,0,0,0,0,0,0,148,148,148,148
1696,1882510221,0,0,0,0,0,0,0,0,0,1,2,-1,1000,0,0,0,0,1302,0,675,0,0,0,99,97,97,97,148,148,148,148,1,0,0,1,1,0,0,4.396519222545543,0,0,0,0,0,0,0,0,0,0,148,148,148,148
1712,1882512220,0,0,0,0,0,0,0,0,0,1,2,-1,1000,0,0,0,0,1302,0,675,0,0,0,99,97,97,97,148,148,148,148,1,0,0,1,1,0,0,4.396519222545543,0,0,0,0,0,0,0,0,0,0,148,148,148,148
1728,1882514217,0,0,0,0,0,0,0,0,0,1,2,-1,1000,0,0,0,0,1302,0,675,0,0,0,99,97,97,97,148,148,148,148,1,0,0,1,1,0,0,4.396519222545543,0,0,0,0,0,0,0,0,0,0,148,148,148,148
1744,1882516216,0,0,0,0,0,0,0,0,0,1,2,-1,1000,0,0,0,0,1302,0,675,0,0,0,99,97,97,97,148,148,148,148,1,0,0,1,1,0,0,4.396519222545543,0,0,0,0,0,0,0,0,0,0,148,148,148,148
1760,1882518210,0,0,0,0,0,0,0,0,0,1,2,-1,1000,0,0,0,0,1302,0,675,0,0,0,99,97,97,98,148,148,148,148,1,0,0,1,1,0,0,4.396519222545543,0,0,0,0,0,0,0,0,0,0,148,148,148,148
1776,1882520208,0,0,0,0,0,0,0,0,0,1,2,-1,1000,0,0,0,0,1302,0,675,0,0,0,99,97,97,98,148,148,148,148,1,0,0,1,1,0,0,4.396519222545543,0,0,0,0,0,0,0,0,0,0,148,148,148,148
1792,1882522205,0,0,0,0,0,0,0,0,0,1,2,-1,1000,0,0,0,0,1302,0,674,0,0,0,99,98,97,98,148,148,148,148,1,0,0,1,1,0,0,4.396519222545543,0,0,0,0,0,0,0,0,0,0,148,148,148,148
1808,1882524203,0,0,0,0,0,0,0,0,0,1,2,-1,1000,0,0,0,0,1302,0,674,0,0,0,99,98,97,98,148,148,148,148,1,0,0,1,1,0,0,4.396519222545543,0,0,0,0,0,0,0,0,0,0,148,148,148,148
1824,1882526200,0,0,0,0,0,0,0,0,0,1,2,-1,1000,0,0,0,0,1303,0,674,0,0,0,99,98,97,98,148,148,148,148,1,0,0,1,1,0,0,4.396519222545543,0,0,0,0,0,0,0,0,0,0,148,148,148,148
1840,1882528198,0,0,0,0,0,0,0,0,0,1,2,-1,1000,0,0,0,0,1303,0,674,0,0,-1,99,97,97,98,148,148,148,148,1,0,0,1,1,0,0,4.3965540942239985,0,0,0,0,0,0,0,0,0,1,148,148,148,148
1856,1882530196,0,0,0,0,0,0,0,0,0,1,2,-1,1000,0,0,0,0,1303,0,674,0,0,0,99,97,97,99,148,148,148,148,1,0,0,1,1,0,0,4.3965540942239985,0,0,0,0,0,0,0,0,0,0,148,148,148,148
1872,1882532193,0,0,0,0,0,0,0,0,0,1,2,-1,1000,0,0,0,0,1303,0,674,0,0,0,99,97,97,99,148,148,148,148,1,0,0,1,1,0,0,4.3965540942239985,0,0,0,0,0,0,0,0,0,0,148,148,148,148
1888,1882534191,0,0,0,0,0,0,0,0,0,1,2,-1,1000,0,0,0,0,1303,0,674,0,0,-1,99,98,97,99,148,148,148,148,1,0,0,1,1,0,0,4.396588965902453,0,0,0,0,0,0,0,0,0,1,148,148,148,148
1904,1882536188,0,0,0,0,0,0,0,0,0,1,2,-1,1000,0,0,0,0,1303,0,674,0,0,0,99,98,98,98,148,148,148,148,1,0,0,1,1,0,0,4.396588965902453,0,0,0,0,0,0,0,0,0,0,148,148,148,148
1920,1882538191,0,0,0,0,0,0,0,0,0,1,2,-1,1000,0,0,0,0,1303,0,674,0,0,0,99,98,98,98,148,148,148,148,1,0,0,1,1,0,0,4.396588965902453,0,0,0,0,0,0,0,0,0,0,148,148,148,148
1936,1882540184,0,0,0,0,0,0,0,0,0,1,2,-1,1000,0,0,0,0,1303,0,674,0,0,0,99,97,98,98,148,148,148,148,1,0,0,1,1,0,0,4.396588965902453,0,0,0,0,0,0,0,0,0,0,148,148,148,148
1952,1882542181,0,0,0,0,0,0,0,0,0,1,2,-1,1000,0,0,0,0,1303,0,674,0,0,0,99,97,98,98,148,148,148,148,1,0,0,1,1,0,0,4.396588965902453,0,0,0,0,0,0,0,0,0,0,148,148,148,148
1968,1882544178,0,0,0,0,0,0,0,0,0,1,2,-1,1000,0,0,0,0,1303,0,674,0,0,0,99,97,97,98,148,148,148,148,1,0,0,1,1,0,0,4.396588965902453,0,0,0,0,0,0,0,0,0,0,148,148,148,148
1984,1882546176,0,0,0,0,0,0,0,0,0,1,2,-1,1000,0,0,0,0,1303,0,674,0,0,0,99,98,97,98,148,148,148,148,1,0,0,1,1,0,0,4.396588965902453,0,0,0,0,0,0,0,0,0,0,148,148,148,148
2000,1882548173,0,0,0,0,0,0,0,0,0,1,2,-1,1000,0,0,0,0,1303,0,674,0,0,0,99,98,97,99,148,148,148,148,1,0,0,1,1,0,0,4.396588965902453,0,0,0,0,0,0,0,0,0,0,148,148,148,148
2016,1882550171,0,0,0,0,0,0,0,0,0,1,2,-1,1000,0,0,0,0,1303,0,674,0,0,0,99,98,98,99,148,148,148,148,1,0,0,1,1,0,0,4.396588965902453,0,0,0,0,0,0,0,0,0,0,148,148,148,148
2032,1882552168,0,0,0,0,0,0,0,0,0,1,2,-1,1000,0,0,0,0,1303,0,674,0,0,0,99,98,98,99,148,148,148,148,1,0,0,1,1,0,0,4.396588965902453,0,0,0,0,0,0,0,0,0,0,148,148,148,148
2048,1882554166,0,0,0,0,0,0,0,0,0,1,2,-1,1000,0,0,0,0,1303,0,674,0,0,1,99,98,98,99,148,148,148,148,1,0,0,1,1,0,0,4.3965540942239985,0,0,0,0,0,0,0,0,0,-1,148,148,148,148
2064,1882556164,0,0,0,0,0,0,0,0,0,1,2,-1,1000,0,0,0,0,1303,0,674,0,0,0,100,98,98,99,148,148,148,148,1,0,0,1,1,0,0,4.3965540942239985,0,0,0,0,0,0,0,0,0,0,148,148,148,148
2080,1882558162,0,0,0,0,0,0,0,0,0,1,2,-1,1000,0,0,0,0,1303,0,674,0,0,0,100,98,98,99,148,148,148,148,1,0,0,1,1,0,0,4.3965540942239985,0,0,0,0,0,0,0,0,0,0,148,148,148,148
2096,1882560161,0,0,0,0,0,0,0,0,0,1,2,-1,1000,0,0,0,0,1303,0,674,0,0,0,100,98,98,99,148,148,148,148,1,0,0,1,1,0,0,4.3965540942239985,0,0,0,0,0,0,0,0,0,0,148,148,148,148
2112,1882562158,0,0,0,0,0,0,0,0,0,1,2,-1,1000,0,0,0,0,1303,0,674,0,0,0,100,98,98,99,148,148,148,148,1,0,0,1,1,0,0,4.3965540942239985,0,0,0,0,0,0,0,0,0,0,148,148,148,148
2128,1882564155,0,0,0,0,0,0,0,0,0,1,2,-1,1000,0,0,0,0,1303,0,674,0,0,0,100,98,98,99,148,148,148,148,1,0,0,1,1,0,0,4.3965540942239985,0,0,0,0,0,0,0,0,0,0,148,148,148,148
2144,1882566153,0,0,0,0,0,0,0,0,0,1,2,-1,1000,0,0,0,0,1303,0,674,0,0,0,100,98,98,99,148,148,148,148,1,0,0,1,1,0,0,4.3965540942239985,0,0,0,0,0,0,0,0,0,0,148,148,148,148
2160,1882568150,0,0,0,0,0,0,0,0,0,1,2,-1,1000,0,0,0,0,1303,0,674,0,0,0,100,98,98,99,148,148,148,148,1,0,0,1,1,0,0,4.3965540942239985,0,0,0,0,0,0,0,0,0,0,148,148,148,148
2176,1882570148,0,0,0,0,0,0,0,0,0,1,2,-1,1000,0,0,0,0,1303,0,674,0,0,0,100,98,98,99,148,148,148,148,1,0,0,1,1,0,0,4.3965540942239985,0,0,0,0,0,0,0,0,0,0,148,148,148,148
2192,1882572145,0,0,0,0,0,0,0,0,0,1,2,-1,1000,0,0,0,0,1303,0,674,0,0,0,100,98,98,99,148,148,148,148,1,0,0,1,1,0,0,4.3965540942239985,0,0,0,0,0,0,0,0,0,0,148,148,148,148
2208,1882574146,0,0,0,0,0,0,0,0,0,1,2,-1,1000,0,0,0,0,1303,0,674,0,0,0,100,98,98,99,148,148,148,148,1,0,0,1,1,0,0,4.3965540942239985,0,0,0,0,0,0,0,0,0,0,148,148,148,148
2224,1882576141,0,0,0,0,0,0,0,0,0,1,2,-1,1000,0,0,0,0,1303,0,674,0,0,0,100,98,98,99,148,148,148,148,1,0,0,1,1,0,0,4.3965540942239985,0,0,0,0,0,0,0,0,0,0,148,148,148,148
2240,1882578141,0,0,0,0,0,0,0,0,0,1,2,-1,1000,0,0,0,0,1303,0,674,0,0,0,100,99,98,100,148,148,148,148,1,0,0,1,1,0,0,4.3965540942239985,0,0,0,0,0,0,0,0,0,0,148,148,148,148
2256,1882580136,0,0,0,0,0,0,0,0,0,1,2,-1,1000,0,0,0,0,1303,0,674,0,0,0,100,99,98,100,148,148,148,148,1,0,0,1,1,0,0,4.3965540942239985,0,0,0,0,0,0,0,0,0,0,148,148,148,148
2272,1882582140,0,0,0,0,0,0,0,0,0,1,2,-1,1000,0,0,0,0,1303,0,674,-1,0,1,100,99,98,100,148,148,148,148,1,0,0,1,1,0,0,4.39651911782566,0,0,0,0,0,0,0,1,0,-1,148,148,148,148
2288,1882584132,0,0,0,0,0,0,0,0,0,1,2,-1,1000,0,0,0,0,1303,0,675,0,0,0,100,98,98,100,148,148,148,148,1,0,0,1,1,0,0,4.39651911782566,0,0,0,0,0,0,0,0,0,0,148,148,148,148
2304,1882586133,0,0,0,0,0,0,0,0,0,1,2,-1,1000,0,0,0,0,1303,0,675,0,0,0,100,98,98,100,148,148,148,148,1,0,0,1,1,0,0,4.39651911782566,0,0,0,0,0,0,0,0,0,0,148,148,148,148
2320,1882588128,0,0,0,0,0,0,0,0,0,1,2,-1,1000,0,0,0,0,1302,0,675,0,0,0,100,98,98,100,148,148,148,148,1,0,0,1,1,0,0,4.39651911782566,0,0,0,0,0,0,0,0,0,0,148,148,148,148
2336,1882590125,0,0,0,0,0,0,0,0,0,1,2,-1,1000,0,0,0,0,1302,0,675,0,0,0,100,98,98,99,148,148,148,148,1,0,0,1,1,0,0,4.39651911782566,0,0,0,0,0,0,0,0,0,0,148,148,148,148
2352,1882592121,0,0,0,0,0,0,0,0,0,1,2,-1,1000,0,0,0,0,1302,0,675,0,0,0,100,98,99,99,148,148,148,148,1,0,0,1,1,0,0,4.39651911782566,0,0,0,0,0,0,0,0,0,0,148,148,148,148
2368,1882594119,0,0,0,0,0,0,0,0,0,1,2,-1,1000,0,0,0,0,1302,0,675,0,0,0,100,98,99,99,148,148,148,148,1,0,0,1,1,0,0,4.39651911782566,0,0,0,0,0,0,0,0,0,0,148,148,148,148
2384,1882596116,0,0,0,0,0,0,0,0,0,1,2,-1,1000,0,0,0,0,1302,0,675,0,0,0,100,98,99,100,148,148,148,148,1,0,0,1,1,0,0,4.39651911782566,0,0,0,0,0,0,0,0,0,0,148,148,148,148
2400,1882598116,0,0,0,0,0,0,0,0,0,1,2,-1,1000,0,0,0,0,1302,0,675,0,0,0,100,98,98,100,148,148,148,148,1,0,0,1,1,0,0,4.39651911782566,0,0,0,0,0,0,0,0,0,0,148,148,148,148
2416,1882600111,0,0,0,0,0,0,0,0,0,1,2,-1,1000,0,0,0,0,1302,0,675,0,0,0,100,98,98,100,148,148,148,148,1,0,0,1,1,0,0,4.39651911782566,0,0,0,0,0,0,0,0,0,0,148,148,148,148
2432,1882602109,0,0,0,0,0,0,0,0,0,1,2,-1,1000,0,0,0,0,1302,0,675,0,0,0,100,98,98,99,148,148,148,148,1,0,0,1,1,0,0,4.39651911782566,0,0,0,0,0,0,0,0,0,0,148,148,148,148
2448,1882604109,0,0,0,0,0,0,0,0,0,1,2,-1,1000,0,0,0,0,1302,0,675,0,0,0,100,98,98,99,148,148,148,148,1,0,0,1,1,0,0,4.39651911782566,0,0,0,0,0,0,0,0,0,0,148,148,148,148
2464,1882606104,0,0,0,0,0,0,0,0,0,1,2,-1,1000,0,0,0,0,1302,0,675,0,0,0,100,98,98,99,148,148,148,148,1,0,0,1,1,0,0,4.39651911782566,0,0,0,0,0,0,0,0,0,0,148,148,148,148
2480,1882608101,0,0,0,0,0,0,0,0,0,1,2,-1,1000,0,0,0,0,1304,0,675,0,0,0,100,99,98,100,148,148,148,148,1,0,0,1,1,0,0,4.39651911782566,0,0,0,0,0,0,0,0,0,0,148,148,148,148
2496,1882610099,0,0,0,0,0,0,0,0,0,1,2,-1,1000,0,0,0,0,1304,0,675,0,0,0,100,99,99,100,148,148,148,148,1,0,0,1,1,0,0,4.39651911782566,0,0,0,0,0,0,0,0,0,0,148,148,148,148
2512,1882612098,0,0,0,0,0,0,0,0,0,1,2,-1,1000,0,0,0,0,1304,0,675,0,0,0,100,99,99,100,148,148,148,148,1,0,0,1,1,0,0,4.39651911782566,0,0,0,0,0,0,0,0,0,0,148,148,148,148
2528,1882614095,0,0,0,0,0,0,0,0,0,1,2,-1,1000,0,0,0,0,1304,0,675,0,0,0,100,99,99,100,148,148,148,148,1,0,0,1,1,0,0,4.39651911782566,0,0,0,0,0,0,0,0,0,0,148,148,148,148
2544,1882616093,0,0,0,0,0,0,0,0,0,1,2,-1,1000,0,0,0,0,1304,0,675,0,0,0,100,99,98,100,148,148,148,148,1,0,0,1,1,0,0,4.39651911782566,0,0,0,0,0,0,0,0,0,0,148,148,148,148
2560,1882618091,0,0,0,0,0,0,0,0,0,1,2,-1,1000,0,0,0,0,1304,0,675,0,0,-1,100,99,98,100,148,148,148,148,1,0,0,1,1,0,0,4.396553989504115,0,0,0,0,0,0,0,0,0,1,148,148,148,148
2576,1882620088,0,0,0,0,0,0,0,0,0,1,2,-1,1000,0,0,0,0,1304,0,674,0,0,0,100,99,98,100,148,148,148,148,1,0,0,1,1,0,0,4.396553989504115,0,0,0,0,0,0,0,0,0,0,148,148,148,148
2592,1882622086,0,0,0,0,0,0,0,0,0,1,2,-1,1000,0,0,0,0,1304,0,674,0,0,0,101,99,99,100,148,148,148,148,1,0,0,1,1,0,0,4.396553989504115,0,0,0,0,0,0,0,0,0,0,148,148,148,148
2608,1882624083,0,0,0,0,0,0,0,0,0,1,2,-1,1000,0,0,0,0,1304,0,674,0,0,0,101,99,99,100,148,148,148,148,1,0,0,1,1,0,0,4.396553989504115,0,0,0,0,0,0,0,0,0,0,148,148,148,148
2624,1882626083,0,0,0,0,0,0,0,0,0,1,2,-1,1000,0,0,0,0,1304,0,674,0,0,0,101,99,99,100,148,148,148,148,1,0,0,1,1,0,0,4.396553989504115,0,0,0,0,0,0,0,0,0,0,148,148,148,148
2640,1882628078,0,0,0,0,0,0,0,0,0,1,2,-1,1000,0,0,0,0,1302,0,674,0,0,0,100,99,99,100,148,148,148,148,1,0,0,1,1,0,0,4.396553989504115,0,0,0,0,0,0,0,0,0,0,148,148,148,148
2656,1882630076,0,0,0,0,0,0,0,0,0,1,2,-1,1000,0,0,0,0,1302,0,674,0,0,0,100,99,99,100,148,148,148,148,1,0,0,1,1,0,0,4.396553989504115,0,0,0,0,0,0,0,0,0,0,148,148,148,148
2672,1882632074,0,0,0,0,0,0,0,0,0,1,2,-1,1000,0,0,0,0,1302,0,675,0,0,0,100,99,99,100,148,148,148,148,1,0,0,1,1,0,0,4.396553989504115,0,0,0,0,0,0,0,0,0,0,148,148,148,148
2688,1882634071,0,0,0,0,0,0,0,0,0,1,2,-1,1000,0,0,0,0,1302,0,675,0,0,0,100,99,99,100,148,148,148,148,1,0,0,1,1,0,0,4.396553989504115,0,0,0,0,0,0,0,0,0,0,148,148,148,148
2704,1882636069,0,0,0,0,0,0,0,0,0,1,2,-1,1000,0,0,0,0,1302,0,675,0,0,0,100,99,99,100,148,148,148,148,1,0,0,1,1,0,0,4.396553989504115,0,0,0,0,0,0,0,0,0,0,148,148,148,148
2720,1882638066,0,0,0,0,0,0,0,0,0,1,2,-1,1000,0,0,0,0,1302,0,675,0,0,1,100,99,99,100,148,148,148,148,1,0,0,1,1,0,0,4.396519135278953,0,0,0,0,0,0,0,0,0,-1,148,148,148,148
2736,1882640063,0,0,0,0,0,0,0,0,0,1,2,-1,1000,0,0,0,0,1302,0,675,0,0,0,101,99,99,100,148,148,148,148,1,0,0,1,1,0,0,4.396519135278953,0,0,0,0,0,0,0,0,0,0,148,148,148,148
2752,1882642061,0,0,0,0,0,0,0,0,0,1,2,-1,1000,0,0,0,0,1302,0,675,0,0,0,101,99,99,100,148,148,148,148,1,0,0,1,1,0,0,4.396519135278953,0,0,0,0,0,0,0,0,0,0,148,148,148,148
2768,1882644059,0,0,0,0,0,0,0,0,0,1,2,-1,1000,0,0,0,0,1302,0,675,0,0,0,101,99,99,100,148,148,148,148,1,0,0,1,1,0,0,4.396519135278953,0,0,0,0,0,0,0,0,0,0,148,148,148,148
2784,1882646056,0,0,0,0,0,0,0,0,0,1,2,-1,1000,0,0,0,0,1302,0,675,0,0,0,101,99,98,100,148,148,148,148,1,0,0,1,1,0,0,4.396519135278953,0,0,0,0,0,0,0,0,0,0,148,148,148,148
2800,1882648057,0,0,0,0,0,0,0,0,0,1,2,-1,1000,0,0,0,0,1303,0,675,0,0,0,101,99,98,100,148,148,148,148,1,0,0,1,1,0,0,4.396519135278953,0,0,0,0,0,0,0,0,0,0,148,148,148,148
2816,1882650051,0,0,0,0,0,0,0,0,0,1,2,-1,1000,0,0,0,0,1303,0,675,0,0,0,101,99,98,100,148,148,148,148,1,0,0,1,1,0,0,4.396519135278953,0,0,0,0,0,0,0,0,0,0,148,148,148,148
2832,1882652049,0,0,0,0,0,0,0,0,0,1,2,-1,1000,0,0,0,0,1303,0,675,0,0,0,101,99,99,100,148,148,148,148,1,0,0,1,1,0,0,4.396519135278953,0,0,0,0,0,0,0,0,0,0,148,148,148,148
2848,1882654047,0,0,0,0,0,0,0,0,0,1,2,-1,1000,0,0,0,0,1303,0,675,0,0,0,101,99,99,100,148,148,148,148,1,0,0,1,1,0,0,4.396519135278953,0,0,0,0,0,0,0,0,0,0,148,148,148,148
2864,1882656044,0,0,0,0,0,0,0,0,0,1,2,-1,1000,0,0,0,0,1303,0,675,0,0,0,101,99,99,101,148,148,148,148,1,0,0,1,1,0,0,4.396519135278953,0,0,0,0,0,0,0,0,0,0,148,148,148,148
2880,1882658042,0,0,0,0,0,0,0,0,0,1,2,-1,1000,0,0,0,0,1303,0,675,0,0,0,100,99,99,101,148,148,148,148,1,0,0,1,1,0,0,4.396519135278953,0,0,0,0,0,0,0,0,0,0,148,148,148,148
2896,1882660040,0,0,0,0,0,0,0,0,0,1,2,-1,1000,0,0,0,0,1303,0,675,0,0,0,100,99,99,101,148,148,148,148,1,0,0,1,1,0,0,4.396519135278953,0,0,0,0,0,0,0,0,0,0,148,148,148,148
2912,1882662038,0,0,0,0,0,0,0,0,0,1,2,-1,1000,0,0,0,0,1303,0,675,0,0,0,100,99,99,100,148,148,148,148,1,0,0,1,1,0,0,4.396519135278953,0,0,0,0,0,0,0,0,0,0,148,148,148,148
2928,1882664035,0,0,0,0,0,0,0,0,0,1,2,-1,1000,0,0,0,0,1303,0,675,0,0,0,101,99,98,100,148,148,148,148,1,0,0,1,1,0,0,4.396519135278953,0,0,0,0,0,0,0,0,0,0,148,148,148,148
2944,1882666034,0,0,0,0,0,0,0,0,0,1,2,-1,1000,0,0,0,0,1303,0,675,0,0,0,101,99,98,100,148,148,148,148,1,0,0,1,1,0,0,4.396519135278953,0,0,0,0,0,0,0,0,0,0,148,148,148,148
2960,1882668031,0,0,0,0,0,0,0,0,0,1,2,-1,1000,0,0,0,0,1305,0,676,0,0,0,101,99,98,100,148,148,148,148,1,0,0,1,1,0,0,4.396519135278953,0,0,0,0,0,0,0,0,0,0,148,148,148,148
2976,1882670031,0,0,0,0,0,0,0,0,0,1,2,-1,1000,0,0,0,0,1305,0,676,0,0,0,100,99,100,100,148,148,148,148,1,0,0,1,1,0,0,4.396519135278953,0,0,0,0,0,0,0,0,0,0,148,148,148,148
2992,1882672026,0,0,0,0,0,0,0,0,0,1,2,-1,1000,0,0,0,0,1305,75,676,0,0,0,100,99,100,100,148,148,148,148,1,0,0,1,1,0,0,4.396519135278953,0,0,0,0,0,0,0,0,0,0,148,148,148,148
3008,1882674023,0,0,0,0,0,0,0,0,0,1,2,-1,1000,0,0,0,0,1305,75,676,0,0,0,100,100,100,101,148,148,148,148,1,0,0,1,1,0,0,4.396519135278953,0,0,0,0,0,0,0,0,0,0,148,148,148,148
3024,1882676021,0,0,0,0,0,0,0,0,0,1,2,-1,1000,0,0,0,0,1305,75,676,0,0,0,100,100,99,101,148,148,148,148,1,0,0,1,1,0,0,4.396519135278953,0,0,0,0,0,0,0,0,0,0,148,148,148,148
3040,1882678019,0,0,0,0,0,0,0,0,0,1,2,-1,1000,0,0,0,0,1305,75,676,0,1,0,100,100,99,101,148,148,148,148,1,0,0,1,1,0,0,4.396519135278974,0,0,0,0,0,0,0,0,-1,0,148,148,148,148
3056,1882680083,0,0,0,0,0,0,0,0,0,1,2,-1,1000,0,0,0,0,1305,75,676,0,0,0,100,99,99,100,148,148,148,148,1,0,0,1,1,0,0,4.396519135278974,0,0,0,0,0,0,0,0,0,0,148,148,148,148
3072,1882682016,0,0,0,0,0,0,0,0,0,1,2,-1,1000,0,0,0,0,1305,75,676,0,0,0,101,99,99,100,148,148,148,148,1,0,0,1,1,0,0,4.396519135278974,0,0,0,0,0,0,0,0,0,0,148,148,148,148
3088,1882684014,0,0,0,0,0,0,0,0,0,1,2,-1,1000,0,0,0,0,1305,75,676,0,0,0,101,99,99,100,148,148,148,148,1,0,0,1,1,0,0,4.396519135278974,0,0,0,0,0,0,0,0,0,0,148,148,148,148
3104,1882686009,0,0,0,0,0,0,0,0,0,1,2,-1,1000,0,0,0,0,1305,75,676,0,0,0,101,99,99,100,148,148,148,148,1,0,0,1,1,0,0,4.396519135278974,0,0,0,0,0,0,0,0,0,0,148,148,148,148
3120,1882688009,0,0,0,0,0,0,0,0,0,1,2,-1,1000,0,0,0,0,1303,75,676,0,0,-1,101,99,99,100,148,148,148,148,1,0,0,1,1,0,0,4.396554041864014,0,0,0,0,0,0,0,0,0,1,148,148,148,148
3136,1882690006,0,0,0,0,0,0,0,0,0,1,2,-1,1000,0,0,0,0,1303,75,676,0,0,0,101,99,99,100,148,148,148,148,1,0,0,1,1,0,0,4.396554041864014,0,0,0,0,0,0,0,0,0,0,148,148,148,148
3152,1882692005,0,0,0,0,0,0,0,0,0,1,2,-1,1000,0,0,0,0,1303,90,676,0,0,0,101,99,99,101,148,148,148,148,1,0,0,1,1,0,0,4.396554041864014,0,0,0,0,0,0,0,0,0,0,148,148,148,148
3168,1882693999,0,0,0,0,0,0,0,0,0,1,2,-1,1000,0,0,0,0,1303,90,676,0,0,0,100,99,99,101,148,148,148,148,1,0,0,1,1,0,0,4.396554041864014,0,0,0,0,0,0,0,0,0,0,148,148,148,148
3184,1882695997,0,0,0,0,0,0,0,0,0,1,2,-1,1000,0,0,0,0,1303,90,676,0,0,0,100,99,99,101,148,148,148,148,1,0,0,1,1,0,0,4.396554041864014,0,0,0,0,0,0,0,0,0,0,148,148,148,148
3200,1882697994,0,0,0,0,0,0,0,0,0,1,2,-1,1000,0,0,0,0,1303,90,676,0,0,0,100,99,99,100,148,148,148,148,1,0,0,1,1,0,0,4.396554041864014,0,0,0,0,0,0,0,0,0,0,148,148,148,148
3216,1882699992,0,0,0,0,0,0,0,0,0,1,2,-1,1000,0,0,0,0,1303,90,676,0,0,0,101,99,99,100,148,148,148,148,1,0,0,1,1,0,0,4.396554041864014,0,0,0,0,0,0,0,0,0,0,148,148,148,148
3232,1882701989,0,0,0,0,0,0,0,0,0,1,2,-1,1000,0,0,0,0,1303,90,676,0,0,0,101,99,99,100,148,148,148,148,1,0,0,1,1,0,0,4.396554041864014,0,0,0,0,0,0,0,0,0,0,148,148,148,148
3248,1882703987,0,0,0,0,0,0,0,0,0,1,2,-1,1000,0,0,0,0,1303,90,675,0,0,0,101,99,99,101,148,148,148,148,1,0,0,1,1,0,0,4.396554041864014,0,0,0,0,0,0,0,0,0,0,148,148,148,148
3264,1882705984,0,0,0,0,0,0,0,0,0,1,2,-1,1000,0,0,0,0,1303,90,675,0,0,0,101,99,99,101,148,148,148,148,1,0,0,1,1,0,0,4.396554041864014,0,0,0,0,0,0,0,0,0,0,148,148,148,148
3280,1882707982,0,0,0,0,0,0,0,0,0,1,2,-1,1000,0,0,0,0,1302,90,675,0,0,0,101,99,99,101,148,148,148,148,1,0,0,1,1,0,0,4.396554041864014,0,0,0,0,0,0,0,0,0,0,148,148,148,148
3296,1882709980,0,0,0,0,0,0,0,0,0,1,2,-1,1000,0,0,0,0,1302,90,675,0,0,0,101,99,99,101,148,148,148,148,1,0,0,1,1,0,0,4.396554041864014,0,0,0,0,0,0,0,0,0,0,148,148,148,148
3312,1882711979,0,0,0,0,0,0,0,0,0,1,2,-1,1000,0,0,0,0,1302,0,675,0,0,0,100,99,99,101,148,148,148,148,1,0,0,1,1,0,0,4.396554041864014,0,0,0,0,0,0,0,0,0,0,148,148,148,148
3328,1882713979,0,0,0,0,0,0,0,0,0,1,2,-1,1000,0,0,0,0,1302,0,675,0,0,0,100,99,99,101,148,148,148,148,1,0,0,1,1,0,0,4.396554041864014,0,0,0,0,0,0,0,0,0,0,148,148,148,148
3344,1882715974,0,0,0,0,0,0,0,0,0,1,2,-1,1000,0,0,0,0,1302,0,676,0,0,0,100,99,99,101,148,148,148,148,1,0,0,1,1,0,0,4.396554041864014,0,0,0,0,0,0,0,0,0,0,148,148,148,148
3360,1882717971,0,0,0,0,0,0,0,0,0,1,2,-1,1000,0,0,0,0,1302,0,676,0,0,0,102,99,99,101,148,148,148,148,1,0,0,1,1,0,0,4.396554041864014,0,0,0,0,0,0,0,0,0,0,148,148,148,148
3376,1882719969,0,0,0,0,0,0,0,0,0,1,2,-1,1000,0,0,0,0,1302,0,676,0,0,0,102,99,99,101,148,148,148,148,1,0,0,1,1,0,0,4.396554041864014,0,0,0,0,0,0,0,0,0,0,148,148,148,148
3392,1882721967,0,0,0,0,0,0,0,0,0,1,2,-1,1000,0,0,0,0,1302,0,676,0,0,0,102,99,99,101,148,148,148,148,1,0,0,1,1,0,0,4.396554041864014,0,0,0,0,0,0,0,0,0,0,148,148,148,148
3408,1882723966,0,0,0,0,0,0,0,0,0,1,2,-1,1000,0,0,0,0,1302,0,676,0,0,0,100,99,99,101,148,148,148,148,1,0,0,1,1,0,0,4.396554041864014,0,0,0,0,0,0,0,0,0,0,148,148,148,148
3424,1882725962,0,0,0,0,0,0,0,0,0,1,2,-1,1000,0,0,0,0,1302,0,676,0,0,0,100,99,99,101,148,148,148,148,1,0,0,1,1,0,0,4.396554041864014,0,0,0,0,0,0,0,0,0,0,148,148,148,148
3440,1882727963,0,0,0,0,0,0,0,0,0,1,2,-1,1000,0,0,0,0,1302,0,676,0,0,0,100,99,99,101,148,148,148,148,1,0,0,1,1,0,0,4.396554041864014,0,0,0,0,0,0,0,0,0,0,148,148,148,148
3456,1882729959,0,0,0,0,0,0,0,0,0,1,2,-1,1000,0,0,0,0,1302,0,676,0,0,0,101,99,99,101,148,148,148,148,1,0,0,1,1,0,0,4.396554041864014,0,0,0,0,0,0,0,0,0,0,148,148,148,148
3472,1882731956,0,0,0,0,0,0,0,0,0,1,2,-1,1000,0,0,0,0,1302,0,676,0,0,0,101,99,99,101,148,148,148,148,1,0,0,1,1,0,0,4.396554041864014,0,0,0,0,0,0,0,0,0,0,148,148,148,148
3488,1882733952,0,0,0,0,0,0,0,0,0,1,2,-1,1000,0,0,0,0,1302,0,676,0,0,0,101,99,99,101,148,148,148,148,1,0,0,1,1,0,0,4.396554041864014,0,0,0,0,0,0,0,0,0,0,148,148,148,148
3504,1882735956,0,0,0,0,0,0,0,0,0,1,2,-1,1000,0,0,0,0,1302,0,676,0,0,0,101,99,99,101,148,148,148,148,1,0,0,1,1,0,0,4.396554041864014,0,0,0,0,0,0,0,0,0,0,148,148,148,148
3520,1882737947,0,0,0,0,0,0,0,0,0,1,2,-1,1000,0,0,0,0,1302,0,676,0,0,0,101,99,99,101,148,148,148,148,1,0,0,1,1,0,0,4.396554041864014,0,0,0,0,0,0,0,0,0,0,148,148,148,148
3536,1882739947,0,0,0,0,0,0,0,0,0,1,2,-1,1000,0,0,0,0,1302,0,676,0,0,0,101,99,99,100,148,148,148,148,1,0,0,1,1,0,0,4.396554041864014,0,0,0,0,0,0,0,0,0,0,148,148,148,148
3552,1882741942,0,0,0,0,0,0,0,0,0,1,2,-1,1000,0,0,0,0,1302,0,676,0,0,0,101,99,98,100,148,148,148,148,1,0,0,1,1,0,0,4.396554041864014,0,0,0,0,0,0,0,0,0,0,148,148,148,148
3568,1882743941,0,0,0,0,0,0,0,0,0,1,2,-1,1000,0,0,0,0,1302,0,676,0,0,0,101,99,98,100,148,148,148,148,1,0,0,1,1,0,0,4.396554041864014,0,0,0,0,0,0,0,0,0,0,148,148,148,148
3584,1882745937,0,0,0,0,0,0,0,0,0,1,2,-1,1000,0,0,0,0,1302,0,676,0,0,0,101,100,98,101,148,148,148,148,1,0,0,1,1,0,0,4.396554041864014,0,0,0,0,0,0,0,0,0,0,148,148,148,148
3600,1882747937,0,0,0,0,0,0,0,0,0,1,2,-1,1000,0,0,0,0,1303,0,676,-1,0,0,101,100,100,101,148,148,148,148,1,0,0,1,1,0,0,4.39655404064655,0,0,0,0,0,0,0,1,0,0,148,148,148,148
3616,1882749932,0,0,0,0,0,0,0,0,0,1,2,-1,1000,0,0,0,0,1303,0,676,0,0,0,101,100,100,101,148,148,148,148,1,0,0,1,1,0,0,4.39655404064655,0,0,0,0,0,0,0,0,0,0,148,148,148,148
3632,1882751932,0,0,0,0,0,0,0,0,0,1,2,-1,1000,0,0,0,0,1303,55,676,0,0,0,101,99,100,100,148,148,148,148,1,0,0,1,1,0,0,4.39655404064655,0,0,0,0,0,0,0,0,0,0,148,148,148,148
3648,1882753928,0,0,0,0,0,0,0,0,0,1,2,-1,1000,0,0,0,0,1303,55,676,0,0,0,101,99,99,100,148,148,148,148,1,0,0,1,1,0,0,4.39655404064655,0,0,0,0,0,0,0,0,0,0,148,148,148,148
3664,1882755925,0,0,0,0,0,0,0,0,0,1,2,-1,1000,0,0,0,0,1303,55,676,0,0,0,101,99,99,100,148,148,148,148,1,0,0,1,1,0,0,4.39655404064655,0,0,0,0,0,0,0,0,0,0,148,148,148,148
3680,1882757926,0,0,0,0,0,0,0,0,0,1,2,-1,1000,0,0,0,0,1303,55,676,0,0,0,101,99,99,101,148,148,148,148,1,0,0,1,1,0,0,4.39655404064655,0,0,0,0,0,0,0,0,0,0,148,148,148,148
3696,1882759920,0,0,0,0,0,0,0,0,0,1,2,-1,1000,0,0,0,0,1303,55,676,0,0,0,101,99,99,101,148,148,148,148,1,0,0,1,1,0,0,4.39655404064655,0,0,0,0,0,0,0,0,0,0,148,148,148,148
3712,1882761919,0,0,0,0,0,0,0,0,0,1,2,-1,1000,0,0,0,0,1303,55,676,0,0,0,101,99,99,101,148,148,148,148,1,0,0,1,1,0,0,4.39655404064655,0,0,0,0,0,0,0,0,0,0,148,148,148,148
3728,1882763916,0,0,0,0,0,0,0,0,0,1,2,-1,1000,0,0,0,0,1303,55,676,0,0,0,101,100,99,100,148,148,148,148,1,0,0,1,1,0,0,4.39655404064655,0,0,0,0,0,0,0,0,0,0,148,148,148,148
3744,1882765914,0,0,0,0,0,0,0,0,0,1,3,-1,1000,0,0,0,0,1303,55,676,0,0,0,101,100,99,100,148,148,148,148,1,0,0,1,1,0,0,4.39655404064655,0,0,0,0,0,0,0,0,0,0,148,148,148,148
3760,1882767912,0,0,0,0,0,0,0,0,0,1,3,-1,1000,0,0,0,0,1303,55,676,0,0,0,101,100,99,100,148,148,148,148,1,0,0,1,1,0,0,4.39655404064655,0,0,0,0,0,0,0,0,0,0,148,148,148,148
3776,1882769909,0,0,0,0,0,0,0,0,0,1,2,-1,1000,0,0,0,0,1303,55,676,0,0,0,101,99,99,101,148,148,148,148,1,0,0,1,1,0,0,4.39655404064655,0,0,0,0,0,0,0,0,0,0,148,148,148,148
3792,1882771907,0,0,0,0,0,0,0,0,0,1,2,-1,1000,0,0,0,0,1303,20,676,0,0,0,101,99,99,101,148,148,148,148,1,0,0,1,1,0,0,4.39655404064655,0,0,0,0,0,0,0,0,0,0,148,148,148,148
3808,1882773907,0,0,0,0,0,0,0,0,0,1,2,-1,1000,0,0,0,0,1303,20,676,0,0,0,101,99,99,101,148,148,148,148,1,0,0,1,1,0,0,4.39655404064655,0,0,0,0,0,0,0,0,0,0,148,148,148,148
3824,1882775902,0,0,0,0,0,0,0,0,0,1,2,-1,1000,0,0,0,0,1303,20,676,0,0,0,101,99,99,101,148,148,148,148,1,0,0,1,1,0,0,4.39655404064655,0,0,0,0,0,0,0,0,0,0,148,148,148,148
3840,1882777899,0,0,0,0,0,0,0,0,0,1,3,-1,1000,0,0,0,0,1303,20,676,0,0,0,101,99,99,101,148,148,148,148,1,0,0,1,1,0,0,4.39655404064655,0,0,0,0,0,0,0,0,0,0,148,148,148,148
3856,1882779899,0,0,0,0,0,0,0,0,0,1,3,-1,1000,0,0,0,0,1303,20,676,0,0,0,101,99,99,101,148,148,148,148,1,0,0,1,1,0,0,4.39655404064655,0,0,0,0,0,0,0,0,0,0,148,148,148,148
3872,1882781894,0,0,0,0,0,0,0,0,0,1,2,-1,1000,0,0,0,0,1303,20,676,0,0,0,101,99,99,101,148,148,148,148,1,0,0,1,1,0,0,4.39655404064655,0,0,0,0,0,0,0,0,0,0,148,148,148,148
3888,1882783894,0,0,0,0,0,0,0,0,0,1,2,-1,1000,0,0,0,0,1303,20,676,0,0,0,100,99,99,101,148,148,148,148,1,0,0,1,1,0,0,4.39655404064655,0,0,0,0,0,0,0,0,0,0,148,148,148,148
3904,1882785889,0,0,0,0,0,0,0,0,0,1,2,-1,1000,0,0,0,0,1303,20,676,0,0,-1,100,99,99,101,148,148,148,148,1,0,0,1,1,0,0,4.396588859965127,0,0,0,0,0,0,0,0,0,1,148,148,148,148
3920,1882787887,0,0,0,0,0,0,0,0,0,1,2,-1,1000,0,0,0,0,1301,20,676,0,0,0,100,99,99,100,148,148,148,148,1,0,0,1,1,0,0,4.396588859965127,0,0,0,0,0,0,0,0,0,0,148,148,148,148
3936,1882789885,0,0,0,0,0,0,0,0,0,1,2,-1,1000,0,0,0,0,1301,20,676,0,0,0,101,99,99,100,148,148,148,148,1,0,0,1,1,0,0,4.396588859965127,0,0,0,0,0,0,0,0,0,0,148,148,148,148
3952,1882791882,0,0,0,0,0,0,0,0,0,1,2,-1,1000,0,0,0,0,1301,17,676,0,0,0,101,99,99,100,148,148,148,148,1,0,0,1,1,0,0,4.396588859965127,0,0,0,0,0,0,0,0,0,0,148,148,148,148
3968,1882793879,0,0,0,0,0,0,0,0,0,1,2,-1,1000,0,0,0,0,1301,17,676,0,0,0,101,99,99,101,148,148,148,148,1,0,0,1,1,0,0,4.396588859965127,0,0,0,0,0,0,0,0,0,0,148,148,148,148
3984,1882795879,0,0,0,0,0,0,0,0,0,1,2,-1,1000,0,0,0,0,1301,17,676,0,0,1,100,99,99,101,148,148,148,148,1,0,0,1,1,0,0,4.396553953380088,0,0,0,0,0,0,0,0,0,-1,148,148,148,148
4000,1882797877,0,0,0,0,0,0,0,0,0,1,2,-1,1000,0,0,0,0,1301,17,676,0,0,1,100,99,99,101,148,148,148,148,1,0,0,1,1,0,0,4.396519081701633,0,0,0,0,0,0,0,0,0,-1,148,148,148,148
4016,1882799872,0,0,0,0,0,0,0,0,0,1,2,-1,1000,0,0,0,0,1301,17,676,0,0,0,100,100,99,101,148,148,148,148,1,0,0,1,1,0,0,4.396519081701633,0,0,0,0,0,0,0,0,0,0,148,148,148,148
4032,1882801873,0,0,0,0,0,0,0,0,0,1,2,-1,1000,0,0,0,0,1301,17,676,0,0,0,101,100,99,101,148,148,148,148,1,0,0,1,1,0,0,4.396519081701633,0,0,0,0,0,0,0,0,0,0,148,148,148,148
4048,1882803869,0,0,0,0,0,0,0,0,0,1,2,-1,1000,0,0,0,0,1301,17,676,0,0,0,101,100,99,101,148,148,148,148,1,0,0,1,1,0,0,4.396519081701633,0,0,0,0,0,0,0,0,0,0,148,148,148,148
4064,1882805867,0,0,0,0,0,0,0,0,0,1,2,-1,1000,0,0,0,0,1301,17,676,0,0,0,101,99,99,101,148,148,148,148,1,0,0,1,1,0,0,4.396519081701633,0,0,0,0,0,0,0,0,0,0,148,148,148,148
4080,1882807863,0,0,0,0,0,0,0,0,0,1,2,-1,1000,0,0,0,0,1304,17,676,0,0,0,101,99,99,101,148,148,148,148,1,0,0,1,1,0,0,4.396519081701633,0,0,0,0,0,0,0,0,0,0,148,148,148,148
4096,1882809860,0,0,0,0,0,0,0,0,0,1,2,-1,1000,0,0,0,0,1304,17,676,0,0,0,101,99,99,101,148,148,148,148,1,0,0,1,1,0,0,4.396519081701633,0,0,0,0,0,0,0,0,0,0,148,148,148,148
4112,1882811859,0,0,0,0,0,0,0,0,0,1,2,-1,1000,0,0,0,0,1304,0,676,0,0,0,101,100,99,101,148,148,148,148,1,0,0,1,1,0,0,4.396519081701633,0,0,0,0,0,0,0,0,0,0,148,148,148,148
4128,1882813859,0,0,0,0,0,0,0,0,0,1,2,-1,1000,0,0,0,0,1304,0,676,-1,0,0,101,100,99,101,148,148,148,148,1,0,0,1,1,0,0,4.396519080484105,0,0,0,0,0,0,0,1,0,0,148,148,148,148
4144,1882815854,0,0,0,0,0,0,0,0,0,1,2,-1,1000,0,0,0,0,1304,0,676,0,0,0,101,100,99,101,148,148,148,148,1,0,0,1,1,0,0,4.396519080484105,0,0,0,0,0,0,0,0,0,0,148,148,148,148
4160,1882817854,0,0,0,0,0,0,0,0,0,1,2,-1,1000,0,0,0,0,1304,0,676,0,0,0,101,100,99,101,148,148,148,148,1,0,0,1,1,0,0,4.396519080484105,0,0,0,0,0,0,0,0,0,0,148,148,148,148
4176,1882819852,0,0,0,0,0,0,0,0,0,1,2,-1,1000,0,0,0,0,1304,0,676,0,0,0,100,100,99,101,148,148,148,148,1,0,0,1,1,0,0,4.396519080484105,0,0,0,0,0,0,0,0,0,0,148,148,148,148
4192,1882821847,0,0,0,0,0,0,0,0,0,1,2,-1,1000,0,0,0,0,1304,0,676,0,0,0,100,100,99,101,148,148,148,148,1,0,0,1,1,0,0,4.396519080484105,0,0,0,0,0,0,0,0,0,0,148,148,148,148
4208,1882823849,0,0,0,0,0,0,0,0,0,1,2,-1,1000,0,0,0,0,1304,0,676,0,0,0,100,99,99,101,148,148,148,148,1,0,0,1,1,0,0,4.396519080484105,0,0,0,0,0,0,0,0,0,0,148,148,148,148
4224,1882825844,0,0,0,0,0,0,0,0,0,1,2,-1,1000,0,0,0,0,1304,0,676,0,0,0,101,99,99,101,148,148,148,148,1,0,0,1,1,0,0,4.396519080484105,0,0,0,0,0,0,0,0,0,0,148,148,148,148
4240,1882827841,0,0,0,0,0,0,0,0,0,1,2,-1,1000,0,0,0,0,1303,0,676,0,0,0,101,99,99,101,148,148,148,148,1,0,0,1,1,0,0,4.396519080484105,0,0,0,0,0,0,0,0,0,0,148,148,148,148
4256,1882829839,0,0,0,0,0,0,0,0,0,1,2,-1,1000,0,0,0,0,1303,0,676,0,0,0,101,100,99,101,148,148,148,148,1,0,0,1,1,0,0,4.396519080484105,0,0,0,0,0,0,0,0,0,0,148,148,148,148
4272,1882831835,0,0,0,0,0,0,0,0,0,1,2,-1,1000,0,0,0,0,1303,0,676,0,0,0,100,100,99,101,148,148,148,148,1,0,0,1,1,0,0,4.396519080484105,0,0,0,0,0,0,0,0,0,0,148,148,148,148
4288,1882833834,0,0,0,0,0,0,0,0,0,1,2,-1,1000,0,0,0,0,1303,0,676,0,0,0,100,100,99,100,148,148,148,148,1,0,0,1,1,0,0,4.396519080484105,0,0,0,0,0,0,0,0,0,0,148,148,148,148
4304,1882835832,0,0,0,0,0,0,0,0,0,1,2,-1,1000,0,0,0,0,1303,0,676,0,0,0,100,100,99,100,148,148,148,148,1,0,0,1,1,0,0,4.396519080484105,0,0,0,0,0,0,0,0,0,0,148,148,148,148
4320,1882837829,0,0,0,0,0,0,0,0,0,1,2,-1,1000,0,0,0,0,1303,0,676,0,1,0,101,99,99,100,148,148,148,148,1,0,0,1,1,0,0,4.396519080484168,0,0,0,0,0,0,0,0,-1,0,148,148,148,148
4336,1882839827,0,0,0,0,0,0,0,0,0,1,2,-1,1000,0,0,0,0,1303,0,676,0,0,0,101,99,99,101,148,148,148,148,1,0,0,1,1,0,0,4.396519080484168,0,0,0,0,0,0,0,0,0,0,148,148,148,148
4352,1882841825,0,0,0,0,0,0,0,0,0,1,2,-1,1000,0,0,0,0,1303,0,676,0,0,0,101,99,99,101,148,148,148,148,1,0,0,1,1,0,0,4.396519080484168,0,0,0,0,0,0,0,0,0,0,148,148,148,148
4368,1882843820,0,0,0,0,0,0,0,0,0,1,2,-1,1000,0,0,0,0,1303,0,676,0,0,0,101,100,99,101,148,148,148,148,1,0,0,1,1,0,0,4.396519080484168,0,0,0,0,0,0,0,0,0,0,148,148,148,148
4384,1882845821,0,0,0,0,0,0,0,0,0,1,2,-1,1000,0,0,0,0,1303,0,676,0,0,0,101,100,100,101,148,148,148,148,1,0,0,1,1,0,0,4.396519080484168,0,0,0,0,0,0,0,0,0,0,148,148,148,148
4400,1882847815,0,0,0,0,0,0,0,0,0,1,2,-1,1000,0,0,0,0,1303,0,676,0,0,0,101,100,100,101,148,148,148,148,1,0,0,1,1,0,0,4.396519080484168,0,0,0,0,0,0,0,0,0,0,148,148,148,148
4416,1882849813,0,0,0,0,0,0,0,0,0,1,2,-1,1000,0,0,0,0,1303,0,676,0,0,0,101,100,100,101,148,148,148,148,1,0,0,1,1,0,0,4.396519080484168,0,0,0,0,0,0,0,0,0,0,148,148,148,148
4432,1882851810,0,0,0,0,0,0,0,0,0,1,2,-1,1000,0,0,0,0,1303,142,676,0,0,0,101,100,99,101,148,148,148,148,1,0,0,1,1,0,0,4.396519080484168,0,0,0,0,0,0,0,0,0,0,148,148,148,148
4448,1882853808,0,0,0,0,0,0,0,0,0,1,2,-1,1000,0,0,0,0,1303,142,676,0,0,0,101,100,99,101,148,148,148,148,1,0,0,1,1,0,0,4.396519080484168,0,0,0,0,0,0,0,0,0,0,148,148,148,148
4464,1882855806,0,0,0,0,0,0,0,0,0,1,2,-1,1000,0,0,0,0,1303,142,676,0,0,0,101,99,99,101,148,148,148,148,1,0,0,1,1,0,0,4.396519080484168,0,0,0,0,0,0,0,0,0,0,148,148,148,148
4480,1882857803,0,0,0,0,0,0,0,0,0,1,2,-1,1000,0,0,0,0,1303,142,676,0,0,0,101,99,100,100,148,148,148,148,1,0,0,1,1,0,0,4.396519080484168,0,0,0,0,0,0,0,0,0,0,148,148,148,148
4496,1882859800,0,0,0,0,0,0,0,0,0,1,2,-1,1000,0,0,0,0,1303,142,676,0,0,0,100,99,100,100,148,148,148,148,1,0,0,1,1,0,0,4.396519080484168,0,0,0,0,0,0,0,0,0,0,148,148,148,148
4512,1882861800,0,0,0,0,0,0,0,0,0,1,2,-1,1000,0,0,0,0,1303,142,676,0,0,0,100,99,100,100,148,148,148,148,1,0,0,1,1,0,0,4.396519080484168,0,0,0,0,0,0,0,0,0,0,148,148,148,148
4528,1882863797,0,0,0,0,0,0,0,0,0,1,2,-1,1000,0,0,0,0,1303,142,676,0,0,0,100,99,99,101,148,148,148,148,1,0,0,1,1,0,0,4.396519080484168,0,0,0,0,0,0,0,0,0,0,148,148,148,148
4544,1882865795,0,0,0,0,0,0,0,0,0,1,2,-1,1000,0,0,0,0,1303,142,676,0,0,0,102,99,99,101,148,148,148,148,1,0,0,1,1,0,0,4.396519080484168,0,0,0,0,0,0,0,0,0,0,148,148,148,148
4560,1882867795,0,0,0,0,0,0,0,0,0,1,2,-1,1000,0,0,0,0,1304,142,676,0,0,0,102,100,99,101,148,148,148,148,1,0,0,1,1,0,0,4.396519080484168,0,0,0,0,0,0,0,0,0,0,148,148,148,148
4576,1882869790,0,0,0,0,0,0,0,0,0,1,2,-1,1000,0,0,0,0,1304,142,676,0,0,0,102,100,99,101,148,148,148,148,1,0,0,1,1,0,0,4.396519080484168,0,0,0,0,0,0,0,0,0,0,148,148,148,148
4592,1882871787,0,0,0,0,0,0,0,0,0,1,2,-1,1000,0,0,0,0,1304,0,676,0,0,0,101,100,99,101,148,148,148,148,1,0,0,1,1,0,0,4.396519080484168,0,0,0,0,0,0,0,0,0,0,148,148,148,148
4608,1882873792,0,0,0,0,0,0,0,0,0,1,2,-1,1000,0,0,0,0,1304,0,676,0,0,0,101,100,99,101,148,148,148,148,1,0,0,1,1,0,0,4.396519080484168,0,0,0,0,0,0,0,0,0,0,148,148,148,148
4624,1882875782,0,0,0,0,0,0,0,0,0,1,2,-1,1000,0,0,0,0,1304,0,676,0,0,0,101,100,99,101,148,148,148,148,1,0,0,1,1,0,0,4.396519080484168,0,0,0,0,0,0,0,0,0,0,148,148,148,148
4640,1882877780,0,0,0,0,0,0,0,0,0,1,2,-1,1000,0,0,0,0,1304,0,676,0,0,0,101,100,99,101,148,148,148,148,1,0,0,1,1,0,0,4.396519080484168,0,0,0,0,0,0,0,0,0,0,148,148,148,148
4656,1882879779,0,0,0,0,0,0,0,0,0,1,2,-1,1000,0,0,0,0,1304,0,676,0,0,0,101,99,99,101,148,148,148,148,1,0,0,1,1,0,0,4.396519080484168,0,0,0,0,0,0,0,0,0,0,148,148,148,148
4672,1882881780,0,0,0,0,0,0,0,0,0,1,2,-1,1000,0,0,0,0,1304,0,676,0,0,0,101,99,99,101,148,148,148,148,1,0,0,1,1,0,0,4.396519080484168,0,0,0,0,0,0,0,0,0,0,148,148,148,148
4688,1882883773,0,0,0,0,0,0,0,0,0,1,2,-1,1000,0,0,0,0,1304,0,676,0,0,0,101,99,99,101,148,148,148,148,1,0,0,1,1,0,0,4.396519080484168,0,0,0,0,0,0,0,0,0,0,148,148,148,148
4704,1882885772,0,0,0,0,0,0,0,0,0,1,2,-1,1000,0,0,0,0,1304,0,676,0,0,-1,101,100,99,101,148,148,148,148,1,0,0,1,1,0,0,4.3965539696159155,0,0,0,0,0,0,0,0,0,1,148,148,148,148
4720,1882887768,0,0,0,0,0,0,0,0,0,1,2,-1,1000,0,0,0,0,1303,0,676,0,0,0,101,100,99,101,148,148,148,148,1,0,0,1,1,0,0,4.3965539696159155,0,0,0,0,0,0,0,0,0,0,148,148,148,148
4736,1882889772,0,0,0,0,0,0,0,0,0,1,2,-1,1000,0,0,0,0,1303,0,676,0,0,-1,101,100,99,101,148,148,148,148,1,0,0,1,1,0,0,4.396588946014126,0,0,0,0,0,0,0,0,0,1,148,148,148,148
4752,1882891764,0,0,0,0,0,0,0,0,0,1,2,-1,1000,0,0,0,0,1303,0,676,0,0,0,101,99,99,101,148,148,148,148,1,0,0,1,1,0,0,4.396588946014126,0,0,0,0,0,0,0,0,0,0,148,148,148,148
4768,1882893764,0,0,0,0,0,0,0,0,0,1,2,-1,1000,0,0,0,0,1303,0,676,0,0,0,101,99,99,101,148,148,148,148,1,0,0,1,1,0,0,4.396588946014126,0,0,0,0,0,0,0,0,0,0,148,148,148,148
4784,1882895760,0,0,0,0,0,0,0,0,0,1,2,-1,1000,0,0,0,0,1303,0,676,0,0,0,100,99,99,101,148,148,148,148,1,0,0,1,1,0,0,4.396588946014126,0,0,0,0,0,0,0,0,0,0,148,148,148,148
4800,1882897759,0,0,0,0,0,0,0,0,0,1,2,-1,1000,0,0,0,0,1303,0,676,0,0,0,100,99,99,101,148,148,148,148,1,0,0,1,1,0,0,4.396588946014126,0,0,0,0,0,0,0,0,0,0,148,148,148,148
4816,1882899755,0,0,0,0,0,0,0,0,0,1,3,-1,1000,0,0,0,0,1303,0,676,0,0,0,100,99,99,101,148,148,148,148,1,0,0,1,1,0,0,4.396588946014126,0,0,0,0,0,0,0,0,0,0,148,148,148,148
4832,1882901755,0,0,0,0,0,0,0,0,0,1,3,-1,1000,0,0,0,0,1303,0,676,0,0,0,101,99,99,101,148,148,148,148,1,0,0,1,1,0,0,4.396588946014126,0,0,0,0,0,0,0,0,0,0,148,148,148,148
4848,1882903748,0,0,0,0,0,0,0,0,0,1,2,-1,1000,0,0,0,0,1303,0,676,0,0,0,101,99,99,101,148,148,148,148,1,0,0,1,1,0,0,4.396588946014126,0,0,0,0,0,0,0,0,0,0,148,148,148,148
4864,1882905746,0,0,0,0,0,0,0,0,0,1,2,-1,1000,0,0,0,0,1303,0,676,0,0,0,101,99,99,101,148,148,148,148,1,0,0,1,1,0,0,4.396588946014126,0,0,0,0,0,0,0,0,0,0,148,148,148,148
4880,1882907743,0,0,0,0,0,0,0,0,0,1,2,-1,1000,0,0,0,0,1303,0,676,0,0,0,101,99,99,101,148,148,148,148,1,0,0,1,1,0,0,4.396588946014126,0,0,0,0,0,0,0,0,0,0,148,148,148,148
4896,1882909741,0,0,0,0,0,0,0,0,0,1,2,-1,1000,0,0,0,0,1303,0,676,0,0,0,101,99,99,101,148,148,148,148,1,0,0,1,1,0,0,4.396588946014126,0,0,0,0,0,0,0,0,0,0,148,148,148,148
4912,1882911742,0,0,0,0,0,0,0,0,0,1,2,-1,1000,0,0,0,0,1303,0,676,0,0,0,101,99,99,100,148,148,148,148,1,0,0,1,1,0,0,4.396588946014126,0,0,0,0,0,0,0,0,0,0,148,148,148,148
4928,1882913738,0,0,0,0,0,0,0,0,0,1,2,-1,1000,0,0,0,0,1303,0,676,0,0,0,100,99,99,100,148,148,148,148,1,0,0,1,1,0,0,4.396588946014126,0,0,0,0,0,0,0,0,0,0,148,148,148,148
4944,1882915737,0,0,0,0,0,0,0,0,0,1,2,-1,1000,0,0,0,0,1303,0,676,0,0,0,100,100,99,100,148,148,148,148,1,0,0,1,1,0,0,4.396588946014126,0,0,0,0,0,0,0,0,0,0,148,148,148,148
4960,1882917734,0,0,0,0,0,0,0,0,0,1,2,-1,1000,0,0,0,0,1303,0,676,0,0,0,100,100,99,101,148,148,148,148,1,0,0,1,1,0,0,4.396588946014126,0,0,0,0,0,0,0,0,0,0,148,148,148,148
4976,1882919732,0,0,0,0,0,0,0,0,0,1,2,-1,1000,0,0,0,0,1303,0,676,0,0,0,101,100,99,101,148,148,148,148,1,0,0,1,1,0,0,4.396588946014126,0,0,0,0,0,0,0,0,0,0,148,148,148,148
4992,1882921730,0,0,0,0,0,0,0,0,0,1,2,-1,1000,0,0,0,0,1303,0,676,0,0,0,101,100,99,101,148,148,148,148,1,0,0,1,1,0,0,4.396588946014126,0,0,0,0,0,0,0,0,0,0,148,148,148,148
5008,1882923727,0,0,0,0,0,0,0,0,0,1,2,-1,1000,0,0,0,0,1303,0,676,0,0,0,101,100,99,101,148,148,148,148,1,0,0,1,1,0,0,4.396588946014126,0,0,0,0,0,0,0,0,0,0,148,148,148,148
5024,1882925725,0,0,0,0,0,0,0,0,0,1,2,-1,1000,0,0,0,0,1303,0,676,0,0,0,101,100,99,101,148,148,148,148,1,0,0,1,1,0,0,4.396588946014126,0,0,0,0,0,0,0,0,0,0,148,148,148,148
5040,1882927720,0,0,0,0,0,0,0,0,0,1,2,-1,1000,0,0,0,0,1306,0,676,0,0,0,101,99,99,101,148,148,148,148,1,0,0,1,1,0,0,4.396588946014126,0,0,0,0,0,0,0,0,0,0,148,148,148,148
5056,1882929718,0,0,0,0,0,0,0,0,0,1,2,-1,1000,0,0,0,0,1306,0,676,0,0,0,101,99,99,101,148,148,148,148,1,0,0,1,1,0,0,4.396588946014126,0,0,0,0,0,0,0,0,0,0,148,148,148,148
5072,1882931716,0,0,0,0,0,0,0,0,0,1,2,-1,1000,0,0,0,0,1306,77,676,0,0,0,101,99,99,101,148,148,148,148,1,0,0,1,1,0,0,4.396588946014126,0,0,0,0,0,0,0,0,0,0,148,148,148,148
5088,1882933716,0,0,0,0,0,0,0,0,0,1,2,-1,1000,0,0,0,0,1306,77,676,0,0,0,101,99,99,101,148,148,148,148,1,0,0,1,1,0,0,4.396588946014126,0,0,0,0,0,0,0,0,0,0,148,148,148,148
5104,1882935711,0,0,0,0,0,0,0,0,0,1,2,-1,1000,0,0,0,0,1306,77,675,0,0,0,101,99,99,101,148,148,148,148,1,0,0,1,1,0,0,4.396588946014126,0,0,0,0,0,0,0,0,0,0,148,148,148,148
5120,1882937708,0,0,0,0,0,0,0,0,0,1,2,-1,1000,0,0,0,0,1306,77,675,0,0,0,100,99,99,101,148,148,148,148,1,0,0,1,1,0,0,4.396588946014126,0,0,0,0,0,0,0,0,0,0,148,148,148,148
5136,1882939706,0,0,0,0,0,0,0,0,0,1,2,-1,1000,0,0,0,0,1306,77,675,0,0,0,100,99,99,101,148,148,148,148,1,0,0,1,1,0,0,4.396588946014126,0,0,0,0,0,0,0,0,0,0,148,148,148,148
5152,1882941703,0,0,0,0,0,0,0,0,0,1,2,-1,1000,0,0,0,0,1306,77,675,0,0,0,100,99,99,101,148,148,148,148,1,0,0,1,1,0,0,4.396588946014126,0,0,0,0,0,0,0,0,0,0,148,148,148,148
5168,1882943701,0,0,0,0,0,0,0,0,0,1,2,-1,1000,0,0,0,0,1306,77,675,0,0,0,101,99,99,101,148,148,148,148,1,0,0,1,1,0,0,4.396588946014126,0,0,0,0,0,0,0,0,0,0,148,148,148,148
5184,1882945698,0,0,0,0,0,0,0,0,0,1,2,-1,1000,0,0,0,0,1306,77,675,0,0,0,101,99,99,101,148,148,148,148,1,0,0,1,1,0,0,4.396588946014126,0,0,0,0,0,0,0,0,0,0,148,148,148,148
5200,1882947696,0,0,0,0,0,0,0,0,0,1,2,-1,1000,0,0,0,0,1305,77,676,0,0,0,101,99,99,100,148,148,148,148,1,0,0,1,1,0,0,4.396588946014126,0,0,0,0,0,0,0,0,0,0,148,148,148,148
5216,1882949695,0,0,0,0,0,0,0,0,0,1,2,-1,1000,0,0,0,0,1305,77,676,0,0,0,101,99,99,100,148,148,148,148,1,0,0,1,1,0,0,4.396588946014126,0,0,0,0,0,0,0,0,0,0,148,148,148,148
5232,1882951693,0,0,0,0,0,0,0,0,0,1,2,-1,1000,0,0,0,0,1305,0,676,0,0,0,101,100,99,100,148,148,148,148,1,0,0,1,1,0,0,4.396588946014126,0,0,0,0,0,0,0,0,0,0,148,148,148,148
5248,1882953689,0,0,0,0,0,0,0,0,0,1,2,-1,1000,0,0,0,0,1305,0,676,0,0,0,101,100,99,101,148,148,148,148,1,0,0,1,1,0,0,4.396588946014126,0,0,0,0,0,0,0,0,0,0,148,148,148,148
5264,1882955689,0,0,0,0,0,0,0,0,0,1,2,-1,1000,0,0,0,0,1305,0,676,0,0,0,101,100,99,101,148,148,148,148,1,0,0,1,1,0,0,4.396588946014126,0,0,0,0,0,0,0,0,0,0,148,148,148,148
5280,1882957684,0,0,0,0,0,0,0,0,0,1,2,-1,1000,0,0,0,0,1305,0,676,0,0,0,101,99,99,101,148,148,148,148,1,0,0,1,1,0,0,4.396588946014126,0,0,0,0,0,0,0,0,0,0,148,148,148,148
5296,1882959681,0,0,0,0,0,0,0,0,0,1,2,-1,1000,0,0,0,0,1305,0,676,0,0,0,101,99,99,101,148,148,148,148,1,0,0,1,1,0,0,4.396588946014126,0,0,0,0,0,0,0,0,0,0,148,148,148,148
5312,1882961681,0,0,0,0,0,0,0,0,0,1,2,-1,1000,0,0,0,0,1305,0,676,0,0,0,101,99,99,101,148,148,148,148,1,0,0,1,1,0,0,4.396588946014126,0,0,0,0,0,0,0,0,0,0,148,148,148,148
5328,1882963678,0,0,0,0,0,0,0,0,0,1,3,-1,1000,0,0,0,0,1305,0,676,0,0,-1,101,99,99,101,148,148,148,148,1,0,0,1,1,0,0,4.396623800239288,0,0,0,0,0,0,0,0,0,1,148,148,148,148
5344,1882965676,0,0,0,0,0,0,0,0,0,1,3,-1,1000,0,0,0,0,1305,0,676,0,0,0,101,99,99,101,148,148,148,148,1,0,0,1,1,0,0,4.396623800239288,0,0,0,0,0,0,0,0,0,0,148,148,148,148
5360,1882967673,0,0,0,0,0,0,0,0,0,1,2,-1,1000,0,0,0,0,1305,0,676,0,0,-1,101,99,99,101,148,148,148,148,1,0,0,1,1,0,0,4.39665865446445,0,0,0,0,0,0,0,0,0,1,148,148,148,148
5376,1882969671,0,0,0,0,0,0,0,0,0,1,2,-1,1000,0,0,0,0,1302,0,676,0,0,0,101,100,99,101,148,148,148,148,1,0,0,1,1,0,0,4.39665865446445,0,0,0,0,0,0,0,0,0,0,148,148,148,148
5392,1882971669,0,0,0,0,0,0,0,0,0,1,2,-1,1000,0,0,0,0,1302,25,676,0,0,-1,101,100,100,101,148,148,148,148,1,0,0,1,1,0,0,4.396693526142905,0,0,0,0,0,0,0,0,0,1,148,148,148,148
