"Product","Blackbox flight data recorder by Nicholas Sherlock"
"firmwareType",3
"firmware","4.3"
"firmwarePatch",0
"firmwareVersion","4.3.0"
"Firmware revision","Betaflight 4.3.0 (norevision) STM32F7X2"
"Firmware date","Dec 24 2021 18:42:12"
"Board information","FOXE FOXEERF722V2"
"Log start datetime","2022-01-16T20:24:53.006+00:00"
"Craft name","LIMON_6"
"frameIntervalI",256
"frameIntervalPNum",1
"frameIntervalPDenom",16
"minthrottle",1070
"maxthrottle",2000
"gyroScale",1.7453292519943295e-8
"motorOutput","148,2047"
"acc_1G",0
"vbatscale",121
"vbatmincellvoltage",330
"vbatwarningcellvoltage",350
"vbatmaxcellvoltage",430
"vbatref",1303
"currentMeterOffset",0
"currentMeterScale",400
"looptime",125
"gyro_sync_denom",1
"pid_process_denom",1
"thrMid",50
"thrExpo",0
"dynThrPID",60
"tpa_breakpoint",1350
"rc_rates","7,7,7"
"rc_expo","0,0,0"
"rates","67,67,67"
"rate_limits","1998,1998,1998"
"rollPID","0,0,0,0"
"pitchPID","0,0,0,0"
"yawPID","0,0,0,0"
"levelPID","50,50,75"
"magPID","40,,"
"d_min","0,0,0"
"yaw_lpf_hz",100
"dterm_notch_hz",0
"dterm_notch_cutoff",0
"itermWindupPointPercent",85
"iterm_relax",0
"iterm_relax_type",1
"iterm_relax_cutoff",15
"anti_gravity_mode",0
"anti_gravity_threshold",250
"anti_gravity_gain",0
"abs_control_gain",0
"use_integrated_yaw",0
"ff_transition",0
"yawRateAccelLimit",0
"rateAccelLimit",0
"pidSumLimit",500
"pidSumLimitYaw",400
"deadband",0
"yaw_deadband",0
"gyro_lpf",0
"gyro_notch_hz","0,0"
"gyro_notch_cutoff","0,0"
"gyro_to_use",0
"dyn_notch_max_hz",360
"dyn_notch_count",2
"dyn_notch_q",600
"dyn_notch_min_hz",180
"dshot_bidir",1
"motor_poles",14
"acc_lpf_hz",1000
"acc_hardware",1
"baro_hardware",1
"mag_hardware",1
"gyro_cal_on_first_arm",0
"airmode_activate_throttle",25
"serialrx_provider",14
"unsynced_fast_pwm",0
"fast_pwm_protocol",7
"motor_pwm_rate",480
"digitalIdleOffset",500
"debug_mode",45
"features",268698632
"rc_smoothing",1
"rc_smoothing_auto_factor_setpoint",30
"rc_smoothing_auto_factor_throttle",30
"rc_smoothing_debug_axis",0
"rc_smoothing_active_cutoffs_ff_sp_thr","93,93,93"
"rc_smoothing_rx_average",4050
"rates_type",3
"fields_disabled_mask",0
"vbat_sag_compensation",0
"loopIteration","time","axisP[0]","axisP[1]","axisP[2]","axisI[0]","axisI[1]","axisI[2]","axisF[0]","axisF[1]","axisF[2]","rcCommand[0]","rcCommand[1]","rcCommand[2]","rcCommand[3]","setpoint[0]","setpoint[1]","setpoint[2]","setpoint[3]","vbatLatest","amperageLatest","rssi","gyroADC[0]","gyroADC[1]","gyroADC[2]","debug[0]","debug[1]","debug[2]","debug[3]","motor[0]","motor[1]","motor[2]","motor[3]","flightModeFlags","stateFlags","failsafePhase","rxSignalReceived","rxFlightChannelsValid","heading[0]","heading[1]","heading[2]","axisSum[0]","axisSum[1]","axisSum[2]","rcCommands[0]","rcCommands[1]","rcCommands[2]","rcCommands[3]","axisError[0]","axisError[1]","axisError[2]","motorLegacy[0]","motorLegacy[1]","motorLegacy[2]","motorLegacy[3]"
0,1651121687,0,0,0,0,0,0,0,0,0,1,2,-1,1000,0,0,0,0,1308,0,662,0,0,0,81,80,76,81,148,148,148,148,"","","","","",0,0,4.396484385773716,0,0,0,0,0,0,0,0,0,0,148,148,148,148
16,1651123685,0,0,0,0,0,0,0,0,0,1,2,-1,1000,0,0,0,0,1308,0,662,0,0,0,81,80,79,81,148,148,148,148,1,0,0,1,1,0,0,4.396484385773716,0,0,0,0,0,0,0,0,0,0,148,148,148,148
32,1651125683,0,0,0,0,0,0,0,0,0,1,2,-1,1000,0,0,0,0,1308,0,663,0,0,0,82,80,79,81,148,148,148,148,1,0,0,1,1,0,0,4.396484385773716,0,0,0,0,0,0,0,0,0,0,148,148,148,148
48,1651127682,0,0,0,0,0,0,0,0,0,1,2,-1,1000,0,0,0,0,1308,0,663,0,0,0,82,82,79,81,148,148,148,148,1,0,0,1,1,0,0,4.396484385773716,0,0,0,0,0,0,0,0,0,0,148,148,148,148
64,1651129682,0,0,0,0,0,0,0,0,0,1,2,-1,1000,0,0,0,0,1308,0,663,0,0,0,82,82,80,82,148,148,148,148,1,0,0,1,1,0,0,4.396484385773716,0,0,0,0,0,0,0,0,0,0,148,148,148,148
80,1651131679,0,0,0,0,0,0,0,0,0,1,1,-1,1000,0,0,0,0,1306,0,663,0,0,0,82,82,80,82,148,148,148,148,1,0,0,1,1,0,0,4.396484385773716,0,0,0,0,0,0,0,0,0,0,148,148,148,148
96,1651133674,0,0,0,0,0,0,0,0,0,1,1,-1,1000,0,0,0,0,1306,0,663,0,0,0,84,82,80,82,148,148,148,148,1,0,0,1,1,0,0,4.396484385773716,0,0,0,0,0,0,0,0,0,0,148,148,148,148
112,1651135671,0,0,0,0,0,0,0,0,0,1,2,-1,1000,0,0,0,0,1306,0,663,0,0,0,84,83,80,83,148,148,148,148,1,0,0,1,1,0,0,4.396484385773716,0,0,0,0,0,0,0,0,0,0,148,148,148,148
128,1651137669,0,0,0,0,0,0,0,0,0,1,2,-1,1000,0,0,0,0,1306,0,663,0,0,0,84,83,81,83,148,148,148,148,1,0,0,1,1,0,0,4.396484385773716,0,0,0,0,0,0,0,0,0,0,148,148,148,148
144,1651139669,0,0,0,0,0,0,0,0,0,1,2,-1,1000,0,0,0,0,1306,0,662,0,0,0,85,83,81,83,148,148,148,148,1,0,0,1,1,0,0,4.396484385773716,0,0,0,0,0,0,0,0,0,0,148,148,148,148
160,1651141667,0,0,0,0,0,0,0,0,0,1,2,-1,1000,0,0,0,0,1306,0,662,1,0,0,85,84,81,83,148,148,148,148,1,0,0,1,1,0,0,4.396484385773716,0,0,0,0,0,0,0,-1,0,0,148,148,148,148
176,1651143663,0,0,0,0,0,0,0,0,0,1,2,-1,1000,0,0,0,0,1306,0,662,0,0,0,85,84,81,85,148,148,148,148,1,0,0,1,1,0,0,4.396484385773716,0,0,0,0,0,0,0,0,0,0,148,148,148,148
192,1651145661,0,0,0,0,0,0,0,0,0,1,2,-1,1000,0,0,0,0,1306,0,662,0,0,-1,85,84,82,85,148,148,148,148,1,0,0,1,1,0,0,4.396519257452171,0,0,0,0,0,0,0,0,0,1,148,148,148,148
208,1651147657,0,0,0,0,0,0,0,0,0,1,2,-1,1000,0,0,0,0,1306,0,662,0,0,0,86,84,82,85,148,148,148,148,1,0,0,1,1,0,0,4.396519257452171,0,0,0,0,0,0,0,0,0,0,148,148,148,148
224,1651149656,0,0,0,0,0,0,0,0,0,1,2,-1,1000,0,0,0,0,1306,0,662,0,0,0,86,85,82,86,148,148,148,148,1,0,0,1,1,0,0,4.396519257452171,0,0,0,0,0,0,0,0,0,0,148,148,148,148
240,1651151652,0,0,0,0,0,0,0,0,0,1,2,-1,1000,0,0,0,0,1302,0,663,1,0,0,86,85,83,86,148,148,148,148,1,0,0,1,1,0,0,4.39651925745215,0,0,0,0,0,0,0,-1,0,0,148,148,148,148
256,1651153654,0,0,0,0,0,0,0,0,0,1,2,-1,1000,0,0,0,0,1302,0,663,0,0,0,87,85,83,86,148,148,148,148,1,0,0,1,1,0,0,4.39651925745215,0,0,0,0,0,0,0,0,0,0,148,148,148,148
272,1651155647,0,0,0,0,0,0,0,0,0,1,2,-1,1000,0,0,0,0,1302,32,663,0,0,0,87,86,83,86,148,148,148,148,1,0,0,1,1,0,0,4.39651925745215,0,0,0,0,0,0,0,0,0,0,148,148,148,148
288,1651157645,0,0,0,0,0,0,0,0,0,1,2,-1,1000,0,0,0,0,1302,32,663,0,0,0,87,86,83,86,148,148,148,148,1,0,0,1,1,0,0,4.39651925745215,0,0,0,0,0,0,0,0,0,0,148,148,148,148
304,1651159642,0,0,0,0,0,0,0,0,0,1,2,-1,1000,0,0,0,0,1302,32,663,0,0,0,88,86,84,86,148,148,148,148,1,0,0,1,1,0,0,4.39651925745215,0,0,0,0,0,0,0,0,0,0,148,148,148,148
320,1651161639,0,0,0,0,0,0,0,0,0,1,2,-1,1000,0,0,0,0,1302,32,663,0,0,0,88,86,84,86,148,148,148,148,1,0,0,1,1,0,0,4.39651925745215,0,0,0,0,0,0,0,0,0,0,148,148,148,148
336,1651163637,0,0,0,0,0,0,0,0,0,1,1,-1,1000,0,0,0,0,1302,32,665,0,0,0,88,87,84,87,148,148,148,148,1,0,0,1,1,0,0,4.39651925745215,0,0,0,0,0,0,0,0,0,0,148,148,148,148
352,1651165635,0,0,0,0,0,0,0,0,0,1,1,-1,1000,0,0,0,0,1302,32,665,0,0,0,88,87,85,87,148,148,148,148,1,0,0,1,1,0,0,4.39651925745215,0,0,0,0,0,0,0,0,0,0,148,148,148,148
368,1651167632,0,0,0,0,0,0,0,0,0,1,2,-1,1000,0,0,0,0,1302,32,665,0,0,0,88,87,85,87,148,148,148,148,1,0,0,1,1,0,0,4.39651925745215,0,0,0,0,0,0,0,0,0,0,148,148,148,148
384,1651169630,0,0,0,0,0,0,0,0,0,1,2,-1,1000,0,0,0,0,1302,32,665,0,0,0,88,87,85,88,148,148,148,148,1,0,0,1,1,0,0,4.39651925745215,0,0,0,0,0,0,0,0,0,0,148,148,148,148
400,1651171630,0,0,0,0,0,0,0,0,0,1,2,-1,1000,0,0,0,0,1304,32,665,0,0,0,88,87,85,88,148,148,148,148,1,0,0,1,1,0,0,4.39651925745215,0,0,0,0,0,0,0,0,0,0,148,148,148,148
416,1651173627,0,0,0,0,0,0,0,0,0,1,2,-1,1000,0,0,0,0,1304,32,665,0,0,0,89,87,86,88,148,148,148,148,1,0,0,1,1,0,0,4.39651925745215,0,0,0,0,0,0,0,0,0,0,148,148,148,148
432,1651175627,0,0,0,0,0,0,0,0,0,1,2,-1,1000,0,0,0,0,1304,0,664,0,0,0,89,87,86,88,148,148,148,148,1,0,0,1,1,0,0,4.39651925745215,0,0,0,0,0,0,0,0,0,0,148,148,148,148
448,1651177623,0,0,0,0,0,0,0,0,0,1,2,-1,1000,0,0,0,0,1304,0,664,0,0,0,89,88,86,89,148,148,148,148,1,0,0,1,1,0,0,4.39651925745215,0,0,0,0,0,0,0,0,0,0,148,148,148,148
464,1651179619,0,0,0,0,0,0,0,0,0,1,2,-1,1000,0,0,0,0,1304,0,664,0,0,0,90,88,86,89,148,148,148,148,1,0,0,1,1,0,0,4.39651925745215,0,0,0,0,0,0,0,0,0,0,148,148,148,148
480,1651181615,0,0,0,0,0,0,0,0,0,1,2,-1,1000,0,0,0,0,1304,0,664,0,0,0,90,88,86,89,148,148,148,148,1,0,0,1,1,0,0,4.39651925745215,0,0,0,0,0,0,0,0,0,0,148,148,148,148
496,1651183615,0,0,0,0,0,0,0,0,0,1,2,-1,1000,0,0,0,0,1304,0,664,0,0,0,90,89,86,89,148,148,148,148,1,0,0,1,1,0,0,4.39651925745215,0,0,0,0,0,0,0,0,0,0,148,148,148,148
512,1651185610,0,0,0,0,0,0,0,0,0,1,2,-1,1000,0,0,0,0,1304,0,664,0,0,0,90,89,86,89,148,148,148,148,1,0,0,1,1,0,0,4.39651925745215,0,0,0,0,0,0,0,0,0,0,148,148,148,148
528,1651187607,0,0,0,0,0,0,0,0,0,1,2,-1,1000,0,0,0,0,1304,0,664,0,0,0,91,89,88,89,148,148,148,148,1,0,0,1,1,0,0,4.39651925745215,0,0,0,0,0,0,0,0,0,0,148,148,148,148
544,1651189607,0,0,0,0,0,0,0,0,0,1,2,-1,1000,0,0,0,0,1304,0,664,0,0,0,91,89,88,90,148,148,148,148,1,0,0,1,1,0,0,4.39651925745215,0,0,0,0,0,0,0,0,0,0,148,148,148,148
560,1651191606,0,0,0,0,0,0,0,0,0,1,2,-1,1000,0,0,0,0,1302,0,664,1,0,0,91,89,88,90,148,148,148,148,1,0,0,1,1,0,0,4.396519257452086,0,0,0,0,0,0,0,-1,0,0,148,148,148,148
576,1651193602,0,0,0,0,0,0,0,0,0,1,2,-1,1000,0,0,0,0,1302,0,664,0,1,0,91,89,88,90,148,148,148,148,1,0,0,1,1,0,0,4.396519257452107,0,0,0,0,0,0,0,0,-1,0,148,148,148,148
592,1651195600,0,0,0,0,0,0,0,0,0,1,2,-1,1000,0,0,0,0,1302,0,664,0,0,0,91,89,88,90,148,148,148,148,1,0,0,1,1,0,0,4.396519257452107,0,0,0,0,0,0,0,0,0,0,148,148,148,148
608,1651197600,0,0,0,0,0,0,0,0,0,1,2,-1,1000,0,0,0,0,1302,0,664,0,0,0,91,90,88,91,148,148,148,148,1,0,0,1,1,0,0,4.396519257452107,0,0,0,0,0,0,0,0,0,0,148,148,148,148
624,1651199595,0,0,0,0,0,0,0,0,0,1,2,-1,1000,0,0,0,0,1302,0,663,0,0,0,92,90,88,91,148,148,148,148,1,0,0,1,1,0,0,4.396519257452107,0,0,0,0,0,0,0,0,0,0,148,148,148,148
640,1651201593,0,0,0,0,0,0,0,0,0,1,2,-1,1000,0,0,0,0,1302,0,663,0,0,0,92,90,88,91,148,148,148,148,1,0,0,1,1,0,0,4.396519257452107,0,0,0,0,0,0,0,0,0,0,148,148,148,148
656,1651203590,0,0,0,0,0,0,0,0,0,1,2,-1,1000,0,0,0,0,1302,0,663,0,0,0,92,90,88,91,148,148,148,148,1,0,0,1,1,0,0,4.396519257452107,0,0,0,0,0,0,0,0,0,0,148,148,148,148
672,1651205589,0,0,0,0,0,0,0,0,0,1,2,-1,1000,0,0,0,0,1302,0,663,1,0,0,92,90,88,91,148,148,148,148,1,0,0,1,1,0,0,4.396519258667426,0,0,0,0,0,0,0,-1,0,0,148,148,148,148
688,1651207587,0,0,0,0,0,0,0,0,0,1,2,-1,1000,0,0,0,0,1302,0,663,0,0,0,92,90,89,91,148,148,148,148,1,0,0,1,1,0,0,4.396519258667426,0,0,0,0,0,0,0,0,0,0,148,148,148,148
704,1651209640,0,0,0,0,0,0,0,0,0,1,2,-1,1000,0,0,0,0,1302,0,663,0,0,0,92,91,89,92,148,148,148,148,1,0,0,1,1,0,0,4.396519258667426,0,0,0,0,0,0,0,0,0,0,148,148,148,148
720,1651211582,0,0,0,0,0,0,0,0,0,2,2,-1,1000,0,0,0,0,1304,0,663,1,0,0,92,91,89,92,148,148,148,148,1,0,0,1,1,0,0,4.39651925984805,0,0,0,0,0,0,0,-1,0,0,148,148,148,148
736,1651213578,0,0,0,0,0,0,0,0,0,2,2,-1,1000,0,0,0,0,1304,0,663,0,0,0,93,91,90,92,148,148,148,148,1,0,0,1,1,0,0,4.39651925984805,0,0,0,0,0,0,0,0,0,0,148,148,148,148
752,1651215576,0,0,0,0,0,0,0,0,0,1,2,-1,1000,0,0,0,0,1304,0,663,0,0,0,93,91,90,92,148,148,148,148,1,0,0,1,1,0,0,4.39651925984805,0,0,0,0,0,0,0,0,0,0,148,148,148,148
768,1651217573,0,0,0,0,0,0,0,0,0,1,2,-1,1000,0,0,0,0,1304,0,663,0,0,0,93,91,90,92,148,148,148,148,1,0,0,1,1,0,0,4.39651925984805,0,0,0,0,0,0,0,0,0,0,148,148,148,148
784,1651219573,0,0,0,0,0,0,0,0,0,1,2,-1,1000,0,0,0,0,1304,0,663,0,0,0,93,91,91,92,148,148,148,148,1,0,0,1,1,0,0,4.39651925984805,0,0,0,0,0,0,0,0,0,0,148,148,148,148
800,1651221568,0,0,0,0,0,0,0,0,0,1,2,-1,1000,0,0,0,0,1304,0,663,1,0,0,93,91,91,92,148,148,148,148,1,0,0,1,1,0,0,4.3965192610608534,0,0,0,0,0,0,0,-1,0,0,148,148,148,148
816,1651223567,0,0,0,0,0,0,0,0,0,1,2,-1,1000,0,0,0,0,1304,0,662,0,0,0,93,92,91,93,148,148,148,148,1,0,0,1,1,0,0,4.3965192610608534,0,0,0,0,0,0,0,0,0,0,148,148,148,148
832,1651225565,0,0,0,0,0,0,0,0,0,1,2,-1,1000,0,0,0,0,1304,0,662,0,0,0,94,92,91,93,148,148,148,148,1,0,0,1,1,0,0,4.3965192610608534,0,0,0,0,0,0,0,0,0,0,148,148,148,148
848,1651227563,0,0,0,0,0,0,0,0,0,1,2,-1,1000,0,0,0,0,1304,0,662,0,0,0,94,92,91,93,148,148,148,148,1,0,0,1,1,0,0,4.3965192610608534,0,0,0,0,0,0,0,0,0,0,148,148,148,148
864,1651229558,0,0,0,0,0,0,0,0,0,1,2,-1,1000,0,0,0,0,1304,0,662,0,0,1,94,92,91,93,148,148,148,148,1,0,0,1,1,0,0,4.396484441742277,0,0,0,0,0,0,0,0,0,-1,148,148,148,148
880,1651231558,0,0,0,0,0,0,0,0,0,1,2,-1,1000,0,0,0,0,1304,0,662,1,0,1,94,92,91,93,148,148,148,148,1,0,0,1,1,0,0,4.3964495363730585,0,0,0,0,0,0,0,-1,0,-1,148,148,148,148
896,1651233555,0,0,0,0,0,0,0,0,0,1,2,-1,1000,0,0,0,0,1304,0,662,0,0,0,94,92,91,93,148,148,148,148,1,0,0,1,1,0,0,4.3964495363730585,0,0,0,0,0,0,0,0,0,0,148,148,148,148
912,1651235551,0,0,0,0,0,0,0,0,0,1,2,-1,1000,0,0,0,0,1304,67,662,0,0,0,94,93,91,94,148,148,148,148,1,0,0,1,1,0,0,4.3964495363730585,0,0,0,0,0,0,0,0,0,0,148,148,148,148
928,1651237549,0,0,0,0,0,0,0,0,0,1,2,-1,1000,0,0,0,0,1304,67,662,1,0,0,94,93,91,94,148,148,148,148,1,0,0,1,1,0,0,4.396449537587685,0,0,0,0,0,0,0,-1,0,0,148,148,148,148
944,1651239548,0,0,0,0,0,0,0,0,0,1,2,-1,1000,0,0,0,0,1304,67,662,0,0,1,94,93,92,94,148,148,148,148,1,0,0,1,1,0,0,4.396414648455938,0,0,0,0,0,0,0,0,0,-1,148,148,148,148
960,1651241548,0,0,0,0,0,0,0,0,0,1,2,-1,1000,0,0,0,0,1304,67,662,0,0,0,94,93,92,94,148,148,148,148,1,0,0,1,1,0,0,4.396414648455938,0,0,0,0,0,0,0,0,0,0,148,148,148,148
976,1651243543,0,0,0,0,0,0,0,0,0,1,2,-1,1000,0,0,0,0,1304,67,662,0,0,0,94,93,92,94,148,148,148,148,1,0,0,1,1,0,0,4.396414648455938,0,0,0,0,0,0,0,0,0,0,148,148,148,148
992,1651245540,0,0,0,0,0,0,0,0,0,1,2,-1,1000,0,0,0,0,1304,67,662,0,0,0,95,93,92,94,148,148,148,148,1,0,0,1,1,0,0,4.396414648455938,0,0,0,0,0,0,0,0,0,0,148,148,148,148
1008,1651247538,0,0,0,0,0,0,0,0,0,1,2,-1,1000,0,0,0,0,1304,67,663,1,0,0,95,93,93,94,148,148,148,148,1,0,0,1,1,0,0,4.3964146496706284,0,0,0,0,0,0,0,-1,0,0,148,148,148,148
1024,1651249536,0,0,0,0,0,0,0,0,0,1,2,-1,1000,0,0,0,0,1304,67,663,0,0,0,95,93,93,94,148,148,148,148,1,0,0,1,1,0,0,4.3964146496706284,0,0,0,0,0,0,0,0,0,0,148,148,148,148
1040,1651251533,0,0,0,0,0,0,0,0,0,1,2,-1,1000,0,0,0,0,1302,67,663,1,0,0,95,93,93,94,148,148,148,148,1,0,0,1,1,0,0,4.396414650884796,0,0,0,0,0,0,0,-1,0,0,148,148,148,148
1056,1651253530,0,0,0,0,0,0,0,0,0,1,2,-1,1000,0,0,0,0,1302,67,663,0,0,0,95,93,93,94,148,148,148,148,1,0,0,1,1,0,0,4.396414650884796,0,0,0,0,0,0,0,0,0,0,148,148,148,148
1072,1651255528,0,0,0,0,0,0,0,0,0,1,2,-1,1000,0,0,0,0,1302,0,663,0,0,0,95,94,93,95,148,148,148,148,1,0,0,1,1,0,0,4.396414650884796,0,0,0,0,0,0,0,0,0,0,148,148,148,148
1088,1651257525,0,0,0,0,0,0,0,0,0,1,2,-1,1000,0,0,0,0,1302,0,663,0,0,0,95,94,93,95,148,148,148,148,1,0,0,1,1,0,0,4.396414650884796,0,0,0,0,0,0,0,0,0,0,148,148,148,148
1104,1651259524,0,0,0,0,0,0,0,0,0,1,2,-1,1000,0,0,0,0,1302,0,663,0,0,0,95,94,92,95,148,148,148,148,1,0,0,1,1,0,0,4.396414650884796,0,0,0,0,0,0,0,0,0,0,148,148,148,148
1120,1651261521,0,0,0,0,0,0,0,0,0,1,2,-1,1000,0,0,0,0,1302,0,663,0,0,1,95,94,92,95,148,148,148,148,1,0,0,1,1,0,0,4.396379796659634,0,0,0,0,0,0,0,0,0,-1,148,148,148,148
1136,1651263521,0,0,0,0,0,0,0,0,0,1,2,-1,1000,0,0,0,0,1302,0,663,0,0,0,95,94,92,95,148,148,148,148,1,0,0,1,1,0,0,4.396379796659634,0,0,0,0,0,0,0,0,0,0,148,148,148,148
1152,1651265516,0,0,0,0,0,0,0,0,0,1,2,-1,1000,0,0,0,0,1302,0,663,0,0,0,95,94,94,95,148,148,148,148,1,0,0,1,1,0,0,4.396379796659634,0,0,0,0,0,0,0,0,0,0,148,148,148,148
1168,1651267516,0,0,0,0,0,0,0,0,0,1,2,-1,1000,0,0,0,0,1302,0,663,0,0,0,95,94,94,95,148,148,148,148,1,0,0,1,1,0,0,4.396379796659634,0,0,0,0,0,0,0,0,0,0,148,148,148,148
1184,1651269512,0,0,0,0,0,0,0,0,0,1,2,-1,1000,0,0,0,0,1302,0,663,0,0,0,97,94,94,95,148,148,148,148,1,0,0,1,1,0,0,4.396379796659634,0,0,0,0,0,0,0,0,0,0,148,148,148,148
1200,1651271509,0,0,0,0,0,0,0,0,0,1,2,-1,1000,0,0,0,0,1302,0,663,1,0,0,97,94,94,95,148,148,148,148,1,0,0,1,1,0,0,4.396379797873907,0,0,0,0,0,0,0,-1,0,0,148,148,148,148
1216,1651273506,0,0,0,0,0,0,0,0,0,1,2,-1,1000,0,0,0,0,1304,0,663,0,0,0,97,94,94,96,148,148,148,148,1,0,0,1,1,0,0,4.396379797873907,0,0,0,0,0,0,0,0,0,0,148,148,148,148
1232,1651275503,0,0,0,0,0,0,0,0,0,1,2,-1,1000,0,0,0,0,1304,0,663,0,0,0,96,94,94,96,148,148,148,148,1,0,0,1,1,0,0,4.396379797873907,0,0,0,0,0,0,0,0,0,0,148,148,148,148
1248,1651277501,0,0,0,0,0,0,0,0,0,1,2,-1,1000,0,0,0,0,1304,0,663,1,0,0,96,94,94,96,148,148,148,148,1,0,0,1,1,0,0,4.3963797990889155,0,0,0,0,0,0,0,-1,0,0,148,148,148,148
1264,1651279499,0,0,0,0,0,0,0,0,0,1,2,-1,1000,0,0,0,0,1304,0,663,0,0,0,96,94,94,96,148,148,148,148,1,0,0,1,1,0,0,4.3963797990889155,0,0,0,0,0,0,0,0,0,0,148,148,148,148
1280,1651281496,0,0,0,0,0,0,0,0,0,1,2,-1,1000,0,0,0,0,1304,0,663,0,0,0,97,95,94,96,148,148,148,148,1,0,0,1,1,0,0,4.3963797990889155,0,0,0,0,0,0,0,0,0,0,148,148,148,148
1296,1651283494,0,0,0,0,0,0,0,0,0,1,2,-1,1000,0,0,0,0,1304,0,663,0,0,0,97,95,94,96,148,148,148,148,1,0,0,1,1,0,0,4.3963797990889155,0,0,0,0,0,0,0,0,0,0,148,148,148,148
1312,1651285494,0,0,0,0,0,0,0,0,0,1,2,-1,1000,0,0,0,0,1304,0,662,0,0,0,97,95,94,97,148,148,148,148,1,0,0,1,1,0,0,4.3963797990889155,0,0,0,0,0,0,0,0,0,0,148,148,148,148
1328,1651287490,0,0,0,0,0,0,0,0,0,1,2,-1,1000,0,0,0,0,1304,0,662,0,0,0,97,95,94,97,148,148,148,148,1,0,0,1,1,0,0,4.3963797990889155,0,0,0,0,0,0,0,0,0,0,148,148,148,148
1344,1651289488,0,0,0,0,0,0,0,0,0,1,2,-1,1000,0,0,0,0,1304,0,662,0,0,0,97,95,94,97,148,148,148,148,1,0,0,1,1,0,0,4.3963797990889155,0,0,0,0,0,0,0,0,0,0,148,148,148,148
1360,1651291488,0,0,0,0,0,0,0,0,0,1,2,-1,1000,0,0,0,0,1304,0,662,0,0,0,97,95,95,96,148,148,148,148,1,0,0,1,1,0,0,4.3963797990889155,0,0,0,0,0,0,0,0,0,0,148,148,148,148
1376,1651293483,0,0,0,0,0,0,0,0,0,1,2,-1,1000,0,0,0,0,1302,0,662,0,0,0,97,95,95,96,148,148,148,148,1,0,0,1,1,0,0,4.3963797990889155,0,0,0,0,0,0,0,0,0,0,148,148,148,148
1392,1651295482,0,0,0,0,0,0,0,0,0,1,2,-1,1000,0,0,0,0,1302,0,662,0,0,0,97,95,95,96,148,148,148,148,1,0,0,1,1,0,0,4.3963797990889155,0,0,0,0,0,0,0,0,0,0,148,148,148,148
1408,1651297478,0,0,0,0,0,0,0,0,0,1,2,-1,1000,0,0,0,0,1302,0,662,1,0,-1,97,95,95,97,148,148,148,148,1,0,0,1,1,0,0,4.396414637074704,0,0,0,0,0,0,0,-1,0,1,148,148,148,148
1424,1651299480,0,0,0,0,0,0,0,0,0,1,2,-1,1000,0,0,0,0,1302,0,662,0,0,0,97,96,95,97,148,148,148,148,1,0,0,1,1,0,0,4.396414637074704,0,0,0,0,0,0,0,0,0,0,148,148,148,148
1440,1651301475,0,0,0,0,0,0,0,0,0,1,2,-1,1000,0,0,0,0,1302,0,662,0,0,0,97,96,95,97,148,148,148,148,1,0,0,1,1,0,0,4.396414637074704,0,0,0,0,0,0,0,0,0,0,148,148,148,148
1456,1651303473,0,0,0,0,0,0,0,0,0,1,2,-1,1000,0,0,0,0,1302,0,662,0,0,0,97,96,95,97,148,148,148,148,1,0,0,1,1,0,0,4.396414637074704,0,0,0,0,0,0,0,0,0,0,148,148,148,148
1472,1651305470,0,0,0,0,0,0,0,0,0,1,2,-1,1000,0,0,0,0,1302,0,662,1,0,0,97,96,95,97,148,148,148,148,1,0,0,1,1,0,0,4.396414638289338,0,0,0,0,0,0,0,-1,0,0,148,148,148,148
1488,1651307473,0,0,0,0,0,0,0,0,0,1,2,-1,1000,0,0,0,0,1302,0,662,0,0,0,98,96,95,97,148,148,148,148,1,0,0,1,1,0,0,4.396414638289338,0,0,0,0,0,0,0,0,0,0,148,148,148,148
1504,1651309466,0,0,0,0,0,0,0,0,0,1,2,-1,1000,0,0,0,0,1302,0,663,0,0,0,98,96,96,97,148,148,148,148,1,0,0,1,1,0,0,4.396414638289338,0,0,0,0,0,0,0,0,0,0,148,148,148,148
1520,1651311460,0,0,0,0,0,0,0,0,0,1,2,-1,1000,0,0,0,0,1302,0,663,0,0,0,98,96,96,97,148,148,148,148,1,0,0,1,1,0,0,4.396414638289338,0,0,0,0,0,0,0,0,0,0,148,148,148,148
1536,1651313459,0,0,0,0,0,0,0,0,0,1,2,-1,1000,0,0,0,0,1304,0,663,0,0,0,98,96,96,97,148,148,148,148,1,0,0,1,1,0,0,4.396414638289338,0,0,0,0,0,0,0,0,0,0,148,148,148,148
1552,1651315456,0,0,0,0,0,0,0,0,0,1,2,-1,1000,0,0,0,0,1304,0,663,0,0,0,98,96,96,97,148,148,148,148,1,0,0,1,1,0,0,4.396414638289338,0,0,0,0,0,0,0,0,0,0,148,148,148,148
1568,1651317453,0,0,0,0,0,0,0,0,0,1,2,-1,1000,0,0,0,0,1304,17,663,0,0,0,98,96,96,98,148,148,148,148,1,0,0,1,1,0,0,4.396414638289338,0,0,0,0,0,0,0,0,0,0,148,148,148,148
1584,1651319451,0,0,0,0,0,0,0,0,0,1,2,-1,1000,0,0,0,0,1304,17,663,0,0,0,98,96,96,98,148,148,148,148,1,0,0,1,1,0,0,4.396414638289338,0,0,0,0,0,0,0,0,0,0,148,148,148,148
1600,1651321449,0,0,0,0,0,0,0,0,0,1,2,-1,1000,0,0,0,0,1304,17,663,1,0,0,98,96,96,98,148,148,148,148,1,0,0,1,1,0,0,4.3964146395046635,0,0,0,0,0,0,0,-1,0,0,148,148,148,148
1616,1651323446,0,0,0,0,0,0,0,0,0,1,2,-1,1000,0,0,0,0,1304,17,663,0,0,0,98,96,96,97,148,148,148,148,1,0,0,1,1,0,0,4.3964146395046635,0,0,0,0,0,0,0,0,0,0,148,148,148,148
1632,1651325446,0,0,0,0,0,0,0,0,0,1,2,-1,1000,0,0,0,0,1304,17,663,1,0,0,98,96,96,97,148,148,148,148,1,0,0,1,1,0,0,4.396414640721292,0,0,0,0,0,0,0,-1,0,0,148,148,148,148
1648,1651327443,0,0,0,0,0,0,0,0,0,1,2,-1,1000,0,0,0,0,1304,17,663,0,0,0,98,96,96,97,148,148,148,148,1,0,0,1,1,0,0,4.396414640721292,0,0,0,0,0,0,0,0,0,0,148,148,148,148
1664,1651329443,0,0,0,0,0,0,0,0,0,1,2,-1,1000,0,0,0,0,1304,17,663,0,0,0,98,96,96,98,148,148,148,148,1,0,0,1,1,0,0,4.396414640721292,0,0,0,0,0,0,0,0,0,0,148,148,148,148
1680,1651331438,0,0,0,0,0,0,0,0,0,1,2,-1,1000,0,0,0,0,1304,17,663,1,0,0,99,96,96,98,148,148,148,148,1,0,0,1,1,0,0,4.396414641934963,0,0,0,0,0,0,0,-1,0,0,148,148,148,148
1696,1651333435,0,0,0,0,0,0,0,0,0,2,2,-1,1000,0,0,0,0,1303,17,663,0,0,0,99,96,96,98,148,148,148,148,1,0,0,1,1,0,0,4.396414641934963,0,0,0,0,0,0,0,0,0,0,148,148,148,148
1712,1651335432,0,0,0,0,0,0,0,0,0,2,2,-1,1000,0,0,0,0,1303,17,663,0,0,0,99,96,96,98,148,148,148,148,1,0,0,1,1,0,0,4.396414641934963,0,0,0,0,0,0,0,0,0,0,148,148,148,148
1728,1651337429,0,0,0,0,0,0,0,0,0,1,2,-2,1000,0,0,0,0,1303,0,663,0,0,0,98,97,96,98,148,148,148,148,1,0,0,1,1,0,0,4.396414641934963,0,0,0,0,0,0,0,0,0,0,148,148,148,148
1744,1651339429,0,0,0,0,0,0,0,0,0,1,2,-2,1000,0,0,0,0,1303,0,663,0,0,0,98,97,96,98,148,148,148,148,1,0,0,1,1,0,0,4.396414641934963,0,0,0,0,0,0,0,0,0,0,148,148,148,148
1760,1651341426,0,0,0,0,0,0,0,0,0,1,2,-1,1000,0,0,0,0,1303,0,663,0,0,0,98,97,97,98,148,148,148,148,1,0,0,1,1,0,0,4.396414641934963,0,0,0,0,0,0,0,0,0,0,148,148,148,148
1776,1651343423,0,0,0,0,0,0,0,0,0,1,2,-1,1000,0,0,0,0,1303,0,663,0,0,0,99,96,97,98,148,148,148,148,1,0,0,1,1,0,0,4.396414641934963,0,0,0,0,0,0,0,0,0,0,148,148,148,148
1792,1651345421,0,0,0,0,0,0,0,0,0,1,2,-1,1000,0,0,0,0,1303,0,662,0,0,0,99,96,97,98,148,148,148,148,1,0,0,1,1,0,0,4.396414641934963,0,0,0,0,0,0,0,0,0,0,148,148,148,148
1808,1651347419,0,0,0,0,0,0,0,0,0,1,2,-1,1000,0,0,0,0,1303,0,662,0,0,0,99,96,96,98,148,148,148,148,1,0,0,1,1,0,0,4.396414641934963,0,0,0,0,0,0,0,0,0,0,148,148,148,148
1824,1651349420,0,0,0,0,0,0,0,0,0,2,2,-1,1000,0,0,0,0,1303,0,662,0,0,0,99,98,96,98,148,148,148,148,1,0,0,1,1,0,0,4.396414641934963,0,0,0,0,0,0,0,0,0,0,148,148,148,148
1840,1651351417,0,0,0,0,0,0,0,0,0,2,2,-1,1000,0,0,0,0,1303,0,662,0,0,0,99,98,96,98,148,148,148,148,1,0,0,1,1,0,0,4.396414641934963,0,0,0,0,0,0,0,0,0,0,148,148,148,148
1856,1651353411,0,0,0,0,0,0,0,0,0,1,2,-1,1000,0,0,0,0,1301,0,662,0,0,0,99,98,97,97,148,148,148,148,1,0,0,1,1,0,0,4.396414641934963,0,0,0,0,0,0,0,0,0,0,148,148,148,148
1872,1651355411,0,0,0,0,0,0,0,0,0,1,2,-1,1000,0,0,0,0,1301,0,662,1,0,0,99,97,97,97,148,148,148,148,1,0,0,1,1,0,0,4.39641464315176,0,0,0,0,0,0,0,-1,0,0,148,148,148,148
1888,1651357409,0,0,0,0,0,0,0,0,0,1,2,-1,1000,0,0,0,0,1301,27,662,0,0,0,99,97,97,97,148,148,148,148,1,0,0,1,1,0,0,4.39641464315176,0,0,0,0,0,0,0,0,0,0,148,148,148,148
1904,1651359404,0,0,0,0,0,0,0,0,0,1,2,-1,1000,0,0,0,0,1301,27,662,0,0,0,99,97,97,99,148,148,148,148,1,0,0,1,1,0,0,4.39641464315176,0,0,0,0,0,0,0,0,0,0,148,148,148,148
1920,1651361402,0,0,0,0,0,0,0,0,0,1,2,-1,1000,0,0,0,0,1301,27,662,0,0,0,99,97,97,99,148,148,148,148,1,0,0,1,1,0,0,4.39641464315176,0,0,0,0,0,0,0,0,0,0,148,148,148,148
1936,1651363399,0,0,0,0,0,0,0,0,0,1,2,-1,1000,0,0,0,0,1301,27,662,0,0,0,99,97,97,99,148,148,148,148,1,0,0,1,1,0,0,4.39641464315176,0,0,0,0,0,0,0,0,0,0,148,148,148,148
1952,1651365397,0,0,0,0,0,0,0,0,0,1,2,-1,1000,0,0,0,0,1301,27,662,0,0,0,99,97,97,99,148,148,148,148,1,0,0,1,1,0,0,4.39641464315176,0,0,0,0,0,0,0,0,0,0,148,148,148,148
1968,1651367394,0,0,0,0,0,0,0,0,0,1,2,-1,1000,0,0,0,0,1301,27,662,0,0,0,99,97,97,99,148,148,148,148,1,0,0,1,1,0,0,4.39641464315176,0,0,0,0,0,0,0,0,0,0,148,148,148,148
1984,1651369392,0,0,0,0,0,0,0,0,0,1,2,-1,1000,0,0,0,0,1301,27,661,0,0,0,99,97,97,99,148,148,148,148,1,0,0,1,1,0,0,4.39641464315176,0,0,0,0,0,0,0,0,0,0,148,148,148,148
2000,1651371389,0,0,0,0,0,0,0,0,0,1,2,-1,1000,0,0,0,0,1301,27,661,0,0,0,99,97,97,99,148,148,148,148,1,0,0,1,1,0,0,4.39641464315176,0,0,0,0,0,0,0,0,0,0,148,148,148,148
2016,1651373390,0,0,0,0,0,0,0,0,0,1,2,-1,1000,0,0,0,0,1303,27,661,0,0,0,99,98,97,99,148,148,148,148,1,0,0,1,1,0,0,4.39641464315176,0,0,0,0,0,0,0,0,0,0,148,148,148,148
2032,1651375387,0,0,0,0,0,0,0,0,0,1,2,-1,1000,0,0,0,0,1303,27,661,0,0,0,99,98,97,99,148,148,148,148,1,0,0,1,1,0,0,4.39641464315176,0,0,0,0,0,0,0,0,0,0,148,148,148,148
2048,1651377384,0,0,0,0,0,0,0,0,0,1,2,-1,1000,0,0,0,0,1303,0,661,0,0,0,99,98,98,99,148,148,148,148,1,0,0,1,1,0,0,4.39641464315176,0,0,0,0,0,0,0,0,0,0,148,148,148,148
2064,1651379381,0,0,0,0,0,0,0,0,0,1,2,-1,1000,0,0,0,0,1303,0,661,0,0,0,99,98,98,99,148,148,148,148,1,0,0,1,1,0,0,4.39641464315176,0,0,0,0,0,0,0,0,0,0,148,148,148,148
2080,1651381378,0,0,0,0,0,0,0,0,0,1,2,-1,1000,0,0,0,0,1303,0,661,0,0,0,99,98,98,99,148,148,148,148,1,0,0,1,1,0,0,4.39641464315176,0,0,0,0,0,0,0,0,0,0,148,148,148,148
2096,1651383374,0,0,0,0,0,0,0,0,0,1,2,-1,1000,0,0,0,0,1303,0,661,0,0,0,99,98,97,98,148,148,148,148,1,0,0,1,1,0,0,4.39641464315176,0,0,0,0,0,0,0,0,0,0,148,148,148,148
2112,1651385372,0,0,0,0,0,0,0,0,0,1,2,-1,1000,0,0,0,0,1303,0,661,1,0,0,99,98,97,98,148,148,148,148,1,0,0,1,1,0,0,4.396414644367426,0,0,0,0,0,0,0,-1,0,0,148,148,148,148
2128,1651387370,0,0,0,0,0,0,0,0,0,1,2,-1,1000,0,0,0,0,1303,0,661,0,0,0,99,98,97,98,148,148,148,148,1,0,0,1,1,0,0,4.396414644367426,0,0,0,0,0,0,0,0,0,0,148,148,148,148
2144,1651389369,0,0,0,0,0,0,0,0,0,1,2,-1,1000,0,0,0,0,1303,0,661,0,0,0,99,98,97,99,148,148,148,148,1,0,0,1,1,0,0,4.396414644367426,0,0,0,0,0,0,0,0,0,0,148,148,148,148
2160,1651391367,0,0,0,0,0,0,0,0,0,1,2,-1,1000,0,0,0,0,1303,0,661,0,0,0,100,97,97,99,148,148,148,148,1,0,0,1,1,0,0,4.396414644367426,0,0,0,0,0,0,0,0,0,0,148,148,148,148
2176,1651393365,0,0,0,0,0,0,0,0,0,1,2,-1,1000,0,0,0,0,1303,0,662,0,0,0,100,97,97,99,148,148,148,148,1,0,0,1,1,0,0,4.396414644367426,0,0,0,0,0,0,0,0,0,0,148,148,148,148
2192,1651395366,0,0,0,0,0,0,0,0,0,1,2,-1,1000,0,0,0,0,1303,0,662,0,0,0,100,97,98,100,148,148,148,148,1,0,0,1,1,0,0,4.396414644367426,0,0,0,0,0,0,0,0,0,0,148,148,148,148
2208,1651397359,0,0,0,0,0,0,0,0,0,1,2,-1,1000,0,0,0,0,1303,0,662,0,0,0,99,98,98,100,148,148,148,148,1,0,0,1,1,0,0,4.396414644367426,0,0,0,0,0,0,0,0,0,0,148,148,148,148
2224,1651399357,0,0,0,0,0,0,0,0,0,1,2,-1,1000,0,0,0,0,1303,0,662,0,0,0,99,98,98,100,148,148,148,148,1,0,0,1,1,0,0,4.396414644367426,0,0,0,0,0,0,0,0,0,0,148,148,148,148
2240,1651401354,0,0,0,0,0,0,0,0,0,1,2,-1,1000,0,0,0,0,1303,0,662,0,0,0,99,98,98,99,148,148,148,148,1,0,0,1,1,0,0,4.396414644367426,0,0,0,0,0,0,0,0,0,0,148,148,148,148
2256,1651403352,0,0,0,0,0,0,0,0,0,1,2,-1,1000,0,0,0,0,1303,0,662,0,0,0,99,98,98,99,148,148,148,148,1,0,0,1,1,0,0,4.396414644367426,0,0,0,0,0,0,0,0,0,0,148,148,148,148
2272,1651405350,0,0,0,0,0,0,0,0,0,1,2,-1,1000,0,0,0,0,1303,0,661,0,0,0,99,98,98,99,148,148,148,148,1,0,0,1,1,0,0,4.396414644367426,0,0,0,0,0,0,0,0,0,0,148,148,148,148
2288,1651407347,0,0,0,0,0,0,0,0,0,1,2,-1,1000,0,0,0,0,1303,0,661,0,0,0,99,98,98,99,148,148,148,148,1,0,0,1,1,0,0,4.396414644367426,0,0,0,0,0,0,0,0,0,0,148,148,148,148
2304,1651409347,0,0,0,0,0,0,0,0,0,1,2,-1,1000,0,0,0,0,1303,0,661,0,0,0,100,99,98,99,148,148,148,148,1,0,0,1,1,0,0,4.396414644367426,0,0,0,0,0,0,0,0,0,0,148,148,148,148
2320,1651411344,0,0,0,0,0,0,0,0,0,1,2,-1,1000,0,0,0,0,1303,0,661,0,0,0,100,99,98,99,148,148,148,148,1,0,0,1,1,0,0,4.396414644367426,0,0,0,0,0,0,0,0,0,0,148,148,148,148
2336,1651413342,0,0,0,0,0,0,0,0,0,1,2,-1,1000,0,0,0,0,1303,0,661,0,1,0,100,99,98,100,148,148,148,148,1,0,0,1,1,0,0,4.396414644367298,0,0,0,0,0,0,0,0,-1,0,148,148,148,148
2352,1651415339,0,0,0,0,0,0,0,0,0,1,2,-1,1000,0,0,0,0,1303,0,661,0,0,0,99,99,98,100,148,148,148,148,1,0,0,1,1,0,0,4.396414644367298,0,0,0,0,0,0,0,0,0,0,148,148,148,148
2368,1651417340,0,0,0,0,0,0,0,0,0,1,2,-1,1000,0,0,0,0,1303,0,661,0,0,0,99,98,98,100,148,148,148,148,1,0,0,1,1,0,0,4.396414644367298,0,0,0,0,0,0,0,0,0,0,148,148,148,148
2384,1651419333,0,0,0,0,0,0,0,0,0,1,2,-1,1000,0,0,0,0,1303,42,661,0,0,0,99,98,98,99,148,148,148,148,1,0,0,1,1,0,0,4.396414644367298,0,0,0,0,0,0,0,0,0,0,148,148,148,148
2400,1651421330,0,0,0,0,0,0,0,0,0,1,2,-1,1000,0,0,0,0,1303,42,661,0,0,0,100,98,98,99,148,148,148,148,1,0,0,1,1,0,0,4.396414644367298,0,0,0,0,0,0,0,0,0,0,148,148,148,148
2416,1651423328,0,0,0,0,0,0,0,0,0,1,2,-1,1000,0,0,0,0,1303,42,661,0,0,0,100,98,98,99,148,148,148,148,1,0,0,1,1,0,0,4.396414644367298,0,0,0,0,0,0,0,0,0,0,148,148,148,148
2432,1651425325,0,0,0,0,0,0,0,0,0,1,2,-1,1000,0,0,0,0,1303,42,661,0,0,0,100,98,98,99,148,148,148,148,1,0,0,1,1,0,0,4.396414644367298,0,0,0,0,0,0,0,0,0,0,148,148,148,148
2448,1651427322,0,0,0,0,0,0,0,0,0,1,2,-1,1000,0,0,0,0,1303,42,661,0,0,0,100,98,98,99,148,148,148,148,1,0,0,1,1,0,0,4.396414644367298,0,0,0,0,0,0,0,0,0,0,148,148,148,148
2464,1651429320,0,0,0,0,0,0,0,0,0,1,2,-1,1000,0,0,0,0,1303,42,661,0,0,0,100,98,98,99,148,148,148,148,1,0,0,1,1,0,0,4.396414644367298,0,0,0,0,0,0,0,0,0,0,148,148,148,148
2480,1651431317,0,0,0,0,0,0,0,0,0,1,2,-1,1000,0,0,0,0,1303,42,659,0,0,0,100,98,98,99,148,148,148,148,1,0,0,1,1,0,0,4.396414644367298,0,0,0,0,0,0,0,0,0,0,148,148,148,148
2496,1651433315,0,0,0,0,0,0,0,0,0,1,2,-1,1000,0,0,0,0,1303,42,659,0,0,0,100,98,98,99,148,148,148,148,1,0,0,1,1,0,0,4.396414644367298,0,0,0,0,0,0,0,0,0,0,148,148,148,148
2512,1651435313,0,0,0,0,0,0,0,0,0,1,2,-1,1000,0,0,0,0,1306,42,659,0,0,0,100,98,98,99,148,148,148,148,1,0,0,1,1,0,0,4.396414644367298,0,0,0,0,0,0,0,0,0,0,148,148,148,148
2528,1651437312,0,0,0,0,0,0,0,0,0,1,2,-1,1000,0,0,0,0,1306,42,659,0,0,0,100,98,98,100,148,148,148,148,1,0,0,1,1,0,0,4.396414644367298,0,0,0,0,0,0,0,0,0,0,148,148,148,148
2544,1651439312,0,0,0,0,0,0,0,0,0,1,3,-1,1000,0,0,0,0,1306,0,659,0,0,0,99,98,98,100,148,148,148,148,1,0,0,1,1,0,0,4.396414644367298,0,0,0,0,0,0,0,0,0,0,148,148,148,148
2560,1651441308,0,0,0,0,0,0,0,0,0,1,3,-1,1000,0,0,0,0,1306,0,659,0,0,0,99,98,98,100,148,148,148,148,1,0,0,1,1,0,0,4.396414644367298,0,0,0,0,0,0,0,0,0,0,148,148,148,148
2576,1651443304,0,0,0,0,0,0,0,0,0,1,2,-1,1000,0,0,0,0,1306,0,658,0,0,0,99,98,98,99,148,148,148,148,1,0,0,1,1,0,0,4.396414644367298,0,0,0,0,0,0,0,0,0,0,148,148,148,148
2592,1651445303,0,0,0,0,0,0,0,0,0,1,2,-1,1000,0,0,0,0,1306,0,658,0,0,0,100,98,98,99,148,148,148,148,1,0,0,1,1,0,0,4.396414644367298,0,0,0,0,0,0,0,0,0,0,148,148,148,148
2608,1651447302,0,0,0,0,0,0,0,0,0,1,2,-1,1000,0,0,0,0,1306,0,658,0,0,0,100,98,98,99,148,148,148,148,1,0,0,1,1,0,0,4.396414644367298,0,0,0,0,0,0,0,0,0,0,148,148,148,148
2624,1651449299,0,0,0,0,0,0,0,0,0,1,2,-1,1000,0,0,0,0,1306,0,658,0,0,0,100,98,98,100,148,148,148,148,1,0,0,1,1,0,0,4.396414644367298,0,0,0,0,0,0,0,0,0,0,148,148,148,148
2640,1651451294,0,0,0,0,0,0,0,0,0,2,2,-1,1000,0,0,0,0,1306,0,658,0,0,0,100,98,98,100,148,148,148,148,1,0,0,1,1,0,0,4.396414644367298,0,0,0,0,0,0,0,0,0,0,148,148,148,148
2656,1651453294,0,0,0,0,0,0,0,0,0,2,2,-1,1000,0,0,0,0,1306,0,658,0,0,0,100,98,98,100,148,148,148,148,1,0,0,1,1,0,0,4.396414644367298,0,0,0,0,0,0,0,0,0,0,148,148,148,148
2672,1651455289,0,0,0,0,0,0,0,0,0,1,2,-1,1000,0,0,0,0,1302,0,659,0,0,0,100,98,98,100,148,148,148,148,1,0,0,1,1,0,0,4.396414644367298,0,0,0,0,0,0,0,0,0,0,148,148,148,148
2688,1651457289,0,0,0,0,0,0,0,0,0,1,2,-1,1000,0,0,0,0,1302,0,659,0,0,0,100,98,98,100,148,148,148,148,1,0,0,1,1,0,0,4.396414644367298,0,0,0,0,0,0,0,0,0,0,148,148,148,148
2704,1651459287,0,0,0,0,0,0,0,0,0,1,2,-1,1000,0,0,0,0,1302,122,659,1,0,1,100,99,98,100,148,148,148,148,1,0,0,1,1,0,0,4.396379775120629,0,0,0,0,0,0,0,-1,0,-1,148,148,148,148
2720,1651461290,0,0,0,0,0,0,0,0,0,1,2,-1,1000,0,0,0,0,1302,122,659,0,0,0,100,99,98,99,148,148,148,148,1,0,0,1,1,0,0,4.396379775120629,0,0,0,0,0,0,0,0,0,0,148,148,148,148
2736,1651463280,0,0,0,0,0,0,0,0,0,1,2,-1,1000,0,0,0,0,1302,122,659,1,0,0,100,99,98,99,148,148,148,148,1,0,0,1,1,0,0,4.396379777542781,0,0,0,0,0,0,0,-1,0,0,148,148,148,148
2752,1651465277,0,0,0,0,0,0,0,0,0,1,2,-1,1000,0,0,0,0,1302,122,659,0,0,0,100,98,98,99,148,148,148,148,1,0,0,1,1,0,0,4.396379777542781,0,0,0,0,0,0,0,0,0,0,148,148,148,148
2768,1651467275,0,0,0,0,0,0,0,0,0,1,2,-1,1000,0,0,0,0,1302,122,658,0,0,0,100,98,98,100,148,148,148,148,1,0,0,1,1,0,0,4.396379777542781,0,0,0,0,0,0,0,0,0,0,148,148,148,148
2784,1651469272,0,0,0,0,0,0,0,0,0,1,2,-1,1000,0,0,0,0,1302,122,658,0,0,0,100,98,98,100,148,148,148,148,1,0,0,1,1,0,0,4.396379777542781,0,0,0,0,0,0,0,0,0,0,148,148,148,148
2800,1651471270,0,0,0,0,0,0,0,0,0,1,2,-1,1000,0,0,0,0,1302,122,658,0,0,0,100,99,98,100,148,148,148,148,1,0,0,1,1,0,0,4.396379777542781,0,0,0,0,0,0,0,0,0,0,148,148,148,148
2816,1651473274,0,0,0,0,0,0,0,0,0,1,2,-1,1000,0,0,0,0,1302,122,658,1,0,0,100,99,98,100,148,148,148,148,1,0,0,1,1,0,0,4.396379779982102,0,0,0,0,0,0,0,-1,0,0,148,148,148,148
2832,1651475265,0,0,0,0,0,0,0,0,0,1,1,-1,1000,0,0,0,0,1302,122,658,0,0,0,100,99,99,100,148,148,148,148,1,0,0,1,1,0,0,4.396379779982102,0,0,0,0,0,0,0,0,0,0,148,148,148,148
2848,1651477265,0,0,0,0,0,0,0,0,0,1,1,-1,1000,0,0,0,0,1302,122,658,0,0,0,100,99,99,100,148,148,148,148,1,0,0,1,1,0,0,4.396379779982102,0,0,0,0,0,0,0,0,0,0,148,148,148,148
2864,1651479263,0,0,0,0,0,0,0,0,0,1,2,-1,1000,0,0,0,0,1302,0,660,1,0,0,100,99,99,100,148,148,148,148,1,0,0,1,1,0,0,4.396379782414246,0,0,0,0,0,0,0,-1,0,0,148,148,148,148
2880,1651481260,0,0,0,0,0,0,0,0,0,1,2,-1,1000,0,0,0,0,1302,0,660,0,0,1,100,99,99,100,148,148,148,148,1,0,0,1,1,0,0,4.396344928189084,0,0,0,0,0,0,0,0,0,-1,148,148,148,148
2896,1651483258,0,0,0,0,0,0,0,0,0,1,2,-1,1000,0,0,0,0,1302,0,660,1,0,0,100,99,99,100,148,148,148,148,1,0,0,1,1,0,0,4.396344930621377,0,0,0,0,0,0,0,-1,0,0,148,148,148,148
2912,1651485253,0,0,0,0,0,0,0,0,0,1,2,-1,1000,0,0,0,0,1302,0,660,0,0,0,100,99,99,99,148,148,148,148,1,0,0,1,1,0,0,4.396344930621377,0,0,0,0,0,0,0,0,0,0,148,148,148,148
2928,1651487253,0,0,0,0,0,0,0,0,0,1,2,-1,1000,0,0,0,0,1302,0,660,0,0,0,100,99,99,99,148,148,148,148,1,0,0,1,1,0,0,4.396344930621377,0,0,0,0,0,0,0,0,0,0,148,148,148,148
2944,1651489252,0,0,0,0,0,0,0,0,0,1,2,-1,1000,0,0,0,0,1302,0,660,1,0,0,100,98,99,99,148,148,148,148,1,0,0,1,1,0,0,4.396344933055057,0,0,0,0,0,0,0,-1,0,0,148,148,148,148
2960,1651491249,0,0,0,0,0,0,0,0,0,1,2,-1,1000,0,0,0,0,1302,0,660,0,0,0,100,98,99,100,148,148,148,148,1,0,0,1,1,0,0,4.396344933055057,0,0,0,0,0,0,0,0,0,0,148,148,148,148
2976,1651493245,0,0,0,0,0,0,0,0,0,1,2,-1,1000,0,0,0,0,1302,0,660,0,0,0,100,98,99,100,148,148,148,148,1,0,0,1,1,0,0,4.396344933055057,0,0,0,0,0,0,0,0,0,0,148,148,148,148
2992,1651495245,0,0,0,0,0,0,0,0,0,1,2,-1,1000,0,0,0,0,1301,0,660,0,0,0,100,99,99,100,148,148,148,148,1,0,0,1,1,0,0,4.396344933055057,0,0,0,0,0,0,0,0,0,0,148,148,148,148
3008,1651497241,0,0,0,0,0,0,0,0,0,1,2,-1,1000,0,0,0,0,1301,0,660,0,0,-1,100,99,99,101,148,148,148,148,1,0,0,1,1,0,0,4.396379769826927,0,0,0,0,0,0,0,0,0,1,148,148,148,148
3024,1651499238,0,0,0,0,0,0,0,0,0,1,2,-1,1000,0,0,0,0,1301,95,660,0,0,0,101,99,99,101,148,148,148,148,1,0,0,1,1,0,0,4.396379769826927,0,0,0,0,0,0,0,0,0,0,148,148,148,148
3040,1651501238,0,0,0,0,0,0,0,0,0,1,2,-1,1000,0,0,0,0,1301,95,660,0,0,0,101,99,99,101,148,148,148,148,1,0,0,1,1,0,0,4.396379769826927,0,0,0,0,0,0,0,0,0,0,148,148,148,148
3056,1651503235,0,0,0,0,0,0,0,0,0,1,2,-1,1000,0,0,0,0,1301,95,660,0,0,0,101,99,99,100,148,148,148,148,1,0,0,1,1,0,0,4.396379769826927,0,0,0,0,0,0,0,0,0,0,148,148,148,148
3072,1651505236,0,0,0,0,0,0,0,0,0,1,2,-1,1000,0,0,0,0,1301,95,660,0,0,0,100,99,99,100,148,148,148,148,1,0,0,1,1,0,0,4.396379769826927,0,0,0,0,0,0,0,0,0,0,148,148,148,148
3088,1651507230,0,0,0,0,0,0,0,0,0,1,2,-1,1000,0,0,0,0,1301,95,660,0,0,0,100,98,99,100,148,148,148,148,1,0,0,1,1,0,0,4.396379769826927,0,0,0,0,0,0,0,0,0,0,148,148,148,148
3104,1651509227,0,0,0,0,0,0,0,0,0,1,2,-1,1000,0,0,0,0,1301,95,660,0,0,0,100,98,99,100,148,148,148,148,1,0,0,1,1,0,0,4.396379769826927,0,0,0,0,0,0,0,0,0,0,148,148,148,148
3120,1651511225,0,0,0,0,0,0,0,0,0,1,2,-1,1000,0,0,0,0,1301,95,660,1,0,0,100,98,99,100,148,148,148,148,1,0,0,1,1,0,0,4.396379772259538,0,0,0,0,0,0,0,-1,0,0,148,148,148,148
3136,1651513221,0,0,0,0,0,0,0,0,0,1,2,-1,1000,0,0,0,0,1301,95,660,0,0,0,100,99,99,100,148,148,148,148,1,0,0,1,1,0,0,4.396379772259538,0,0,0,0,0,0,0,0,0,0,148,148,148,148
3152,1651515220,0,0,0,0,0,0,0,0,0,1,2,-1,1000,0,0,0,0,1303,95,658,1,0,0,100,99,99,99,148,148,148,148,1,0,0,1,1,0,0,4.396379774693494,0,0,0,0,0,0,0,-1,0,0,148,148,148,148
3168,1651517217,0,0,0,0,0,0,0,0,0,1,2,-1,1000,0,0,0,0,1303,95,658,0,0,0,100,99,98,99,148,148,148,148,1,0,0,1,1,0,0,4.396379774693494,0,0,0,0,0,0,0,0,0,0,148,148,148,148
3184,1651519215,0,0,0,0,0,0,0,0,0,1,1,-1,1000,0,0,0,0,1303,0,658,1,0,0,100,98,98,99,148,148,148,148,1,0,0,1,1,0,0,4.396379777126359,0,0,0,0,0,0,0,-1,0,0,148,148,148,148
3200,1651521210,0,0,0,0,0,0,0,0,0,1,1,-1,1000,0,0,0,0,1303,0,658,0,0,0,100,98,98,101,148,148,148,148,1,0,0,1,1,0,0,4.396379777126359,0,0,0,0,0,0,0,0,0,0,148,148,148,148
3216,1651523209,0,0,0,0,0,0,0,0,0,1,2,-1,1000,0,0,0,0,1303,0,658,0,0,0,100,98,99,101,148,148,148,148,1,0,0,1,1,0,0,4.396379777126359,0,0,0,0,0,0,0,0,0,0,148,148,148,148
3232,1651525213,0,0,0,0,0,0,0,0,0,1,2,-1,1000,0,0,0,0,1303,0,658,0,0,1,100,99,99,101,148,148,148,148,1,0,0,1,1,0,0,4.39634480072815,0,0,0,0,0,0,0,0,0,-1,148,148,148,148
3248,1651527206,0,0,0,0,0,0,0,0,0,1,2,-1,1000,0,0,0,0,1303,0,659,1,0,0,100,99,99,100,148,148,148,148,1,0,0,1,1,0,0,4.396344803155075,0,0,0,0,0,0,0,-1,0,0,148,148,148,148
3264,1651529201,0,0,0,0,0,0,0,0,0,1,2,-1,1000,0,0,0,0,1303,0,659,0,0,0,100,99,98,100,148,148,148,148,1,0,0,1,1,0,0,4.396344803155075,0,0,0,0,0,0,0,0,0,0,148,148,148,148
3280,1651531199,0,0,0,0,0,0,0,0,0,2,2,-1,1000,0,0,0,0,1303,0,659,0,0,0,100,99,98,100,148,148,148,148,1,0,0,1,1,0,0,4.396344803155075,0,0,0,0,0,0,0,0,0,0,148,148,148,148
3296,1651533198,0,0,0,0,0,0,0,0,0,2,2,-1,1000,0,0,0,0,1303,0,659,0,0,0,100,99,98,100,148,148,148,148,1,0,0,1,1,0,0,4.396344803155075,0,0,0,0,0,0,0,0,0,0,148,148,148,148
3312,1651535193,0,0,0,0,0,0,0,0,0,1,2,-1,1000,0,0,0,0,1303,0,659,0,0,0,101,99,99,100,148,148,148,148,1,0,0,1,1,0,0,4.396344803155075,0,0,0,0,0,0,0,0,0,0,148,148,148,148
3328,1651537193,0,0,0,0,0,0,0,0,0,1,2,-1,1000,0,0,0,0,1303,0,659,0,0,0,101,99,99,100,148,148,148,148,1,0,0,1,1,0,0,4.396344803155075,0,0,0,0,0,0,0,0,0,0,148,148,148,148
3344,1651539192,0,0,0,0,0,0,0,0,0,1,3,-1,1000,0,0,0,0,1303,110,659,0,0,0,101,99,99,100,148,148,148,148,1,0,0,1,1,0,0,4.396344803155075,0,0,0,0,0,0,0,0,0,0,148,148,148,148
3360,1651541190,0,0,0,0,0,0,0,0,0,1,3,-1,1000,0,0,0,0,1303,110,659,0,0,0,100,99,99,100,148,148,148,148,1,0,0,1,1,0,0,4.396344803155075,0,0,0,0,0,0,0,0,0,0,148,148,148,148
3376,1651543186,0,0,0,0,0,0,0,0,0,1,2,-1,1000,0,0,0,0,1303,110,659,0,0,0,100,99,99,100,148,148,148,148,1,0,0,1,1,0,0,4.396344803155075,0,0,0,0,0,0,0,0,0,0,148,148,148,148
3392,1651545183,0,0,0,0,0,0,0,0,0,1,2,-1,1000,0,0,0,0,1303,110,659,0,0,0,100,99,99,101,148,148,148,148,1,0,0,1,1,0,0,4.396344803155075,0,0,0,0,0,0,0,0,0,0,148,148,148,148
3408,1651547180,0,0,0,0,0,0,0,0,0,1,2,-1,1000,0,0,0,0,1303,110,659,0,0,0,100,99,99,101,148,148,148,148,1,0,0,1,1,0,0,4.396344803155075,0,0,0,0,0,0,0,0,0,0,148,148,148,148
3424,1651549181,0,0,0,0,0,0,0,0,0,1,2,-1,1000,0,0,0,0,1303,110,659,0,0,0,100,99,99,101,148,148,148,148,1,0,0,1,1,0,0,4.396344803155075,0,0,0,0,0,0,0,0,0,0,148,148,148,148
3440,1651551176,0,0,0,0,0,0,0,0,0,1,2,-1,1000,0,0,0,0,1303,110,659,0,0,0,100,99,99,100,148,148,148,148,1,0,0,1,1,0,0,4.396344803155075,0,0,0,0,0,0,0,0,0,0,148,148,148,148
3456,1651553174,0,0,0,0,0,0,0,0,0,1,2,-1,1000,0,0,0,0,1303,110,659,0,0,0,100,99,99,100,148,148,148,148,1,0,0,1,1,0,0,4.396344803155075,0,0,0,0,0,0,0,0,0,0,148,148,148,148
3472,1651555172,0,0,0,0,0,0,0,0,0,1,2,-1,1000,0,0,0,0,1303,110,659,0,0,0,100,99,99,100,148,148,148,148,1,0,0,1,1,0,0,4.396344803155075,0,0,0,0,0,0,0,0,0,0,148,148,148,148
3488,1651557168,0,0,0,0,0,0,0,0,0,1,2,-1,1000,0,0,0,0,1303,110,659,0,0,1,100,99,99,100,148,148,148,148,1,0,0,1,1,0,0,4.396309966383205,0,0,0,0,0,0,0,0,0,-1,148,148,148,148
3504,1651559166,0,0,0,0,0,0,0,0,0,1,2,-1,1000,0,0,0,0,1303,75,659,0,0,0,100,99,99,100,148,148,148,148,1,0,0,1,1,0,0,4.396309966383205,0,0,0,0,0,0,0,0,0,0,148,148,148,148
3520,1651561163,0,0,0,0,0,0,0,0,0,1,2,-1,1000,0,0,0,0,1303,75,659,0,0,0,100,99,99,100,148,148,148,148,1,0,0,1,1,0,0,4.396309966383205,0,0,0,0,0,0,0,0,0,0,148,148,148,148
3536,1651563164,0,0,0,0,0,0,0,0,0,1,2,-1,1000,0,0,0,0,1303,75,659,0,0,0,100,99,99,100,148,148,148,148,1,0,0,1,1,0,0,4.396309966383205,0,0,0,0,0,0,0,0,0,0,148,148,148,148
3552,1651565160,0,0,0,0,0,0,0,0,0,1,2,-1,1000,0,0,0,0,1303,75,659,0,0,0,100,99,99,100,148,148,148,148,1,0,0,1,1,0,0,4.396309966383205,0,0,0,0,0,0,0,0,0,0,148,148,148,148
3568,1651567157,0,0,0,0,0,0,0,0,0,1,2,-1,1000,0,0,0,0,1303,75,659,0,0,1,100,99,99,100,148,148,148,148,1,0,0,1,1,0,0,4.396275112158043,0,0,0,0,0,0,0,0,0,-1,148,148,148,148
3584,1651569154,0,0,0,0,0,0,0,0,0,1,2,-1,1000,0,0,0,0,1303,75,659,0,0,0,100,99,99,100,148,148,148,148,1,0,0,1,1,0,0,4.396275112158043,0,0,0,0,0,0,0,0,0,0,148,148,148,148
3600,1651571154,0,0,0,0,0,0,0,0,0,1,2,-1,1000,0,0,0,0,1303,75,659,0,0,0,100,99,98,100,148,148,148,148,1,0,0,1,1,0,0,4.396275112158043,0,0,0,0,0,0,0,0,0,0,148,148,148,148
3616,1651573149,0,0,0,0,0,0,0,0,0,1,2,-1,1000,0,0,0,0,1303,75,659,0,0,0,100,99,98,100,148,148,148,148,1,0,0,1,1,0,0,4.396275112158043,0,0,0,0,0,0,0,0,0,0,148,148,148,148
3632,1651575147,0,0,0,0,0,0,0,0,0,1,2,-1,1000,0,0,0,0,1303,75,659,0,0,0,100,99,98,100,148,148,148,148,1,0,0,1,1,0,0,4.396275112158043,0,0,0,0,0,0,0,0,0,0,148,148,148,148
3648,1651577144,0,0,0,0,0,0,0,0,0,1,2,-1,1000,0,0,0,0,1302,75,659,0,0,0,101,99,99,100,148,148,148,148,1,0,0,1,1,0,0,4.396275112158043,0,0,0,0,0,0,0,0,0,0,148,148,148,148
3664,1651579142,0,0,0,0,0,0,0,0,0,1,2,-1,1000,0,0,0,0,1302,75,659,0,0,0,101,99,99,100,148,148,148,148,1,0,0,1,1,0,0,4.396275112158043,0,0,0,0,0,0,0,0,0,0,148,148,148,148
3680,1651581139,0,0,0,0,0,0,0,0,0,1,2,-1,1000,0,0,0,0,1302,22,659,0,0,0,101,99,99,100,148,148,148,148,1,0,0,1,1,0,0,4.396275112158043,0,0,0,0,0,0,0,0,0,0,148,148,148,148
3696,1651583137,0,0,0,0,0,0,0,0,0,1,2,-1,1000,0,0,0,0,1302,22,659,0,0,0,100,99,99,100,148,148,148,148,1,0,0,1,1,0,0,4.396275112158043,0,0,0,0,0,0,0,0,0,0,148,148,148,148
3712,1651585135,0,0,0,0,0,0,0,0,0,1,2,-1,1000,0,0,0,0,1302,22,659,0,0,0,100,99,99,100,148,148,148,148,1,0,0,1,1,0,0,4.396275112158043,0,0,0,0,0,0,0,0,0,0,148,148,148,148
3728,1651587133,0,0,0,0,0,0,0,0,0,1,2,-1,1000,0,0,0,0,1302,22,659,0,0,0,100,99,99,101,148,148,148,148,1,0,0,1,1,0,0,4.396275112158043,0,0,0,0,0,0,0,0,0,0,148,148,148,148
3744,1651589132,0,0,0,0,0,0,0,0,0,1,2,-1,1000,0,0,0,0,1302,22,659,0,0,0,100,99,99,101,148,148,148,148,1,0,0,1,1,0,0,4.396275112158043,0,0,0,0,0,0,0,0,0,0,148,148,148,148
3760,1651591132,0,0,0,0,0,0,0,0,0,1,2,-1,1000,0,0,0,0,1302,22,659,0,0,0,100,99,99,101,148,148,148,148,1,0,0,1,1,0,0,4.396275112158043,0,0,0,0,0,0,0,0,0,0,148,148,148,148
3776,1651593128,0,0,0,0,0,0,0,0,0,2,2,-1,1000,0,0,0,0,1302,22,659,0,0,0,100,99,99,101,148,148,148,148,1,0,0,1,1,0,0,4.396275112158043,0,0,0,0,0,0,0,0,0,0,148,148,148,148
3792,1651595126,0,0,0,0,0,0,0,0,0,2,2,-1,1000,0,0,0,0,1302,22,659,0,0,0,100,99,99,101,148,148,148,148,1,0,0,1,1,0,0,4.396275112158043,0,0,0,0,0,0,0,0,0,0,148,148,148,148
3808,1651597121,0,0,0,0,0,0,0,0,0,1,2,-1,1000,0,0,0,0,1303,22,659,0,0,0,100,99,99,101,148,148,148,148,1,0,0,1,1,0,0,4.396275112158043,0,0,0,0,0,0,0,0,0,0,148,148,148,148
3824,1651599120,0,0,0,0,0,0,0,0,0,1,2,-1,1000,0,0,0,0,1303,22,659,0,0,0,100,99,99,100,148,148,148,148,1,0,0,1,1,0,0,4.396275112158043,0,0,0,0,0,0,0,0,0,0,148,148,148,148
3840,1651601116,0,0,0,0,0,0,0,0,0,1,2,-1,1000,0,0,0,0,1303,0,658,0,0,0,101,99,99,100,148,148,148,148,1,0,0,1,1,0,0,4.396275112158043,0,0,0,0,0,0,0,0,0,0,148,148,148,148
3856,1651603116,0,0,0,0,0,0,0,0,0,1,2,-1,1000,0,0,0,0,1303,0,658,0,0,0,101,99,99,100,148,148,148,148,1,0,0,1,1,0,0,4.396275112158043,0,0,0,0,0,0,0,0,0,0,148,148,148,148
3872,1651605111,0,0,0,0,0,0,0,0,0,1,2,-1,1000,0,0,0,0,1303,0,658,0,0,0,101,99,99,101,148,148,148,148,1,0,0,1,1,0,0,4.396275112158043,0,0,0,0,0,0,0,0,0,0,148,148,148,148
3888,1651607110,0,0,0,0,0,0,0,0,0,1,2,-1,1000,0,0,0,0,1303,0,658,0,0,0,100,99,99,101,148,148,148,148,1,0,0,1,1,0,0,4.396275112158043,0,0,0,0,0,0,0,0,0,0,148,148,148,148
3904,1651609106,0,0,0,0,0,0,0,0,0,1,2,-1,1000,0,0,0,0,1303,0,658,0,0,0,100,99,99,101,148,148,148,148,1,0,0,1,1,0,0,4.396275112158043,0,0,0,0,0,0,0,0,0,0,148,148,148,148
3920,1651611106,0,0,0,0,0,0,0,0,0,1,2,-1,1000,0,0,0,0,1303,0,658,0,0,0,100,99,99,101,148,148,148,148,1,0,0,1,1,0,0,4.396275112158043,0,0,0,0,0,0,0,0,0,0,148,148,148,148
3936,1651613101,0,0,0,0,0,0,0,0,0,1,2,-1,1000,0,0,0,0,1303,0,659,1,0,0,100,99,98,101,148,148,148,148,1,0,0,1,1,0,0,4.396275114587615,0,0,0,0,0,0,0,-1,0,0,148,148,148,148
3952,1651615101,0,0,0,0,0,0,0,0,0,1,2,-1,1000,0,0,0,0,1303,0,659,0,0,0,100,99,98,101,148,148,148,148,1,0,0,1,1,0,0,4.396275114587615,0,0,0,0,0,0,0,0,0,0,148,148,148,148
3968,1651617097,0,0,0,0,0,0,0,0,0,1,2,-1,1000,0,0,0,0,1305,0,659,0,0,0,100,99,98,100,148,148,148,148,1,0,0,1,1,0,0,4.396275114587615,0,0,0,0,0,0,0,0,0,0,148,148,148,148
3984,1651619095,0,0,0,0,0,0,0,0,0,1,2,-1,1000,0,0,0,0,1305,0,659,0,0,0,101,99,99,100,148,148,148,148,1,0,0,1,1,0,0,4.396275114587615,0,0,0,0,0,0,0,0,0,0,148,148,148,148
4000,1651621092,0,0,0,0,0,0,0,0,0,1,2,-1,1000,0,0,0,0,1305,0,659,1,0,0,101,99,99,100,148,148,148,148,1,0,0,1,1,0,0,4.396275117019877,0,0,0,0,0,0,0,-1,0,0,148,148,148,148
4016,1651623089,0,0,0,0,0,0,0,0,0,1,2,-1,1000,0,0,0,0,1305,0,659,0,0,0,101,99,99,100,148,148,148,148,1,0,0,1,1,0,0,4.396275117019877,0,0,0,0,0,0,0,0,0,0,148,148,148,148
4032,1651625087,0,0,0,0,0,0,0,0,0,1,2,-1,1000,0,0,0,0,1305,0,661,0,0,0,101,99,99,100,148,148,148,148,1,0,0,1,1,0,0,4.396275117019877,0,0,0,0,0,0,0,0,0,0,148,148,148,148
4048,1651627084,0,0,0,0,0,0,0,0,0,1,2,-1,1000,0,0,0,0,1305,0,661,1,0,1,101,99,99,100,148,148,148,148,1,0,0,1,1,0,0,4.39624026522723,0,0,0,0,0,0,0,-1,0,-1,148,148,148,148
4064,1651629082,0,0,0,0,0,0,0,0,0,1,2,-1,1000,0,0,0,0,1305,0,661,0,0,0,101,99,99,101,148,148,148,148,1,0,0,1,1,0,0,4.39624026522723,0,0,0,0,0,0,0,0,0,0,148,148,148,148
4080,1651631079,0,0,0,0,0,0,0,0,0,1,2,-1,1000,0,0,0,0,1305,0,661,0,0,0,100,99,99,101,148,148,148,148,1,0,0,1,1,0,0,4.39624026522723,0,0,0,0,0,0,0,0,0,0,148,148,148,148
4096,1651633078,0,0,0,0,0,0,0,0,0,1,2,-1,1000,0,0,0,0,1305,0,661,0,0,0,100,99,99,101,148,148,148,148,1,0,0,1,1,0,0,4.39624026522723,0,0,0,0,0,0,0,0,0,0,148,148,148,148
4112,1651635074,0,0,0,0,0,0,0,0,0,1,2,-1,1000,0,0,0,0,1305,0,661,0,0,0,100,99,99,100,148,148,148,148,1,0,0,1,1,0,0,4.39624026522723,0,0,0,0,0,0,0,0,0,0,148,148,148,148
4128,1651637075,0,0,0,0,0,0,0,0,0,1,2,-1,1000,0,0,0,0,1303,0,660,0,0,0,100,99,98,100,148,148,148,148,1,0,0,1,1,0,0,4.39624026522723,0,0,0,0,0,0,0,0,0,0,148,148,148,148
4144,1651639072,0,0,0,0,0,0,0,0,0,1,2,-1,1000,0,0,0,0,1303,0,660,0,0,0,100,99,98,100,148,148,148,148,1,0,0,1,1,0,0,4.39624026522723,0,0,0,0,0,0,0,0,0,0,148,148,148,148
4160,1651641069,0,0,0,0,0,0,0,0,0,1,2,-1,1000,0,0,0,0,1303,90,660,0,0,0,100,99,98,100,148,148,148,148,1,0,0,1,1,0,0,4.39624026522723,0,0,0,0,0,0,0,0,0,0,148,148,148,148
4176,1651643066,0,0,0,0,0,0,0,0,0,1,2,-1,1000,0,0,0,0,1303,90,660,0,0,0,101,99,98,100,148,148,148,148,1,0,0,1,1,0,0,4.39624026522723,0,0,0,0,0,0,0,0,0,0,148,148,148,148
4192,1651645064,0,0,0,0,0,0,0,0,0,1,2,-1,1000,0,0,0,0,1303,90,660,1,0,0,101,99,100,100,148,148,148,148,1,0,0,1,1,0,0,4.39624026766124,0,0,0,0,0,0,0,-1,0,0,148,148,148,148
4208,1651647063,0,0,0,0,0,0,0,0,0,1,2,-1,1000,0,0,0,0,1303,90,660,0,0,0,101,99,100,101,148,148,148,148,1,0,0,1,1,0,0,4.39624026766124,0,0,0,0,0,0,0,0,0,0,148,148,148,148
4224,1651649063,0,0,0,0,0,0,0,0,0,1,2,-1,1000,0,0,0,0,1303,90,659,1,0,0,100,99,99,101,148,148,148,148,1,0,0,1,1,0,0,4.396240270097984,0,0,0,0,0,0,0,-1,0,0,148,148,148,148
4240,1651651059,0,0,0,0,0,0,0,0,0,1,2,-1,1000,0,0,0,0,1303,90,659,0,0,0,100,99,99,101,148,148,148,148,1,0,0,1,1,0,0,4.396240270097984,0,0,0,0,0,0,0,0,0,0,148,148,148,148
4256,1651653055,0,0,0,0,0,0,0,0,0,1,2,-1,1000,0,0,0,0,1303,90,659,0,0,0,100,99,99,100,148,148,148,148,1,0,0,1,1,0,0,4.396240270097984,0,0,0,0,0,0,0,0,0,0,148,148,148,148
4272,1651655052,0,0,0,0,0,0,0,0,0,1,2,-1,1000,0,0,0,0,1303,90,659,0,0,0,100,99,99,100,148,148,148,148,1,0,0,1,1,0,0,4.396240270097984,0,0,0,0,0,0,0,0,0,0,148,148,148,148
4288,1651657049,0,0,0,0,0,0,0,0,0,1,2,-1,1000,0,0,0,0,1302,90,659,0,0,0,100,99,99,100,148,148,148,148,1,0,0,1,1,0,0,4.396240270097984,0,0,0,0,0,0,0,0,0,0,148,148,148,148
4304,1651659050,0,0,0,0,0,0,0,0,0,1,2,-1,1000,0,0,0,0,1302,90,659,0,0,0,100,99,99,100,148,148,148,148,1,0,0,1,1,0,0,4.396240270097984,0,0,0,0,0,0,0,0,0,0,148,148,148,148
4320,1651661045,0,0,0,0,0,0,0,0,0,1,2,-1,1000,0,0,0,0,1302,0,658,0,0,0,101,99,99,100,148,148,148,148,1,0,0,1,1,0,0,4.396240270097984,0,0,0,0,0,0,0,0,0,0,148,148,148,148
4336,1651663044,0,0,0,0,0,0,0,0,0,1,2,-1,1000,0,0,0,0,1302,0,658,0,0,0,101,99,99,100,148,148,148,148,1,0,0,1,1,0,0,4.396240270097984,0,0,0,0,0,0,0,0,0,0,148,148,148,148
4352,1651665039,0,0,0,0,0,0,0,0,0,1,2,-1,1000,0,0,0,0,1302,0,658,0,0,0,101,99,99,101,148,148,148,148,1,0,0,1,1,0,0,4.396240270097984,0,0,0,0,0,0,0,0,0,0,148,148,148,148
4368,1651667037,0,0,0,0,0,0,0,0,0,1,2,-1,1000,0,0,0,0,1302,0,658,0,0,0,100,99,99,101,148,148,148,148,1,0,0,1,1,0,0,4.396240270097984,0,0,0,0,0,0,0,0,0,0,148,148,148,148
4384,1651669035,0,0,0,0,0,0,0,0,0,1,2,-1,1000,0,0,0,0,1302,0,658,0,0,0,100,99,99,100,148,148,148,148,1,0,0,1,1,0,0,4.396240270097984,0,0,0,0,0,0,0,0,0,0,148,148,148,148
4400,1651671032,0,0,0,0,0,0,0,0,0,1,2,-1,1000,0,0,0,0,1302,0,658,0,0,0,100,99,99,100,148,148,148,148,1,0,0,1,1,0,0,4.396240270097984,0,0,0,0,0,0,0,0,0,0,148,148,148,148
4416,1651673032,0,0,0,0,0,0,0,0,0,1,2,-1,1000,0,0,0,0,1302,0,658,0,0,0,100,99,99,100,148,148,148,148,1,0,0,1,1,0,0,4.396240270097984,0,0,0,0,0,0,0,0,0,0,148,148,148,148
4432,1651675030,0,0,0,0,0,0,0,0,0,1,2,-1,1000,0,0,0,0,1302,0,658,0,0,0,100,99,99,100,148,148,148,148,1,0,0,1,1,0,0,4.396240270097984,0,0,0,0,0,0,0,0,0,0,148,148,148,148
4448,1651677027,0,0,0,0,0,0,0,0,0,1,2,-1,1000,0,0,0,0,1301,0,658,0,0,0,100,99,99,100,148,148,148,148,1,0,0,1,1,0,0,4.396240270097984,0,0,0,0,0,0,0,0,0,0,148,148,148,148
4464,1651679024,0,0,0,0,0,0,0,0,0,1,2,-1,1000,0,0,0,0,1301,0,658,0,0,0,101,99,99,100,148,148,148,148,1,0,0,1,1,0,0,4.396240270097984,0,0,0,0,0,0,0,0,0,0,148,148,148,148
4480,1651681025,0,0,0,0,0,0,0,0,0,1,2,-1,1000,0,0,0,0,1301,0,658,0,0,0,101,99,99,100,148,148,148,148,1,0,0,1,1,0,0,4.396240270097984,0,0,0,0,0,0,0,0,0,0,148,148,148,148
4496,1651683019,0,0,0,0,0,0,0,0,0,1,2,-1,1000,0,0,0,0,1301,0,658,0,0,0,101,99,99,100,148,148,148,148,1,0,0,1,1,0,0,4.396240270097984,0,0,0,0,0,0,0,0,0,0,148,148,148,148
4512,1651685018,0,0,0,0,0,0,0,0,0,1,2,-1,1000,0,0,0,0,1301,0,656,0,0,0,101,99,99,100,148,148,148,148,1,0,0,1,1,0,0,4.396240270097984,0,0,0,0,0,0,0,0,0,0,148,148,148,148
4528,1651687013,0,0,0,0,0,0,0,0,0,1,2,-1,1000,0,0,0,0,1301,0,656,1,0,0,101,99,99,101,148,148,148,148,1,0,0,1,1,0,0,4.396240272528932,0,0,0,0,0,0,0,-1,0,0,148,148,148,148
4544,1651689015,0,0,0,0,0,0,0,0,0,1,2,-1,1000,0,0,0,0,1301,0,656,0,0,0,101,99,99,101,148,148,148,148,1,0,0,1,1,0,0,4.396240272528932,0,0,0,0,0,0,0,0,0,0,148,148,148,148
4560,1651691010,0,0,0,0,0,0,0,0,0,1,2,-1,1000,0,0,0,0,1301,0,656,0,0,0,100,99,99,101,148,148,148,148,1,0,0,1,1,0,0,4.396240272528932,0,0,0,0,0,0,0,0,0,0,148,148,148,148
4576,1651693008,0,0,0,0,0,0,0,0,0,1,2,-1,1000,0,0,0,0,1301,0,656,0,0,0,100,99,99,100,148,148,148,148,1,0,0,1,1,0,0,4.396240272528932,0,0,0,0,0,0,0,0,0,0,148,148,148,148
4592,1651695006,0,0,0,0,0,0,0,0,0,1,2,-1,1000,0,0,0,0,1301,0,656,1,0,0,100,99,99,100,148,148,148,148,1,0,0,1,1,0,0,4.396240274963832,0,0,0,0,0,0,0,-1,0,0,148,148,148,148
4608,1651697003,0,0,0,0,0,0,0,0,0,1,2,-1,1000,0,0,0,0,1304,0,657,0,0,0,100,99,99,100,148,148,148,148,1,0,0,1,1,0,0,4.396240274963832,0,0,0,0,0,0,0,0,0,0,148,148,148,148
4624,1651699003,0,0,0,0,0,0,0,0,0,1,2,-1,1000,0,0,0,0,1304,0,657,0,0,0,100,99,99,101,148,148,148,148,1,0,0,1,1,0,0,4.396240274963832,0,0,0,0,0,0,0,0,0,0,148,148,148,148
4640,1651700999,0,0,0,0,0,0,0,0,0,1,2,-1,1000,0,0,0,0,1304,10,657,0,0,0,100,99,99,101,148,148,148,148,1,0,0,1,1,0,0,4.396240274963832,0,0,0,0,0,0,0,0,0,0,148,148,148,148
4656,1651702999,0,0,0,0,0,0,0,0,0,1,2,-1,1000,0,0,0,0,1304,10,657,0,0,0,101,99,99,101,148,148,148,148,1,0,0,1,1,0,0,4.396240274963832,0,0,0,0,0,0,0,0,0,0,148,148,148,148
4672,1651704994,0,0,0,0,0,0,0,0,0,1,2,-1,1000,0,0,0,0,1304,10,657,0,0,0,101,99,99,101,148,148,148,148,1,0,0,1,1,0,0,4.396240274963832,0,0,0,0,0,0,0,0,0,0,148,148,148,148
4688,1651706992,0,0,0,0,0,0,0,0,0,1,2,-1,1000,0,0,0,0,1304,10,657,0,0,0,101,99,99,101,148,148,148,148,1,0,0,1,1,0,0,4.396240274963832,0,0,0,0,0,0,0,0,0,0,148,148,148,148
4704,1651708990,0,0,0,0,0,0,0,0,0,1,2,-1,1000,0,0,0,0,1304,10,658,0,0,0,100,99,99,101,148,148,148,148,1,0,0,1,1,0,0,4.396240274963832,0,0,0,0,0,0,0,0,0,0,148,148,148,148
4720,1651710985,0,0,0,0,0,0,0,0,0,1,2,-1,1000,0,0,0,0,1304,10,658,0,0,0,100,99,99,100,148,148,148,148,1,0,0,1,1,0,0,4.396240274963832,0,0,0,0,0,0,0,0,0,0,148,148,148,148
4736,1651712983,0,0,0,0,0,0,0,0,0,1,2,-1,1000,0,0,0,0,1304,10,658,1,0,0,100,99,99,100,148,148,148,148,1,0,0,1,1,0,0,4.396240277399029,0,0,0,0,0,0,0,-1,0,0,148,148,148,148
4752,1651714982,0,0,0,0,0,0,0,0,0,1,2,-1,1000,0,0,0,0,1304,10,658,0,0,0,101,99,99,100,148,148,148,148,1,0,0,1,1,0,0,4.396240277399029,0,0,0,0,0,0,0,0,0,0,148,148,148,148
4768,1651716981,0,0,0,0,0,0,0,0,0,1,2,-1,1000,0,0,0,0,1301,10,658,0,0,0,101,99,99,100,148,148,148,148,1,0,0,1,1,0,0,4.396240277399029,0,0,0,0,0,0,0,0,0,0,148,148,148,148
4784,1651718975,0,0,0,0,0,0,0,0,0,1,2,-1,1000,0,0,0,0,1301,10,658,0,0,0,101,99,99,100,148,148,148,148,1,0,0,1,1,0,0,4.396240277399029,0,0,0,0,0,0,0,0,0,0,148,148,148,148
4800,1651720973,0,0,0,0,0,0,0,0,0,1,2,-1,1000,0,0,0,0,1301,160,656,0,0,0,100,99,99,100,148,148,148,148,1,0,0,1,1,0,0,4.396240277399029,0,0,0,0,0,0,0,0,0,0,148,148,148,148
4816,1651722971,0,0,0,0,0,0,0,0,0,1,2,-1,1000,0,0,0,0,1301,160,656,0,0,0,100,99,99,100,148,148,148,148,1,0,0,1,1,0,0,4.396240277399029,0,0,0,0,0,0,0,0,0,0,148,148,148,148
4832,1651724973,0,0,0,0,0,0,0,0,0,1,2,-1,1000,0,0,0,0,1301,160,656,0,0,0,100,99,99,100,148,148,148,148,1,0,0,1,1,0,0,4.396240277399029,0,0,0,0,0,0,0,0,0,0,148,148,148,148
4848,1651726967,0,0,0,0,0,0,0,0,0,1,2,-1,1000,0,0,0,0,1301,160,656,0,0,0,101,99,99,100,148,148,148,148,1,0,0,1,1,0,0,4.396240277399029,0,0,0,0,0,0,0,0,0,0,148,148,148,148
4864,1651728966,0,0,0,0,0,0,0,0,0,1,2,-1,1000,0,0,0,0,1301,160,656,0,0,0,101,99,99,100,148,148,148,148,1,0,0,1,1,0,0,4.396240277399029,0,0,0,0,0,0,0,0,0,0,148,148,148,148
4880,1651730962,0,0,0,0,0,0,0,0,0,1,2,-1,1000,0,0,0,0,1301,160,656,0,0,0,101,99,99,100,148,148,148,148,1,0,0,1,1,0,0,4.396240277399029,0,0,0,0,0,0,0,0,0,0,148,148,148,148
4896,1651732960,0,0,0,0,0,0,0,0,0,1,2,-1,1000,0,0,0,0,1301,160,657,0,0,0,100,99,99,100,148,148,148,148,1,0,0,1,1,0,0,4.396240277399029,0,0,0,0,0,0,0,0,0,0,148,148,148,148
4912,1651734958,0,0,0,0,0,0,0,0,0,1,2,-1,1000,0,0,0,0,1301,160,657,0,0,0,100,99,99,100,148,148,148,148,1,0,0,1,1,0,0,4.396240277399029,0,0,0,0,0,0,0,0,0,0,148,148,148,148
4928,1651736953,0,0,0,0,0,0,0,0,0,1,2,-1,1000,0,0,0,0,1301,160,657,1,0,0,100,99,99,100,148,148,148,148,1,0,0,1,1,0,0,4.396240279830865,0,0,0,0,0,0,0,-1,0,0,148,148,148,148
4944,1651738952,0,0,0,0,0,0,0,0,0,1,2,-1,1000,0,0,0,0,1301,160,657,0,0,0,100,99,99,100,148,148,148,148,1,0,0,1,1,0,0,4.396240279830865,0,0,0,0,0,0,0,0,0,0,148,148,148,148
4960,1651740953,0,0,0,0,0,0,0,0,0,1,2,-1,1000,0,0,0,0,1301,160,657,0,0,0,100,99,99,101,148,148,148,148,1,0,0,1,1,0,0,4.396240279830865,0,0,0,0,0,0,0,0,0,0,148,148,148,148
4976,1651742947,0,0,0,0,0,0,0,0,0,1,2,-1,1000,0,0,0,0,1301,0,657,0,0,0,100,99,99,101,148,148,148,148,1,0,0,1,1,0,0,4.396240279830865,0,0,0,0,0,0,0,0,0,0,148,148,148,148
4992,1651744947,0,0,0,0,0,0,0,0,0,1,2,-1,1000,0,0,0,0,1301,0,657,0,0,0,101,99,99,101,148,148,148,148,1,0,0,1,1,0,0,4.396240279830865,0,0,0,0,0,0,0,0,0,0,148,148,148,148
5008,1651746946,0,0,0,0,0,0,0,0,0,1,2,-2,1000,0,0,0,0,1301,0,658,0,0,0,101,99,99,101,148,148,148,148,1,0,0,1,1,0,0,4.396240279830865,0,0,0,0,0,0,0,0,0,0,148,148,148,148
5024,1651748944,0,0,0,0,0,0,0,0,0,1,2,-2,1000,0,0,0,0,1301,0,658,0,0,0,101,99,99,101,148,148,148,148,1,0,0,1,1,0,0,4.396240279830865,0,0,0,0,0,0,0,0,0,0,148,148,148,148
5040,1651750939,0,0,0,0,0,0,0,0,0,1,2,-1,1000,0,0,0,0,1301,0,658,0,0,0,101,99,99,101,148,148,148,148,1,0,0,1,1,0,0,4.396240279830865,0,0,0,0,0,0,0,0,0,0,148,148,148,148
5056,1651752940,0,0,0,0,0,0,0,0,0,1,2,-1,1000,0,0,0,0,1301,0,658,0,0,0,101,99,99,100,148,148,148,148,1,0,0,1,1,0,0,4.396240279830865,0,0,0,0,0,0,0,0,0,0,148,148,148,148
5072,1651754934,0,0,0,0,0,0,0,0,0,1,2,-1,1000,0,0,0,0,1301,0,658,1,0,0,101,99,99,100,148,148,148,148,1,0,0,1,1,0,0,4.396240282261779,0,0,0,0,0,0,0,-1,0,0,148,148,148,148
5088,1651756934,0,0,0,0,0,0,0,0,0,1,2,-1,1000,0,0,0,0,1301,0,658,0,0,0,101,99,99,100,148,148,148,148,1,0,0,1,1,0,0,4.396240282261779,0,0,0,0,0,0,0,0,0,0,148,148,148,148
5104,1651758930,0,0,0,0,0,0,0,0,0,1,2,-1,1000,0,0,0,0,1303,0,657,0,0,0,101,99,99,101,148,148,148,148,1,0,0,1,1,0,0,4.396240282261779,0,0,0,0,0,0,0,0,0,0,148,148,148,148
5120,1651760929,0,0,0,0,0,0,0,0,0,1,2,-1,1000,0,0,0,0,1303,0,657,0,0,0,101,99,99,101,148,148,148,148,1,0,0,1,1,0,0,4.396240282261779,0,0,0,0,0,0,0,0,0,0,148,148,148,148
5136,1651762923,0,0,0,0,0,0,0,0,0,1,2,-1,1000,0,0,0,0,1303,42,657,0,0,0,100,99,99,101,148,148,148,148,1,0,0,1,1,0,0,4.396240282261779,0,0,0,0,0,0,0,0,0,0,148,148,148,148
5152,1651764921,0,0,0,0,0,0,0,0,0,1,2,-1,1000,0,0,0,0,1303,42,657,0,0,0,100,99,99,100,148,148,148,148,1,0,0,1,1,0,0,4.396240282261779,0,0,0,0,0,0,0,0,0,0,148,148,148,148
5168,1651766920,0,0,0,0,0,0,0,0,0,1,2,-1,1000,0,0,0,0,1303,42,657,0,0,0,100,99,99,100,148,148,148,148,1,0,0,1,1,0,0,4.396240282261779,0,0,0,0,0,0,0,0,0,0,148,148,148,148
5184,1651768918,0,0,0,0,0,0,0,0,0,1,2,-1,1000,0,0,0,0,1303,42,657,0,0,0,101,99,99,100,148,148,148,148,1,0,0,1,1,0,0,4.396240282261779,0,0,0,0,0,0,0,0,0,0,148,148,148,148
5200,1651770914,0,0,0,0,0,0,0,0,0,1,2,-1,1000,0,0,0,0,1303,42,658,0,0,0,101,99,99,100,148,148,148,148,1,0,0,1,1,0,0,4.396240282261779,0,0,0,0,0,0,0,0,0,0,148,148,148,148
5216,1651772911,0,0,0,0,0,0,0,0,0,1,2,-1,1000,0,0,0,0,1303,42,658,1,0,0,101,99,99,100,148,148,148,148,1,0,0,1,1,0,0,4.3962402846966455,0,0,0,0,0,0,0,-1,0,0,148,148,148,148
5232,1651774908,0,0,0,0,0,0,0,0,0,1,2,-1,1000,0,0,0,0,1303,42,658,0,0,0,100,99,99,100,148,148,148,148,1,0,0,1,1,0,0,4.3962402846966455,0,0,0,0,0,0,0,0,0,0,148,148,148,148
5248,1651776906,0,0,0,0,0,0,0,0,0,1,2,-1,1000,0,0,0,0,1303,42,658,0,0,0,100,99,99,101,148,148,148,148,1,0,0,1,1,0,0,4.3962402846966455,0,0,0,0,0,0,0,0,0,0,148,148,148,148
5264,1651778905,0,0,0,0,0,0,0,0,0,1,2,-1,1000,0,0,0,0,1302,42,658,0,0,0,100,99,99,101,148,148,148,148,1,0,0,1,1,0,0,4.3962402846966455,0,0,0,0,0,0,0,0,0,0,148,148,148,148
5280,1651780902,0,0,0,0,0,0,0,0,0,1,2,-1,1000,0,0,0,0,1302,42,658,1,0,0,101,99,99,101,148,148,148,148,1,0,0,1,1,0,0,4.39624028713181,0,0,0,0,0,0,0,-1,0,0,148,148,148,148
5296,1651782899,0,0,0,0,0,0,0,0,0,1,2,-1,1000,0,0,0,0,1302,0,659,0,0,0,101,99,99,101,148,148,148,148,1,0,0,1,1,0,0,4.39624028713181,0,0,0,0,0,0,0,0,0,0,148,148,148,148
5312,1651784896,0,0,0,0,0,0,0,0,0,1,2,-1,1000,0,0,0,0,1302,0,659,0,0,0,101,99,99,101,148,148,148,148,1,0,0,1,1,0,0,4.39624028713181,0,0,0,0,0,0,0,0,0,0,148,148,148,148
5328,1651786895,0,0,0,0,0,0,0,0,0,1,2,-1,1000,0,0,0,0,1302,0,659,0,0,0,100,99,99,101,148,148,148,148,1,0,0,1,1,0,0,4.39624028713181,0,0,0,0,0,0,0,0,0,0,148,148,148,148
5344,1651788893,0,0,0,0,0,0,0,0,0,1,2,-1,1000,0,0,0,0,1302,0,659,1,0,0,100,99,99,100,148,148,148,148,1,0,0,1,1,0,0,4.396240289568489,0,0,0,0,0,0,0,-1,0,0,148,148,148,148
5360,1651790893,0,0,0,0,0,0,0,0,0,1,2,-1,1000,0,0,0,0,1302,0,659,0,0,0,100,100,99,100,148,148,148,148,1,0,0,1,1,0,0,4.396240289568489,0,0,0,0,0,0,0,0,0,0,148,148,148,148
5376,1651792888,0,0,0,0,0,0,0,0,0,1,2,-1,1000,0,0,0,0,1302,0,659,0,0,0,101,100,99,100,148,148,148,148,1,0,0,1,1,0,0,4.396240289568489,0,0,0,0,0,0,0,0,0,0,148,148,148,148
5392,1651794886,0,0,0,0,0,0,0,0,0,1,2,-1,1000,0,0,0,0,1302,0,657,0,0,1,101,100,99,100,148,148,148,148,1,0,0,1,1,0,0,4.396205417890035,0,0,0,0,0,0,0,0,0,-1,148,148,148,148
