"Product","Blackbox flight data recorder by Nicholas Sherlock"
"firmwareType",3
"firmware","4.3"
"firmwarePatch",0
"firmwareVersion","4.3.0"
"Firmware revision","Betaflight 4.3.0 (norevision) STM32F7X2"
"Firmware date","Dec 24 2021 18:42:12"
"Board information","FOXE FOXEERF722V2"
"Log start datetime","2022-01-16T20:35:44.972+00:00"
"Craft name","LIMON_6"
"frameIntervalI",256
"frameIntervalPNum",1
"frameIntervalPDenom",16
"minthrottle",1070
"maxthrottle",2000
"gyroScale",1.7453292519943295e-8
"motorOutput","148,2047"
"acc_1G",0
"vbatscale",121
"vbatmincellvoltage",330
"vbatwarningcellvoltage",350
"vbatmaxcellvoltage",430
"vbatref",1306
"currentMeterOffset",0
"currentMeterScale",400
"looptime",125
"gyro_sync_denom",1
"pid_process_denom",1
"thrMid",50
"thrExpo",0
"dynThrPID",60
"tpa_breakpoint",1350
"rc_rates","7,7,7"
"rc_expo","0,0,0"
"rates","67,67,67"
"rate_limits","1998,1998,1998"
"rollPID","0,0,0,0"
"pitchPID","0,0,0,0"
"yawPID","0,0,0,0"
"levelPID","50,50,75"
"magPID","40,,"
"d_min","0,0,0"
"yaw_lpf_hz",100
"dterm_notch_hz",0
"dterm_notch_cutoff",0
"itermWindupPointPercent",85
"iterm_relax",0
"iterm_relax_type",1
"iterm_relax_cutoff",15
"anti_gravity_mode",0
"anti_gravity_threshold",250
"anti_gravity_gain",0
"abs_control_gain",0
"use_integrated_yaw",0
"ff_transition",0
"yawRateAccelLimit",0
"rateAccelLimit",0
"pidSumLimit",500
"pidSumLimitYaw",400
"deadband",0
"yaw_deadband",0
"gyro_lpf",0
"gyro_notch_hz","0,0"
"gyro_notch_cutoff","0,0"
"gyro_to_use",0
"dyn_notch_max_hz",360
"dyn_notch_count",2
"dyn_notch_q",600
"dyn_notch_min_hz",180
"dshot_bidir",1
"motor_poles",14
"acc_lpf_hz",1000
"acc_hardware",1
"baro_hardware",1
"mag_hardware",1
"gyro_cal_on_first_arm",0
"airmode_activate_throttle",25
"serialrx_provider",14
"unsynced_fast_pwm",0
"fast_pwm_protocol",7
"motor_pwm_rate",480
"digitalIdleOffset",500
"debug_mode",45
"features",268698632
"rc_smoothing",1
"rc_smoothing_auto_factor_setpoint",30
"rc_smoothing_auto_factor_throttle",30
"rc_smoothing_debug_axis",0
"rc_smoothing_active_cutoffs_ff_sp_thr","93,93,93"
"rc_smoothing_rx_average",4050
"rates_type",3
"fields_disabled_mask",0
"vbat_sag_compensation",0
"loopIteration","time","axisP[0]","axisP[1]","axisP[2]","axisI[0]","axisI[1]","axisI[2]","axisF[0]","axisF[1]","axisF[2]","rcCommand[0]","rcCommand[1]","rcCommand[2]","rcCommand[3]","setpoint[0]","setpoint[1]","setpoint[2]","setpoint[3]","vbatLatest","amperageLatest","rssi","gyroADC[0]","gyroADC[1]","gyroADC[2]","debug[0]","debug[1]","debug[2]","debug[3]","motor[0]","motor[1]","motor[2]","motor[3]","flightModeFlags","stateFlags","failsafePhase","rxSignalReceived","rxFlightChannelsValid","heading[0]","heading[1]","heading[2]","axisSum[0]","axisSum[1]","axisSum[2]","rcCommands[0]","rcCommands[1]","rcCommands[2]","rcCommands[3]","axisError[0]","axisError[1]","axisError[2]","motorLegacy[0]","motorLegacy[1]","motorLegacy[2]","motorLegacy[3]"
0,21488814,0,0,0,0,0,0,0,0,0,1,2,-1,1000,0,0,0,0,1304,27,690,0,0,0,78,79,78,81,148,148,148,148,"","","","","",0,0,4.396484385773716,0,0,0,0,0,0,0,0,0,0,148,148,148,148
16,21490807,0,0,0,0,0,0,0,0,0,1,3,-1,1000,0,0,0,0,1304,27,690,0,0,0,78,80,78,81,148,148,148,148,1,0,0,1,1,0,0,4.396484385773716,0,0,0,0,0,0,0,0,0,0,148,148,148,148
32,21492806,0,0,0,0,0,0,0,0,0,1,3,-1,1000,0,0,0,0,1304,0,690,0,0,0,78,80,78,81,148,148,148,148,1,0,0,1,1,0,0,4.396484385773716,0,0,0,0,0,0,0,0,0,0,148,148,148,148
48,21494804,0,0,0,0,0,0,0,0,0,1,2,-1,1000,0,0,0,0,1304,0,690,0,0,0,80,80,78,81,148,148,148,148,1,0,0,1,1,0,0,4.396484385773716,0,0,0,0,0,0,0,0,0,0,148,148,148,148
64,21496800,0,0,0,0,0,0,0,0,0,1,2,-1,1000,0,0,0,0,1304,0,690,0,0,0,80,80,79,83,148,148,148,148,1,0,0,1,1,0,0,4.396484385773716,0,0,0,0,0,0,0,0,0,0,148,148,148,148
80,21498799,0,0,0,0,0,0,0,0,0,1,2,-1,1000,0,0,0,0,1304,0,690,0,0,0,80,82,79,83,148,148,148,148,1,0,0,1,1,0,0,4.396484385773716,0,0,0,0,0,0,0,0,0,0,148,148,148,148
96,21500800,0,0,0,0,0,0,0,0,0,1,2,-1,1000,0,0,0,0,1304,0,690,0,0,0,81,82,79,83,148,148,148,148,1,0,0,1,1,0,0,4.396484385773716,0,0,0,0,0,0,0,0,0,0,148,148,148,148
112,21502794,0,0,0,0,0,0,0,0,0,1,2,-1,1000,0,0,0,0,1304,0,690,0,0,0,81,82,79,84,148,148,148,148,1,0,0,1,1,0,0,4.396484385773716,0,0,0,0,0,0,0,0,0,0,148,148,148,148
128,21504793,0,0,0,0,0,0,0,0,0,1,2,-1,1000,0,0,0,0,1303,0,690,0,0,0,81,83,81,84,148,148,148,148,1,0,0,1,1,0,0,4.396484385773716,0,0,0,0,0,0,0,0,0,0,148,148,148,148
144,21506789,0,0,0,0,0,0,0,0,0,1,3,-1,1000,0,0,0,0,1303,0,689,0,-1,0,81,83,81,84,148,148,148,148,1,0,0,1,1,0,0,4.396484385773716,0,0,0,0,0,0,0,0,1,0,148,148,148,148
160,21508787,0,0,0,0,0,0,0,0,0,1,3,-1,1000,0,0,0,0,1303,0,689,0,1,0,83,83,81,84,148,148,148,148,1,0,0,1,1,0,0,4.396484385773716,0,0,0,0,0,0,0,0,-1,0,148,148,148,148
176,21510787,0,0,0,0,0,0,0,0,0,1,2,-1,1000,0,0,0,0,1303,0,689,0,0,0,83,83,81,85,148,148,148,148,1,0,0,1,1,0,0,4.396484385773716,0,0,0,0,0,0,0,0,0,0,148,148,148,148
192,21512866,0,0,0,0,0,0,0,0,0,1,2,-1,1000,0,0,0,0,1303,135,689,0,0,0,83,84,81,85,148,148,148,148,1,0,0,1,1,0,0,4.396484385773716,0,0,0,0,0,0,0,0,0,0,148,148,148,148
208,21514780,0,0,0,0,0,0,0,0,0,1,2,-1,1000,0,0,0,0,1303,135,689,0,0,0,84,84,81,85,148,148,148,148,1,0,0,1,1,0,0,4.396484385773716,0,0,0,0,0,0,0,0,0,0,148,148,148,148
224,21516780,0,0,0,0,0,0,0,0,0,1,2,-1,1000,0,0,0,0,1303,135,689,0,0,0,84,84,81,86,148,148,148,148,1,0,0,1,1,0,0,4.396484385773716,0,0,0,0,0,0,0,0,0,0,148,148,148,148
240,21518776,0,0,0,0,0,0,0,0,0,1,2,-1,1000,0,0,0,0,1303,135,688,0,0,0,84,85,83,86,148,148,148,148,1,0,0,1,1,0,0,4.396484385773716,0,0,0,0,0,0,0,0,0,0,148,148,148,148
256,21520775,0,0,0,0,0,0,0,0,0,1,2,-1,1000,0,0,0,0,1303,135,688,0,0,0,84,85,83,86,148,148,148,148,1,0,0,1,1,0,0,4.396484385773716,0,0,0,0,0,0,0,0,0,0,148,148,148,148
272,21522771,0,0,0,0,0,0,0,0,0,1,2,-1,1000,0,0,0,0,1303,135,688,0,0,0,85,85,83,86,148,148,148,148,1,0,0,1,1,0,0,4.396484385773716,0,0,0,0,0,0,0,0,0,0,148,148,148,148
288,21524771,0,0,0,0,0,0,0,0,0,1,2,-1,1000,0,0,0,0,1305,135,688,0,0,0,85,85,83,86,148,148,148,148,1,0,0,1,1,0,0,4.396484385773716,0,0,0,0,0,0,0,0,0,0,148,148,148,148
304,21526767,0,0,0,0,0,0,0,0,0,1,2,-1,1000,0,0,0,0,1305,135,688,0,0,0,85,87,84,86,148,148,148,148,1,0,0,1,1,0,0,4.396484385773716,0,0,0,0,0,0,0,0,0,0,148,148,148,148
320,21528765,0,0,0,0,0,0,0,0,0,1,2,-1,1000,0,0,0,0,1305,135,688,0,0,0,86,87,84,86,148,148,148,148,1,0,0,1,1,0,0,4.396484385773716,0,0,0,0,0,0,0,0,0,0,148,148,148,148
336,21530763,0,0,0,0,0,0,0,0,0,1,2,-1,1000,0,0,0,0,1305,135,689,0,0,0,86,87,84,88,148,148,148,148,1,0,0,1,1,0,0,4.396484385773716,0,0,0,0,0,0,0,0,0,0,148,148,148,148
352,21532763,0,0,0,0,0,0,0,0,0,1,2,-1,1000,0,0,0,0,1305,7,689,0,0,0,86,87,85,88,148,148,148,148,1,0,0,1,1,0,0,4.396484385773716,0,0,0,0,0,0,0,0,0,0,148,148,148,148
368,21534758,0,0,0,0,0,0,0,0,0,1,2,-1,1000,0,0,0,0,1305,7,689,0,0,0,86,87,85,88,148,148,148,148,1,0,0,1,1,0,0,4.396484385773716,0,0,0,0,0,0,0,0,0,0,148,148,148,148
384,21536759,0,0,0,0,0,0,0,0,0,1,2,-1,1000,0,0,0,0,1305,7,689,0,0,0,87,87,85,88,148,148,148,148,1,0,0,1,1,0,0,4.396484385773716,0,0,0,0,0,0,0,0,0,0,148,148,148,148
400,21538756,0,0,0,0,0,0,0,0,0,1,2,-1,1000,0,0,0,0,1305,7,689,0,0,0,87,88,85,88,148,148,148,148,1,0,0,1,1,0,0,4.396484385773716,0,0,0,0,0,0,0,0,0,0,148,148,148,148
416,21540753,0,0,0,0,0,0,0,0,0,1,2,-1,1000,0,0,0,0,1305,7,689,0,0,0,87,88,86,88,148,148,148,148,1,0,0,1,1,0,0,4.396484385773716,0,0,0,0,0,0,0,0,0,0,148,148,148,148
432,21542751,0,0,0,0,0,0,0,0,0,1,2,-1,1000,0,0,0,0,1305,7,690,0,0,0,88,88,86,88,148,148,148,148,1,0,0,1,1,0,0,4.396484385773716,0,0,0,0,0,0,0,0,0,0,148,148,148,148
448,21544748,0,0,0,0,0,0,0,0,0,1,2,-1,1000,0,0,0,0,1304,7,690,0,0,0,88,88,86,89,148,148,148,148,1,0,0,1,1,0,0,4.396484385773716,0,0,0,0,0,0,0,0,0,0,148,148,148,148
464,21546747,0,0,0,0,0,0,0,0,0,1,2,-1,1000,0,0,0,0,1304,7,690,-1,0,0,88,88,86,89,148,148,148,148,1,0,0,1,1,0,0,4.3964843857724984,0,0,0,0,0,0,0,1,0,0,148,148,148,148
480,21548744,0,0,0,0,0,0,0,0,0,1,2,-1,1000,0,0,0,0,1304,7,690,0,0,0,88,88,86,89,148,148,148,148,1,0,0,1,1,0,0,4.3964843857724984,0,0,0,0,0,0,0,0,0,0,148,148,148,148
496,21550742,0,0,0,0,0,0,0,0,0,1,2,-1,1000,0,0,0,0,1304,7,690,0,0,0,89,88,86,90,148,148,148,148,1,0,0,1,1,0,0,4.3964843857724984,0,0,0,0,0,0,0,0,0,0,148,148,148,148
512,21552738,0,0,0,0,0,0,0,0,0,1,2,-1,1000,0,0,0,0,1304,0,690,0,0,0,89,89,86,90,148,148,148,148,1,0,0,1,1,0,0,4.3964843857724984,0,0,0,0,0,0,0,0,0,0,148,148,148,148
528,21554738,0,0,0,0,0,0,0,0,0,1,2,-1,1000,0,0,0,0,1304,0,689,0,0,0,89,89,88,90,148,148,148,148,1,0,0,1,1,0,0,4.3964843857724984,0,0,0,0,0,0,0,0,0,0,148,148,148,148
544,21556733,0,0,0,0,0,0,0,0,0,1,2,-1,1000,0,0,0,0,1304,0,689,0,0,0,89,89,88,91,148,148,148,148,1,0,0,1,1,0,0,4.3964843857724984,0,0,0,0,0,0,0,0,0,0,148,148,148,148
560,21558731,0,0,0,0,0,0,0,0,0,1,2,-1,1000,0,0,0,0,1304,0,689,0,0,0,89,89,88,91,148,148,148,148,1,0,0,1,1,0,0,4.3964843857724984,0,0,0,0,0,0,0,0,0,0,148,148,148,148
576,21560729,0,0,0,0,0,0,0,0,0,1,2,-1,1000,0,0,0,0,1304,0,689,0,0,0,89,90,88,91,148,148,148,148,1,0,0,1,1,0,0,4.3964843857724984,0,0,0,0,0,0,0,0,0,0,148,148,148,148
592,21562727,0,0,0,0,0,0,0,0,0,1,2,-1,1000,0,0,0,0,1304,0,689,0,0,0,90,90,88,91,148,148,148,148,1,0,0,1,1,0,0,4.3964843857724984,0,0,0,0,0,0,0,0,0,0,148,148,148,148
608,21564725,0,0,0,0,0,0,0,0,0,1,2,-1,1000,0,0,0,0,1306,0,689,0,0,0,90,90,88,91,148,148,148,148,1,0,0,1,1,0,0,4.3964843857724984,0,0,0,0,0,0,0,0,0,0,148,148,148,148
624,21566725,0,0,0,0,0,0,0,0,0,1,2,-1,1000,0,0,0,0,1306,0,691,0,0,0,90,90,89,91,148,148,148,148,1,0,0,1,1,0,0,4.3964843857724984,0,0,0,0,0,0,0,0,0,0,148,148,148,148
640,21568722,0,0,0,0,0,0,0,0,0,1,2,-1,1000,0,0,0,0,1306,0,691,0,0,0,90,90,89,91,148,148,148,148,1,0,0,1,1,0,0,4.3964843857724984,0,0,0,0,0,0,0,0,0,0,148,148,148,148
656,21570720,0,0,0,0,0,0,0,0,0,1,2,-1,1000,0,0,0,0,1306,0,691,0,0,0,91,90,89,92,148,148,148,148,1,0,0,1,1,0,0,4.3964843857724984,0,0,0,0,0,0,0,0,0,0,148,148,148,148
672,21572718,0,0,0,0,0,0,0,0,0,1,2,-1,1000,0,0,0,0,1306,0,691,0,0,0,91,91,89,92,148,148,148,148,1,0,0,1,1,0,0,4.3964843857724984,0,0,0,0,0,0,0,0,0,0,148,148,148,148
688,21574713,0,0,0,0,0,0,0,0,0,1,2,-1,1000,0,0,0,0,1306,0,691,0,0,0,91,91,89,92,148,148,148,148,1,0,0,1,1,0,0,4.3964843857724984,0,0,0,0,0,0,0,0,0,0,148,148,148,148
704,21576714,0,0,0,0,0,0,0,0,0,1,2,-1,1000,0,0,0,0,1306,0,691,0,0,0,92,91,89,92,148,148,148,148,1,0,0,1,1,0,0,4.3964843857724984,0,0,0,0,0,0,0,0,0,0,148,148,148,148
720,21578710,0,0,0,0,0,0,0,0,0,1,2,-1,1000,0,0,0,0,1306,0,689,0,0,0,92,91,89,92,148,148,148,148,1,0,0,1,1,0,0,4.3964843857724984,0,0,0,0,0,0,0,0,0,0,148,148,148,148
736,21580707,0,0,0,0,0,0,0,0,0,1,2,-1,1000,0,0,0,0,1306,0,689,0,0,0,92,91,89,92,148,148,148,148,1,0,0,1,1,0,0,4.3964843857724984,0,0,0,0,0,0,0,0,0,0,148,148,148,148
752,21582705,0,0,0,0,0,0,0,0,0,1,2,-1,1000,0,0,0,0,1306,0,689,0,0,0,92,91,89,92,148,148,148,148,1,0,0,1,1,0,0,4.3964843857724984,0,0,0,0,0,0,0,0,0,0,148,148,148,148
768,21584703,0,0,0,0,0,0,0,0,0,1,2,-1,1000,0,0,0,0,1303,0,689,0,0,0,92,91,89,92,148,148,148,148,1,0,0,1,1,0,0,4.3964843857724984,0,0,0,0,0,0,0,0,0,0,148,148,148,148
784,21586700,0,0,0,0,0,0,0,0,0,1,2,-1,1000,0,0,0,0,1303,0,689,0,1,0,92,92,91,92,148,148,148,148,1,0,0,1,1,0,0,4.3964843857724984,0,0,0,0,0,0,0,0,-1,0,148,148,148,148
800,21588698,0,0,0,0,0,0,0,0,0,1,2,-1,1000,0,0,0,0,1303,0,689,0,0,0,93,92,91,92,148,148,148,148,1,0,0,1,1,0,0,4.3964843857724984,0,0,0,0,0,0,0,0,0,0,148,148,148,148
816,21590696,0,0,0,0,0,0,0,0,0,1,2,-1,1000,0,0,0,0,1303,0,688,0,0,0,93,92,91,94,148,148,148,148,1,0,0,1,1,0,0,4.3964843857724984,0,0,0,0,0,0,0,0,0,0,148,148,148,148
832,21592693,0,0,0,0,0,0,0,0,0,1,2,-1,1000,0,0,0,0,1303,0,688,0,0,0,93,93,91,94,148,148,148,148,1,0,0,1,1,0,0,4.3964843857724984,0,0,0,0,0,0,0,0,0,0,148,148,148,148
848,21594692,0,0,0,0,0,0,0,0,0,1,2,-1,1000,0,0,0,0,1303,0,688,0,0,0,93,93,91,94,148,148,148,148,1,0,0,1,1,0,0,4.3964843857724984,0,0,0,0,0,0,0,0,0,0,148,148,148,148
864,21596690,0,0,0,0,0,0,0,0,0,1,2,-1,1000,0,0,0,0,1303,0,688,1,0,0,94,93,91,94,148,148,148,148,1,0,0,1,1,0,0,4.396484386989141,0,0,0,0,0,0,0,-1,0,0,148,148,148,148
880,21598691,0,0,0,0,0,0,0,0,0,1,2,-1,1000,0,0,0,0,1303,0,688,0,0,0,94,93,91,94,148,148,148,148,1,0,0,1,1,0,0,4.396484386989141,0,0,0,0,0,0,0,0,0,0,148,148,148,148
896,21600687,0,0,0,0,0,0,0,0,0,1,2,-1,1000,0,0,0,0,1303,0,688,0,0,0,94,93,91,94,148,148,148,148,1,0,0,1,1,0,0,4.396484386989141,0,0,0,0,0,0,0,0,0,0,148,148,148,148
912,21602685,0,0,0,0,0,0,0,0,0,1,2,-1,1000,0,0,0,0,1303,0,689,0,0,0,93,93,91,94,148,148,148,148,1,0,0,1,1,0,0,4.396484386989141,0,0,0,0,0,0,0,0,0,0,148,148,148,148
928,21604680,0,0,0,0,0,0,0,0,0,1,2,-1,1000,0,0,0,0,1304,0,689,0,0,0,93,93,91,94,148,148,148,148,1,0,0,1,1,0,0,4.396484386989141,0,0,0,0,0,0,0,0,0,0,148,148,148,148
944,21606680,0,0,0,0,0,0,0,0,0,1,2,-1,1000,0,0,0,0,1304,0,689,0,0,0,93,93,92,94,148,148,148,148,1,0,0,1,1,0,0,4.396484386989141,0,0,0,0,0,0,0,0,0,0,148,148,148,148
960,21608677,0,0,0,0,0,0,0,0,0,1,2,-1,1000,0,0,0,0,1304,0,689,0,0,0,94,93,92,95,148,148,148,148,1,0,0,1,1,0,0,4.396484386989141,0,0,0,0,0,0,0,0,0,0,148,148,148,148
976,21610676,0,0,0,0,0,0,0,0,0,1,2,-1,1000,0,0,0,0,1304,0,689,0,0,0,94,93,92,95,148,148,148,148,1,0,0,1,1,0,0,4.396484386989141,0,0,0,0,0,0,0,0,0,0,148,148,148,148
992,21612673,0,0,0,0,0,0,0,0,0,1,2,-1,1000,0,0,0,0,1304,117,689,0,0,0,94,94,93,95,148,148,148,148,1,0,0,1,1,0,0,4.396484386989141,0,0,0,0,0,0,0,0,0,0,148,148,148,148
1008,21614670,0,0,0,0,0,0,0,0,0,1,2,-1,1000,0,0,0,0,1304,117,689,0,0,0,94,94,93,95,148,148,148,148,1,0,0,1,1,0,0,4.396484386989141,0,0,0,0,0,0,0,0,0,0,148,148,148,148
1024,21616669,0,0,0,0,0,0,0,0,0,1,2,-1,1000,0,0,0,0,1304,117,689,0,0,0,94,94,93,95,148,148,148,148,1,0,0,1,1,0,0,4.396484386989141,0,0,0,0,0,0,0,0,0,0,148,148,148,148
1040,21618667,0,0,0,0,0,0,0,0,0,1,2,-1,1000,0,0,0,0,1304,117,689,0,0,0,94,94,93,95,148,148,148,148,1,0,0,1,1,0,0,4.396484386989141,0,0,0,0,0,0,0,0,0,0,148,148,148,148
1056,21620668,0,0,0,0,0,0,0,0,0,1,2,-1,1000,0,0,0,0,1304,117,689,0,0,0,95,94,93,95,148,148,148,148,1,0,0,1,1,0,0,4.396484386989141,0,0,0,0,0,0,0,0,0,0,148,148,148,148
1072,21622661,0,0,0,0,0,0,0,0,0,1,2,-1,1000,0,0,0,0,1304,117,689,0,0,0,95,94,93,95,148,148,148,148,1,0,0,1,1,0,0,4.396484386989141,0,0,0,0,0,0,0,0,0,0,148,148,148,148
1088,21624658,0,0,0,0,0,0,0,0,0,1,2,-1,1000,0,0,0,0,1306,117,689,0,0,0,95,95,93,95,148,148,148,148,1,0,0,1,1,0,0,4.396484386989141,0,0,0,0,0,0,0,0,0,0,148,148,148,148
1104,21626659,0,0,0,0,0,0,0,0,0,1,2,-1,1000,0,0,0,0,1306,117,689,0,0,0,95,95,93,96,148,148,148,148,1,0,0,1,1,0,0,4.396484386989141,0,0,0,0,0,0,0,0,0,0,148,148,148,148
1120,21628656,0,0,0,0,0,0,0,0,0,1,2,-1,1000,0,0,0,0,1306,117,689,0,0,0,95,95,93,96,148,148,148,148,1,0,0,1,1,0,0,4.396484386989141,0,0,0,0,0,0,0,0,0,0,148,148,148,148
1136,21630652,0,0,0,0,0,0,0,0,0,1,3,-2,1000,0,0,0,0,1306,117,689,0,0,0,95,94,93,96,148,148,148,148,1,0,0,1,1,0,0,4.396484386989141,0,0,0,0,0,0,0,0,0,0,148,148,148,148
1152,21632650,0,0,0,0,0,0,0,0,0,1,3,-2,1000,0,0,0,0,1306,0,689,0,0,0,95,94,94,96,148,148,148,148,1,0,0,1,1,0,0,4.396484386989141,0,0,0,0,0,0,0,0,0,0,148,148,148,148
1168,21634648,0,0,0,0,0,0,0,0,0,1,2,-1,1000,0,0,0,0,1306,0,689,0,0,0,95,94,94,96,148,148,148,148,1,0,0,1,1,0,0,4.396484386989141,0,0,0,0,0,0,0,0,0,0,148,148,148,148
1184,21636645,0,0,0,0,0,0,0,0,0,1,2,-1,1000,0,0,0,0,1306,0,689,0,0,0,95,95,94,96,148,148,148,148,1,0,0,1,1,0,0,4.396484386989141,0,0,0,0,0,0,0,0,0,0,148,148,148,148
1200,21638644,0,0,0,0,0,0,0,0,0,1,2,-1,1000,0,0,0,0,1306,0,691,0,0,0,95,95,94,96,148,148,148,148,1,0,0,1,1,0,0,4.396484386989141,0,0,0,0,0,0,0,0,0,0,148,148,148,148
1216,21640641,0,0,0,0,0,0,0,0,0,1,2,-1,1000,0,0,0,0,1306,0,691,0,0,0,97,95,94,97,148,148,148,148,1,0,0,1,1,0,0,4.396484386989141,0,0,0,0,0,0,0,0,0,0,148,148,148,148
1232,21642643,0,0,0,0,0,0,0,0,0,1,2,-1,1000,0,0,0,0,1306,0,691,0,0,0,97,96,94,97,148,148,148,148,1,0,0,1,1,0,0,4.396484386989141,0,0,0,0,0,0,0,0,0,0,148,148,148,148
1248,21644644,0,0,0,0,0,0,0,0,0,1,2,-1,1000,0,0,0,0,1307,0,691,0,0,0,97,96,94,97,148,148,148,148,1,0,0,1,1,0,0,4.396484386989141,0,0,0,0,0,0,0,0,0,0,148,148,148,148
1264,21646636,0,0,0,0,0,0,0,0,0,1,2,-1,1000,0,0,0,0,1307,0,691,0,0,0,96,96,94,97,148,148,148,148,1,0,0,1,1,0,0,4.396484386989141,0,0,0,0,0,0,0,0,0,0,148,148,148,148
1280,21648633,0,0,0,0,0,0,0,0,0,1,2,-1,1000,0,0,0,0,1307,0,691,0,0,0,96,96,94,97,148,148,148,148,1,0,0,1,1,0,0,4.396484386989141,0,0,0,0,0,0,0,0,0,0,148,148,148,148
1296,21650632,0,0,0,0,0,0,0,0,0,1,2,-1,1000,0,0,0,0,1307,0,691,0,0,0,96,96,94,97,148,148,148,148,1,0,0,1,1,0,0,4.396484386989141,0,0,0,0,0,0,0,0,0,0,148,148,148,148
1312,21652629,0,0,0,0,0,0,0,0,0,1,2,-1,1000,0,0,0,0,1307,0,688,0,0,0,97,96,94,97,148,148,148,148,1,0,0,1,1,0,0,4.396484386989141,0,0,0,0,0,0,0,0,0,0,148,148,148,148
1328,21654628,0,0,0,0,0,0,0,0,0,1,2,-1,1000,0,0,0,0,1307,0,688,0,0,0,97,96,94,97,148,148,148,148,1,0,0,1,1,0,0,4.396484386989141,0,0,0,0,0,0,0,0,0,0,148,148,148,148
1344,21656623,0,0,0,0,0,0,0,0,0,1,2,-1,1000,0,0,0,0,1307,0,688,0,0,0,97,96,94,97,148,148,148,148,1,0,0,1,1,0,0,4.396484386989141,0,0,0,0,0,0,0,0,0,0,148,148,148,148
1360,21658622,0,0,0,0,0,0,0,0,0,1,2,-1,1000,0,0,0,0,1307,0,688,0,0,0,97,96,94,97,148,148,148,148,1,0,0,1,1,0,0,4.396484386989141,0,0,0,0,0,0,0,0,0,0,148,148,148,148
1376,21660619,0,0,0,0,0,0,0,0,0,1,2,-1,1000,0,0,0,0,1307,0,688,0,0,0,97,96,94,97,148,148,148,148,1,0,0,1,1,0,0,4.396484386989141,0,0,0,0,0,0,0,0,0,0,148,148,148,148
1392,21662619,0,0,0,0,0,0,0,0,0,1,2,-1,1000,0,0,0,0,1307,0,688,0,0,0,97,96,94,97,148,148,148,148,1,0,0,1,1,0,0,4.396484386989141,0,0,0,0,0,0,0,0,0,0,148,148,148,148
1408,21664617,0,0,0,0,0,0,0,0,0,1,2,-1,1000,0,0,0,0,1307,0,688,0,0,0,97,96,95,97,148,148,148,148,1,0,0,1,1,0,0,4.396484386989141,0,0,0,0,0,0,0,0,0,0,148,148,148,148
1424,21666612,0,0,0,0,0,0,0,0,0,1,2,-1,1000,0,0,0,0,1307,0,688,-1,0,0,97,96,95,97,148,148,148,148,1,0,0,1,1,0,0,4.396484385774325,0,0,0,0,0,0,0,1,0,0,148,148,148,148
1440,21668610,0,0,0,0,0,0,0,0,0,1,2,-1,1000,0,0,0,0,1307,0,688,0,0,0,97,96,95,97,148,148,148,148,1,0,0,1,1,0,0,4.396484385774325,0,0,0,0,0,0,0,0,0,0,148,148,148,148
1456,21670611,0,0,0,0,0,0,0,0,0,1,2,-1,1000,0,0,0,0,1307,0,688,0,0,0,97,96,96,98,148,148,148,148,1,0,0,1,1,0,0,4.396484385774325,0,0,0,0,0,0,0,0,0,0,148,148,148,148
1472,21672607,0,0,0,0,0,0,0,0,0,1,2,-1,1000,0,0,0,0,1307,0,688,0,0,0,97,96,96,98,148,148,148,148,1,0,0,1,1,0,0,4.396484385774325,0,0,0,0,0,0,0,0,0,0,148,148,148,148
1488,21674607,0,0,0,0,0,0,0,0,0,1,2,-1,1000,0,0,0,0,1307,67,688,0,0,-1,97,97,96,98,148,148,148,148,1,0,0,1,1,0,0,4.396519292359365,0,0,0,0,0,0,0,0,0,1,148,148,148,148
1504,21676601,0,0,0,0,0,0,0,0,0,1,2,-1,1000,0,0,0,0,1307,67,687,0,0,0,98,97,96,98,148,148,148,148,1,0,0,1,1,0,0,4.396519292359365,0,0,0,0,0,0,0,0,0,0,148,148,148,148
1520,21678601,0,0,0,0,0,0,0,0,0,1,2,-1,1000,0,0,0,0,1307,67,687,0,0,0,98,97,96,98,148,148,148,148,1,0,0,1,1,0,0,4.396519292359365,0,0,0,0,0,0,0,0,0,0,148,148,148,148
1536,21680597,0,0,0,0,0,0,0,0,0,1,2,-1,1000,0,0,0,0,1307,67,687,0,0,0,98,97,96,98,148,148,148,148,1,0,0,1,1,0,0,4.396519292359365,0,0,0,0,0,0,0,0,0,0,148,148,148,148
1552,21682595,0,0,0,0,0,0,0,0,0,1,2,-1,1000,0,0,0,0,1307,67,687,0,0,0,98,97,96,98,148,148,148,148,1,0,0,1,1,0,0,4.396519292359365,0,0,0,0,0,0,0,0,0,0,148,148,148,148
1568,21684592,0,0,0,0,0,0,0,0,0,1,2,-1,1000,0,0,0,0,1307,67,687,0,0,0,98,97,96,98,148,148,148,148,1,0,0,1,1,0,0,4.396519292359365,0,0,0,0,0,0,0,0,0,0,148,148,148,148
1584,21686593,0,0,0,0,0,0,0,0,0,1,2,-1,1000,0,0,0,0,1304,67,687,0,0,0,98,97,96,98,148,148,148,148,1,0,0,1,1,0,0,4.396519292359365,0,0,0,0,0,0,0,0,0,0,148,148,148,148
1600,21688588,0,0,0,0,0,0,0,0,0,1,4,-1,1000,0,0,0,0,1304,67,687,0,0,0,98,97,96,98,148,148,148,148,1,0,0,1,1,0,0,4.396519292359365,0,0,0,0,0,0,0,0,0,0,148,148,148,148
1616,21690586,0,0,0,0,0,0,0,0,0,1,4,-1,1000,0,1,0,0,1304,67,687,0,0,-1,98,97,96,98,148,148,148,148,1,0,0,1,1,0,0,4.39655416403782,0,0,0,0,1,0,0,0,1,1,148,148,148,148
1632,21692584,0,0,0,0,0,0,0,0,0,1,2,-1,1000,0,1,0,0,1304,67,687,0,0,0,98,97,96,98,148,148,148,148,1,0,0,1,1,0,0,4.39655416403782,0,0,0,0,1,0,0,0,1,0,148,148,148,148
1648,21694581,0,0,0,0,0,0,0,0,0,1,2,-1,1000,0,0,0,0,1304,90,687,0,0,0,98,97,97,99,148,148,148,148,1,0,0,1,1,0,0,4.39655416403782,0,0,0,0,0,0,0,0,0,0,148,148,148,148
1664,21696579,0,0,0,0,0,0,0,0,0,1,3,-1,1000,0,0,0,0,1304,90,687,1,0,-1,98,97,97,99,148,148,148,148,1,0,0,1,1,0,0,4.396589036932875,0,0,0,0,0,0,0,-1,0,1,148,148,148,148
1680,21698577,0,0,0,0,0,0,0,0,0,1,3,-1,1000,0,0,0,0,1304,90,687,0,0,0,98,97,97,99,148,148,148,148,1,0,0,1,1,0,0,4.396589036932875,0,0,0,0,0,0,0,0,0,0,148,148,148,148
1696,21700574,0,0,0,0,0,0,0,0,0,1,2,-1,1000,0,0,0,0,1304,90,687,0,0,0,98,97,97,98,148,148,148,148,1,0,0,1,1,0,0,4.396589036932875,0,0,0,0,0,0,0,0,0,0,148,148,148,148
1712,21702572,0,0,0,0,0,0,0,0,0,1,2,-1,1000,0,0,0,0,1304,90,687,0,0,0,98,97,96,98,148,148,148,148,1,0,0,1,1,0,0,4.396589036932875,0,0,0,0,0,0,0,0,0,0,148,148,148,148
1728,21704572,0,0,0,0,0,0,0,0,0,1,2,-1,1000,0,0,0,0,1304,90,687,0,0,0,98,98,96,98,148,148,148,148,1,0,0,1,1,0,0,4.396589036932875,0,0,0,0,0,0,0,0,0,0,148,148,148,148
1744,21706570,0,0,0,0,0,0,0,0,0,1,2,-1,1000,0,0,0,0,1308,90,687,0,0,0,98,98,96,99,148,148,148,148,1,0,0,1,1,0,0,4.396589036932875,0,0,0,0,0,0,0,0,0,0,148,148,148,148
1760,21708568,0,0,0,0,0,0,0,0,0,1,2,-1,1000,0,0,0,0,1308,90,687,0,0,0,99,98,97,99,148,148,148,148,1,0,0,1,1,0,0,4.396589036932875,0,0,0,0,0,0,0,0,0,0,148,148,148,148
1776,21710564,0,0,0,0,0,0,0,0,0,1,2,-1,1000,0,0,0,0,1308,90,687,0,0,0,99,97,97,99,148,148,148,148,1,0,0,1,1,0,0,4.396589036932875,0,0,0,0,0,0,0,0,0,0,148,148,148,148
1792,21712565,0,0,0,0,0,0,0,0,0,1,2,-1,1000,0,0,0,0,1308,90,688,0,0,0,99,97,97,99,148,148,148,148,1,0,0,1,1,0,0,4.396589036932875,0,0,0,0,0,0,0,0,0,0,148,148,148,148
1808,21714559,0,0,0,0,0,0,0,0,0,1,2,-1,1000,0,0,0,0,1308,0,688,0,0,0,98,97,97,99,148,148,148,148,1,0,0,1,1,0,0,4.396589036932875,0,0,0,0,0,0,0,0,0,0,148,148,148,148
1824,21716557,0,0,0,0,0,0,0,0,0,1,2,-1,1000,0,0,0,0,1308,0,688,0,0,0,98,97,97,99,148,148,148,148,1,0,0,1,1,0,0,4.396589036932875,0,0,0,0,0,0,0,0,0,0,148,148,148,148
1840,21718554,0,0,0,0,0,0,0,0,0,1,2,-1,1000,0,0,0,0,1308,0,688,0,0,0,98,98,97,100,148,148,148,148,1,0,0,1,1,0,0,4.396589036932875,0,0,0,0,0,0,0,0,0,0,148,148,148,148
1856,21720552,0,0,0,0,0,0,0,0,0,1,2,-1,1000,0,0,0,0,1308,0,688,0,0,0,99,98,97,100,148,148,148,148,1,0,0,1,1,0,0,4.396589036932875,0,0,0,0,0,0,0,0,0,0,148,148,148,148
1872,21722552,0,0,0,0,0,0,0,0,0,1,2,-1,1000,0,0,0,0,1308,0,688,0,0,0,99,98,97,100,148,148,148,148,1,0,0,1,1,0,0,4.396589036932875,0,0,0,0,0,0,0,0,0,0,148,148,148,148
1888,21724550,0,0,0,0,0,0,0,0,0,1,2,-1,1000,0,0,0,0,1308,0,688,0,0,0,99,98,97,98,148,148,148,148,1,0,0,1,1,0,0,4.396589036932875,0,0,0,0,0,0,0,0,0,0,148,148,148,148
1904,21726548,0,0,0,0,0,0,0,0,0,1,2,-1,1000,0,0,0,0,1304,0,688,0,0,-1,99,98,97,98,148,148,148,148,1,0,0,1,1,0,0,4.396623908611329,0,0,0,0,0,0,0,0,0,1,148,148,148,148
1920,21728546,0,0,0,0,0,0,0,0,0,1,2,-1,1000,0,0,0,0,1304,0,688,0,0,0,99,98,97,98,148,148,148,148,1,0,0,1,1,0,0,4.396623908611329,0,0,0,0,0,0,0,0,0,0,148,148,148,148
1936,21730546,0,0,0,0,0,0,0,0,0,1,2,-1,1000,0,0,0,0,1304,0,688,0,0,0,99,98,97,100,148,148,148,148,1,0,0,1,1,0,0,4.396623908611329,0,0,0,0,0,0,0,0,0,0,148,148,148,148
1952,21732541,0,0,0,0,0,0,0,0,0,1,2,-1,1000,0,0,0,0,1304,0,688,0,0,0,99,98,97,100,148,148,148,148,1,0,0,1,1,0,0,4.396623908611329,0,0,0,0,0,0,0,0,0,0,148,148,148,148
1968,21734539,0,0,0,0,0,0,0,0,0,1,2,-1,1000,0,0,0,0,1304,0,688,0,0,0,99,98,97,100,148,148,148,148,1,0,0,1,1,0,0,4.396623908611329,0,0,0,0,0,0,0,0,0,0,148,148,148,148
1984,21736535,0,0,0,0,0,0,0,0,0,1,3,-1,1000,0,0,0,0,1304,0,688,0,0,0,99,98,97,99,148,148,148,148,1,0,0,1,1,0,0,4.396623908611329,0,0,0,0,0,0,0,0,0,0,148,148,148,148
2000,21738532,0,0,0,0,0,0,0,0,0,1,3,-1,1000,0,0,0,0,1304,0,688,0,0,0,99,98,97,99,148,148,148,148,1,0,0,1,1,0,0,4.396623908611329,0,0,0,0,0,0,0,0,0,0,148,148,148,148
2016,21740531,0,0,0,0,0,0,0,0,0,1,2,-1,1000,0,0,0,0,1304,0,688,0,0,0,99,98,97,99,148,148,148,148,1,0,0,1,1,0,0,4.396623908611329,0,0,0,0,0,0,0,0,0,0,148,148,148,148
2032,21742528,0,0,0,0,0,0,0,0,0,1,2,-1,1000,0,0,0,0,1304,0,688,0,0,0,99,98,97,100,148,148,148,148,1,0,0,1,1,0,0,4.396623908611329,0,0,0,0,0,0,0,0,0,0,148,148,148,148
2048,21744526,0,0,0,0,0,0,0,0,0,1,2,-1,1000,0,0,0,0,1304,0,688,0,0,0,99,98,98,100,148,148,148,148,1,0,0,1,1,0,0,4.396623908611329,0,0,0,0,0,0,0,0,0,0,148,148,148,148
2064,21746524,0,0,0,0,0,0,0,0,0,1,2,-1,1000,0,0,0,0,1304,0,688,0,0,0,99,98,98,100,148,148,148,148,1,0,0,1,1,0,0,4.396623908611329,0,0,0,0,0,0,0,0,0,0,148,148,148,148
2080,21748522,0,0,0,0,0,0,0,0,0,1,2,-1,1000,0,0,0,0,1304,0,687,0,0,0,99,99,98,100,148,148,148,148,1,0,0,1,1,0,0,4.396623908611329,0,0,0,0,0,0,0,0,0,0,148,148,148,148
2096,21750521,0,0,0,0,0,0,0,0,0,1,2,-1,1000,0,0,0,0,1304,0,687,0,0,0,100,99,98,100,148,148,148,148,1,0,0,1,1,0,0,4.396623908611329,0,0,0,0,0,0,0,0,0,0,148,148,148,148
2112,21752522,0,0,0,0,0,0,0,0,0,1,2,-1,1000,0,0,0,0,1304,0,687,0,0,0,100,99,98,100,148,148,148,148,1,0,0,1,1,0,0,4.396623908611329,0,0,0,0,0,0,0,0,0,0,148,148,148,148
2128,21754516,0,0,0,0,0,0,0,0,0,1,2,-1,1000,0,0,0,0,1304,85,687,0,0,0,100,98,98,100,148,148,148,148,1,0,0,1,1,0,0,4.396623908611329,0,0,0,0,0,0,0,0,0,0,148,148,148,148
2144,21756513,0,0,0,0,0,0,0,0,0,1,2,-1,1000,0,0,0,0,1304,85,687,0,0,0,100,98,98,100,148,148,148,148,1,0,0,1,1,0,0,4.396623908611329,0,0,0,0,0,0,0,0,0,0,148,148,148,148
2160,21758511,0,0,0,0,0,0,0,0,0,1,2,-1,1000,0,0,0,0,1304,85,687,0,0,0,100,98,98,100,148,148,148,148,1,0,0,1,1,0,0,4.396623908611329,0,0,0,0,0,0,0,0,0,0,148,148,148,148
2176,21760509,0,0,0,0,0,0,0,0,0,1,2,-1,1000,0,0,0,0,1304,85,689,0,0,0,100,99,98,101,148,148,148,148,1,0,0,1,1,0,0,4.396623908611329,0,0,0,0,0,0,0,0,0,0,148,148,148,148
2192,21762506,0,0,0,0,0,0,0,0,0,1,2,-1,1000,0,0,0,0,1304,85,689,0,0,0,99,99,98,101,148,148,148,148,1,0,0,1,1,0,0,4.396623908611329,0,0,0,0,0,0,0,0,0,0,148,148,148,148
2208,21764504,0,0,0,0,0,0,0,0,0,1,2,-1,1000,0,0,0,0,1304,85,689,0,0,0,99,99,98,101,148,148,148,148,1,0,0,1,1,0,0,4.396623908611329,0,0,0,0,0,0,0,0,0,0,148,148,148,148
2224,21766502,0,0,0,0,0,0,0,0,0,1,2,-1,1000,0,0,0,0,1303,85,689,0,0,0,99,99,98,100,148,148,148,148,1,0,0,1,1,0,0,4.396623908611329,0,0,0,0,0,0,0,0,0,0,148,148,148,148
2240,21768499,0,0,0,0,0,0,0,0,0,1,2,-1,1000,0,0,0,0,1303,85,689,0,0,0,100,99,98,100,148,148,148,148,1,0,0,1,1,0,0,4.396623908611329,0,0,0,0,0,0,0,0,0,0,148,148,148,148
2256,21770498,0,0,0,0,0,0,0,0,0,1,2,-1,1000,0,0,0,0,1303,85,689,0,0,0,100,99,98,100,148,148,148,148,1,0,0,1,1,0,0,4.396623908611329,0,0,0,0,0,0,0,0,0,0,148,148,148,148
2272,21772495,0,0,0,0,0,0,0,0,0,1,2,-1,1000,0,0,0,0,1303,85,689,0,0,0,100,99,98,100,148,148,148,148,1,0,0,1,1,0,0,4.396623908611329,0,0,0,0,0,0,0,0,0,0,148,148,148,148
2288,21774495,0,0,0,0,0,0,0,0,0,1,2,-1,1000,0,0,0,0,1303,37,689,0,0,0,100,99,98,100,148,148,148,148,1,0,0,1,1,0,0,4.396623908611329,0,0,0,0,0,0,0,0,0,0,148,148,148,148
2304,21776492,0,0,0,0,0,0,0,0,0,1,2,-2,1000,0,0,0,0,1303,37,689,0,0,0,100,99,98,100,148,148,148,148,1,0,0,1,1,0,0,4.396623908611329,0,0,0,0,0,0,0,0,0,0,148,148,148,148
2320,21778488,0,0,0,0,0,0,0,0,0,1,2,-2,1000,0,0,0,0,1303,37,689,0,0,0,100,99,98,100,148,148,148,148,1,0,0,1,1,0,0,4.396623908611329,0,0,0,0,0,0,0,0,0,0,148,148,148,148
2336,21780486,0,0,0,0,0,0,0,0,0,1,3,-2,1000,0,0,0,0,1303,37,689,0,0,0,100,99,98,100,148,148,148,148,1,0,0,1,1,0,0,4.396623908611329,0,0,0,0,0,0,0,0,0,0,148,148,148,148
2352,21782484,0,0,0,0,0,0,0,0,0,1,3,-2,1000,0,0,0,0,1303,37,689,0,0,0,100,99,98,100,148,148,148,148,1,0,0,1,1,0,0,4.396623908611329,0,0,0,0,0,0,0,0,0,0,148,148,148,148
2368,21784482,0,0,0,0,0,0,0,0,0,1,3,-1,1000,0,0,0,0,1303,37,688,0,0,-1,100,99,98,100,148,148,148,148,1,0,0,1,1,0,0,4.396658780289784,0,0,0,0,0,0,0,0,0,1,148,148,148,148
2384,21786480,0,0,0,0,0,0,0,0,0,1,3,-1,1000,0,0,0,0,1301,37,688,0,0,0,100,99,98,100,148,148,148,148,1,0,0,1,1,0,0,4.396658780289784,0,0,0,0,0,0,0,0,0,0,148,148,148,148
2400,21788478,0,0,0,0,0,0,0,0,0,1,2,-1,1000,0,0,0,0,1301,37,688,0,0,0,100,99,98,100,148,148,148,148,1,0,0,1,1,0,0,4.396658780289784,0,0,0,0,0,0,0,0,0,0,148,148,148,148
2416,21790475,0,0,0,0,0,0,0,0,0,1,2,-1,1000,0,0,0,0,1301,37,688,0,0,0,100,99,98,101,148,148,148,148,1,0,0,1,1,0,0,4.396658780289784,0,0,0,0,0,0,0,0,0,0,148,148,148,148
2432,21792473,0,0,0,0,0,0,0,0,0,1,2,-1,1000,0,0,0,0,1301,37,688,0,0,0,100,99,98,101,148,148,148,148,1,0,0,1,1,0,0,4.396658780289784,0,0,0,0,0,0,0,0,0,0,148,148,148,148
2448,21794471,0,0,0,0,0,0,0,0,0,1,2,-1,1000,0,0,0,0,1301,45,688,0,0,0,100,99,98,101,148,148,148,148,1,0,0,1,1,0,0,4.396658780289784,0,0,0,0,0,0,0,0,0,0,148,148,148,148
2464,21796472,0,0,0,0,0,0,0,0,0,1,2,-1,1000,0,0,0,0,1301,45,689,0,0,0,100,99,98,100,148,148,148,148,1,0,0,1,1,0,0,4.396658780289784,0,0,0,0,0,0,0,0,0,0,148,148,148,148
2480,21798466,0,0,0,0,0,0,0,0,0,1,2,-1,1000,0,0,0,0,1301,45,689,0,0,0,100,99,98,100,148,148,148,148,1,0,0,1,1,0,0,4.396658780289784,0,0,0,0,0,0,0,0,0,0,148,148,148,148
2496,21800464,0,0,0,0,0,0,0,0,0,1,2,-1,1000,0,0,0,0,1301,45,689,0,0,0,100,99,98,100,148,148,148,148,1,0,0,1,1,0,0,4.396658780289784,0,0,0,0,0,0,0,0,0,0,148,148,148,148
2512,21802464,0,0,0,0,0,0,0,0,0,1,2,-1,1000,0,0,0,0,1301,45,689,0,0,0,100,99,98,100,148,148,148,148,1,0,0,1,1,0,0,4.396658780289784,0,0,0,0,0,0,0,0,0,0,148,148,148,148
2528,21804462,0,0,0,0,0,0,0,0,0,1,2,-1,1000,0,0,0,0,1301,45,689,0,0,0,100,99,98,100,148,148,148,148,1,0,0,1,1,0,0,4.396658780289784,0,0,0,0,0,0,0,0,0,0,148,148,148,148
2544,21806459,0,0,0,0,0,0,0,0,0,1,2,-1,1000,0,0,0,0,1307,45,689,0,0,0,100,99,99,100,148,148,148,148,1,0,0,1,1,0,0,4.396658780289784,0,0,0,0,0,0,0,0,0,0,148,148,148,148
2560,21808459,0,0,0,0,0,0,0,0,0,1,2,-1,1000,0,0,0,0,1307,45,689,0,0,0,100,99,99,101,148,148,148,148,1,0,0,1,1,0,0,4.396658780289784,0,0,0,0,0,0,0,0,0,0,148,148,148,148
2576,21810457,0,0,0,0,0,0,0,0,0,1,2,-1,1000,0,0,0,0,1307,45,687,0,0,0,100,99,99,101,148,148,148,148,1,0,0,1,1,0,0,4.396658780289784,0,0,0,0,0,0,0,0,0,0,148,148,148,148
2592,21812456,0,0,0,0,0,0,0,0,0,1,2,-1,1000,0,0,0,0,1307,45,687,0,0,0,100,99,98,101,148,148,148,148,1,0,0,1,1,0,0,4.396658780289784,0,0,0,0,0,0,0,0,0,0,148,148,148,148
2608,21814451,0,0,0,0,0,0,0,0,0,1,2,-1,1000,0,0,0,0,1307,0,687,0,0,0,100,99,98,101,148,148,148,148,1,0,0,1,1,0,0,4.396658780289784,0,0,0,0,0,0,0,0,0,0,148,148,148,148
2624,21816450,0,0,0,0,0,0,0,0,0,1,2,-1,1000,0,0,0,0,1307,0,687,0,0,0,100,99,98,101,148,148,148,148,1,0,0,1,1,0,0,4.396658780289784,0,0,0,0,0,0,0,0,0,0,148,148,148,148
2640,21818447,0,0,0,0,0,0,0,0,0,1,2,-1,1000,0,0,0,0,1307,0,687,0,0,0,100,99,99,101,148,148,148,148,1,0,0,1,1,0,0,4.396658780289784,0,0,0,0,0,0,0,0,0,0,148,148,148,148
2656,21820444,0,0,0,0,0,0,0,0,0,1,2,-1,1000,0,0,0,0,1307,0,687,0,0,0,100,99,99,101,148,148,148,148,1,0,0,1,1,0,0,4.396658780289784,0,0,0,0,0,0,0,0,0,0,148,148,148,148
2672,21822441,0,0,0,0,0,0,0,0,0,1,2,-1,1000,0,0,0,0,1307,0,691,0,0,0,101,99,99,101,148,148,148,148,1,0,0,1,1,0,0,4.396658780289784,0,0,0,0,0,0,0,0,0,0,148,148,148,148
2688,21824440,0,0,0,0,0,0,0,0,0,1,2,-1,1000,0,0,0,0,1307,0,691,0,0,0,101,99,98,101,148,148,148,148,1,0,0,1,1,0,0,4.396658780289784,0,0,0,0,0,0,0,0,0,0,148,148,148,148
2704,21826436,0,0,0,0,0,0,0,0,0,1,2,-1,1000,0,0,0,0,1303,0,691,0,0,0,101,99,98,101,148,148,148,148,1,0,0,1,1,0,0,4.396658780289784,0,0,0,0,0,0,0,0,0,0,148,148,148,148
2720,21828433,0,0,0,0,0,0,0,0,0,1,2,-1,1000,0,0,0,0,1303,0,691,0,0,0,100,99,98,101,148,148,148,148,1,0,0,1,1,0,0,4.396658780289784,0,0,0,0,0,0,0,0,0,0,148,148,148,148
2736,21830431,0,0,0,0,0,0,0,0,0,1,2,-1,1000,0,0,0,0,1303,0,691,0,0,0,100,99,99,101,148,148,148,148,1,0,0,1,1,0,0,4.396658780289784,0,0,0,0,0,0,0,0,0,0,148,148,148,148
2752,21832429,0,0,0,0,0,0,0,0,0,1,2,-1,1000,0,0,0,0,1303,0,691,0,0,0,100,100,99,101,148,148,148,148,1,0,0,1,1,0,0,4.396658780289784,0,0,0,0,0,0,0,0,0,0,148,148,148,148
2768,21834426,0,0,0,0,0,0,0,0,0,1,2,-1,1000,0,0,0,0,1303,0,691,0,0,0,101,100,99,101,148,148,148,148,1,0,0,1,1,0,0,4.396658780289784,0,0,0,0,0,0,0,0,0,0,148,148,148,148
2784,21836425,0,0,0,0,0,0,0,0,0,1,2,-1,1000,0,0,0,0,1303,0,691,0,0,0,101,100,99,101,148,148,148,148,1,0,0,1,1,0,0,4.396658780289784,0,0,0,0,0,0,0,0,0,0,148,148,148,148
2800,21838422,0,0,0,0,0,0,0,0,0,1,2,-1,1000,0,0,0,0,1303,0,691,0,0,0,101,99,99,100,148,148,148,148,1,0,0,1,1,0,0,4.396658780289784,0,0,0,0,0,0,0,0,0,0,148,148,148,148
2816,21840422,0,0,0,0,0,0,0,0,0,1,2,-1,1000,0,0,0,0,1303,0,691,0,0,0,101,99,99,100,148,148,148,148,1,0,0,1,1,0,0,4.396658780289784,0,0,0,0,0,0,0,0,0,0,148,148,148,148
2832,21842418,0,0,0,0,0,0,0,0,0,1,2,-1,1000,0,0,0,0,1303,0,691,0,0,0,101,99,99,100,148,148,148,148,1,0,0,1,1,0,0,4.396658780289784,0,0,0,0,0,0,0,0,0,0,148,148,148,148
2848,21844415,0,0,0,0,0,0,0,0,0,1,2,-1,1000,0,0,0,0,1303,0,691,0,0,0,101,100,99,101,148,148,148,148,1,0,0,1,1,0,0,4.396658780289784,0,0,0,0,0,0,0,0,0,0,148,148,148,148
2864,21846413,0,0,0,0,0,0,0,0,0,1,2,-1,1000,0,0,0,0,1304,0,692,0,0,0,101,100,99,101,148,148,148,148,1,0,0,1,1,0,0,4.396658780289784,0,0,0,0,0,0,0,0,0,0,148,148,148,148
2880,21848411,0,0,0,0,0,0,0,0,0,1,2,-1,1000,0,0,0,0,1304,0,692,0,0,0,101,100,99,101,148,148,148,148,1,0,0,1,1,0,0,4.396658780289784,0,0,0,0,0,0,0,0,0,0,148,148,148,148
2896,21850409,0,0,0,0,0,0,0,0,0,1,2,-1,1000,0,0,0,0,1304,0,692,0,0,0,101,99,99,100,148,148,148,148,1,0,0,1,1,0,0,4.396658780289784,0,0,0,0,0,0,0,0,0,0,148,148,148,148
2912,21852406,0,0,0,0,0,0,0,0,0,1,2,-1,1000,0,0,0,0,1304,0,692,0,0,0,100,99,99,100,148,148,148,148,1,0,0,1,1,0,0,4.396658780289784,0,0,0,0,0,0,0,0,0,0,148,148,148,148
2928,21854405,0,0,0,0,0,0,0,0,0,1,2,-1,1000,0,0,0,0,1304,0,692,0,0,0,100,99,98,100,148,148,148,148,1,0,0,1,1,0,0,4.396658780289784,0,0,0,0,0,0,0,0,0,0,148,148,148,148
2944,21856402,0,0,0,0,0,0,0,0,0,1,2,-1,1000,0,0,0,0,1304,0,692,0,0,0,100,99,98,101,148,148,148,148,1,0,0,1,1,0,0,4.396658780289784,0,0,0,0,0,0,0,0,0,0,148,148,148,148
2960,21858400,0,0,0,0,0,0,0,0,0,1,2,-1,1000,0,0,0,0,1304,0,691,0,0,0,101,99,98,101,148,148,148,148,1,0,0,1,1,0,0,4.396658780289784,0,0,0,0,0,0,0,0,0,0,148,148,148,148
2976,21860398,0,0,0,0,0,0,0,0,0,1,2,-1,1000,0,0,0,0,1304,0,691,0,0,0,101,99,99,101,148,148,148,148,1,0,0,1,1,0,0,4.396658780289784,0,0,0,0,0,0,0,0,0,0,148,148,148,148
2992,21862398,0,0,0,0,0,0,0,0,0,1,2,-1,1000,0,0,0,0,1304,0,691,0,0,0,101,100,99,100,148,148,148,148,1,0,0,1,1,0,0,4.396658780289784,0,0,0,0,0,0,0,0,0,0,148,148,148,148
3008,21864393,0,0,0,0,0,0,0,0,0,1,2,-1,1000,0,0,0,0,1304,0,691,0,0,0,101,100,99,100,148,148,148,148,1,0,0,1,1,0,0,4.396658780289784,0,0,0,0,0,0,0,0,0,0,148,148,148,148
3024,21866392,0,0,0,0,0,0,0,0,0,1,2,-1,1000,0,0,0,0,1305,0,691,0,0,0,101,100,99,100,148,148,148,148,1,0,0,1,1,0,0,4.396658780289784,0,0,0,0,0,0,0,0,0,0,148,148,148,148
3040,21868389,0,0,0,0,0,0,0,0,0,1,2,-1,1000,0,0,0,0,1305,0,691,0,0,0,100,100,99,101,148,148,148,148,1,0,0,1,1,0,0,4.396658780289784,0,0,0,0,0,0,0,0,0,0,148,148,148,148
3056,21870386,0,0,0,0,0,0,0,0,0,1,2,-1,1000,0,0,0,0,1305,0,692,0,0,0,100,100,99,101,148,148,148,148,1,0,0,1,1,0,0,4.396658780289784,0,0,0,0,0,0,0,0,0,0,148,148,148,148
3072,21872385,0,0,0,0,0,0,0,0,0,1,2,-1,1000,0,0,0,0,1305,0,692,0,0,0,100,100,99,101,148,148,148,148,1,0,0,1,1,0,0,4.396658780289784,0,0,0,0,0,0,0,0,0,0,148,148,148,148
3088,21874382,0,0,0,0,0,0,0,0,0,1,2,-1,1000,0,0,0,0,1305,0,692,0,0,0,100,99,99,101,148,148,148,148,1,0,0,1,1,0,0,4.396658780289784,0,0,0,0,0,0,0,0,0,0,148,148,148,148
3104,21876380,0,0,0,0,0,0,0,0,0,1,2,-1,1000,0,0,0,0,1305,0,692,0,0,0,101,99,99,101,148,148,148,148,1,0,0,1,1,0,0,4.396658780289784,0,0,0,0,0,0,0,0,0,0,148,148,148,148
3120,21878378,0,0,0,0,0,0,0,0,0,1,2,-2,1000,0,0,0,0,1305,0,692,0,0,0,101,99,99,101,148,148,148,148,1,0,0,1,1,0,0,4.396658780289784,0,0,0,0,0,0,0,0,0,0,148,148,148,148
3136,21880376,0,0,0,0,0,0,0,0,0,1,2,-2,1000,0,0,0,0,1305,0,692,0,0,0,101,100,99,101,148,148,148,148,1,0,0,1,1,0,0,4.396658780289784,0,0,0,0,0,0,0,0,0,0,148,148,148,148
3152,21882373,0,0,0,0,0,0,0,0,0,1,2,-1,1000,0,0,0,0,1305,0,688,0,0,0,101,100,99,101,148,148,148,148,1,0,0,1,1,0,0,4.396658780289784,0,0,0,0,0,0,0,0,0,0,148,148,148,148
3168,21884376,0,0,0,0,0,0,0,0,0,1,2,-1,1000,0,0,0,0,1305,0,688,0,0,0,101,100,98,101,148,148,148,148,1,0,0,1,1,0,0,4.396658780289784,0,0,0,0,0,0,0,0,0,0,148,148,148,148
3184,21886371,0,0,0,0,0,0,0,0,0,1,2,-1,1000,0,0,0,0,1304,0,688,0,0,0,101,100,98,101,148,148,148,148,1,0,0,1,1,0,0,4.396658780289784,0,0,0,0,0,0,0,0,0,0,148,148,148,148
3200,21888367,0,0,0,0,0,0,0,0,0,1,2,-1,1000,0,0,0,0,1304,0,688,0,0,0,101,100,98,101,148,148,148,148,1,0,0,1,1,0,0,4.396658780289784,0,0,0,0,0,0,0,0,0,0,148,148,148,148
3216,21890366,0,0,0,0,0,0,0,0,0,1,2,-1,1000,0,0,0,0,1304,0,688,0,0,0,101,100,99,101,148,148,148,148,1,0,0,1,1,0,0,4.396658780289784,0,0,0,0,0,0,0,0,0,0,148,148,148,148
3232,21892362,0,0,0,0,0,0,0,0,0,1,2,-1,1000,0,0,0,0,1304,0,688,0,0,0,101,100,99,101,148,148,148,148,1,0,0,1,1,0,0,4.396658780289784,0,0,0,0,0,0,0,0,0,0,148,148,148,148
3248,21894360,0,0,0,0,0,0,0,0,0,1,2,-1,1000,0,0,0,0,1304,27,688,0,0,0,101,100,99,101,148,148,148,148,1,0,0,1,1,0,0,4.396658780289784,0,0,0,0,0,0,0,0,0,0,148,148,148,148
3264,21896358,0,0,0,0,0,0,0,0,0,1,2,-1,1000,0,0,0,0,1304,27,688,0,1,0,101,100,99,101,148,148,148,148,1,0,0,1,1,0,0,4.396658780290102,0,0,0,0,0,0,0,0,-1,0,148,148,148,148
3280,21898356,0,0,0,0,0,0,0,0,0,1,2,-1,1000,0,0,0,0,1304,27,688,0,0,0,101,100,99,101,148,148,148,148,1,0,0,1,1,0,0,4.396658780290102,0,0,0,0,0,0,0,0,0,0,148,148,148,148
3296,21900354,0,0,0,0,0,0,0,0,0,1,2,-1,1000,0,0,0,0,1304,27,688,0,0,0,101,100,99,101,148,148,148,148,1,0,0,1,1,0,0,4.396658780290102,0,0,0,0,0,0,0,0,0,0,148,148,148,148
3312,21902352,0,0,0,0,0,0,0,0,0,1,2,-1,1000,0,0,0,0,1304,27,688,0,0,0,101,100,99,101,148,148,148,148,1,0,0,1,1,0,0,4.396658780290102,0,0,0,0,0,0,0,0,0,0,148,148,148,148
3328,21904349,0,0,0,0,0,0,0,0,0,1,2,-1,1000,0,0,0,0,1304,27,688,0,0,0,101,99,99,100,148,148,148,148,1,0,0,1,1,0,0,4.396658780290102,0,0,0,0,0,0,0,0,0,0,148,148,148,148
3344,21906352,0,0,0,0,0,0,0,0,0,1,2,-1,1000,0,0,0,0,1302,27,688,0,0,0,101,99,99,100,148,148,148,148,1,0,0,1,1,0,0,4.396658780290102,0,0,0,0,0,0,0,0,0,0,148,148,148,148
3360,21908346,0,0,0,0,0,0,0,0,0,1,2,-1,1000,0,0,0,0,1302,27,688,0,0,0,101,99,99,100,148,148,148,148,1,0,0,1,1,0,0,4.396658780290102,0,0,0,0,0,0,0,0,0,0,148,148,148,148
3376,21910343,0,0,0,0,0,0,0,0,0,1,3,-1,1000,0,0,0,0,1302,27,688,0,0,1,101,100,99,102,148,148,148,148,1,0,0,1,1,0,0,4.39662392606494,0,0,0,0,0,0,0,0,0,-1,148,148,148,148
3392,21912341,0,0,0,0,0,0,0,0,0,1,3,-1,1000,0,0,0,0,1302,27,688,0,0,0,101,100,99,102,148,148,148,148,1,0,0,1,1,0,0,4.39662392606494,0,0,0,0,0,0,0,0,0,0,148,148,148,148
3408,21914338,0,0,0,0,0,0,0,0,0,1,2,-1,1000,0,0,0,0,1302,0,688,0,0,0,101,100,99,102,148,148,148,148,1,0,0,1,1,0,0,4.39662392606494,0,0,0,0,0,0,0,0,0,0,148,148,148,148
3424,21916336,0,0,0,0,0,0,0,0,0,1,2,-1,1000,0,0,0,0,1302,0,688,0,0,0,101,100,99,101,148,148,148,148,1,0,0,1,1,0,0,4.39662392606494,0,0,0,0,0,0,0,0,0,0,148,148,148,148
3440,21918399,0,0,0,0,0,0,0,0,0,1,2,-1,1000,0,0,0,0,1302,0,688,0,0,0,101,100,99,101,148,148,148,148,1,0,0,1,1,0,0,4.39662392606494,0,0,0,0,0,0,0,0,0,0,148,148,148,148
3456,21920332,0,0,0,0,0,0,0,0,0,1,2,-1,1000,0,0,0,0,1302,0,688,0,0,0,101,100,99,101,148,148,148,148,1,0,0,1,1,0,0,4.39662392606494,0,0,0,0,0,0,0,0,0,0,148,148,148,148
3472,21922330,0,0,0,0,0,0,0,0,0,1,2,-1,1000,0,0,0,0,1302,0,688,0,0,0,100,100,99,101,148,148,148,148,1,0,0,1,1,0,0,4.39662392606494,0,0,0,0,0,0,0,0,0,0,148,148,148,148
3488,21924327,0,0,0,0,0,0,0,0,0,1,2,-1,1000,0,0,0,0,1302,0,688,0,0,0,100,100,99,101,148,148,148,148,1,0,0,1,1,0,0,4.39662392606494,0,0,0,0,0,0,0,0,0,0,148,148,148,148
3504,21926328,0,0,0,0,0,0,0,0,0,1,2,-1,1000,0,0,0,0,1305,0,688,0,0,0,100,100,99,101,148,148,148,148,1,0,0,1,1,0,0,4.39662392606494,0,0,0,0,0,0,0,0,0,0,148,148,148,148
3520,21928328,0,0,0,0,0,0,0,0,0,1,2,-1,1000,0,0,0,0,1305,0,688,0,0,0,101,100,99,101,148,148,148,148,1,0,0,1,1,0,0,4.39662392606494,0,0,0,0,0,0,0,0,0,0,148,148,148,148
3536,21930321,0,0,0,0,0,0,0,0,0,1,3,-1,1000,0,0,0,0,1305,0,688,0,0,0,101,100,99,101,148,148,148,148,1,0,0,1,1,0,0,4.39662392606494,0,0,0,0,0,0,0,0,0,0,148,148,148,148
3552,21932319,0,0,0,0,0,0,0,0,0,1,3,-1,1000,0,0,0,0,1305,0,688,0,0,0,101,100,100,101,148,148,148,148,1,0,0,1,1,0,0,4.39662392606494,0,0,0,0,0,0,0,0,0,0,148,148,148,148
3568,21934317,0,0,0,0,0,0,0,0,0,1,2,-1,1000,0,0,0,0,1305,7,688,0,0,0,101,100,100,101,148,148,148,148,1,0,0,1,1,0,0,4.39662392606494,0,0,0,0,0,0,0,0,0,0,148,148,148,148
3584,21936314,0,0,0,0,0,0,0,0,0,1,2,-1,1000,0,0,0,0,1305,7,688,0,0,0,101,100,100,101,148,148,148,148,1,0,0,1,1,0,0,4.39662392606494,0,0,0,0,0,0,0,0,0,0,148,148,148,148
3600,21938313,0,0,0,0,0,0,0,0,0,1,2,-1,1000,0,0,0,0,1305,7,688,0,0,0,101,100,99,101,148,148,148,148,1,0,0,1,1,0,0,4.39662392606494,0,0,0,0,0,0,0,0,0,0,148,148,148,148
3616,21940310,0,0,0,0,0,0,0,0,0,1,2,-1,1000,0,0,0,0,1305,7,688,0,0,0,101,100,99,101,148,148,148,148,1,0,0,1,1,0,0,4.39662392606494,0,0,0,0,0,0,0,0,0,0,148,148,148,148
3632,21942310,0,0,0,0,0,0,0,0,0,1,2,-1,1000,0,0,0,0,1305,7,688,0,0,0,101,100,99,101,148,148,148,148,1,0,0,1,1,0,0,4.39662392606494,0,0,0,0,0,0,0,0,0,0,148,148,148,148
3648,21944306,0,0,0,0,0,0,0,0,0,1,2,-1,1000,0,0,0,0,1305,7,688,0,0,0,101,100,99,101,148,148,148,148,1,0,0,1,1,0,0,4.39662392606494,0,0,0,0,0,0,0,0,0,0,148,148,148,148
3664,21946304,0,0,0,0,0,0,0,0,0,1,2,-1,1000,0,0,0,0,1305,7,688,0,0,0,101,99,99,101,148,148,148,148,1,0,0,1,1,0,0,4.39662392606494,0,0,0,0,0,0,0,0,0,0,148,148,148,148
3680,21948301,0,0,0,0,0,0,0,0,0,1,2,-1,1000,0,0,0,0,1303,7,688,0,0,0,101,99,99,101,148,148,148,148,1,0,0,1,1,0,0,4.39662392606494,0,0,0,0,0,0,0,0,0,0,148,148,148,148
3696,21950304,0,0,0,0,0,0,0,0,0,1,2,-1,1000,0,0,0,0,1303,7,688,0,0,0,101,99,99,100,148,148,148,148,1,0,0,1,1,0,0,4.39662392606494,0,0,0,0,0,0,0,0,0,0,148,148,148,148
3712,21952298,0,0,0,0,0,0,0,0,0,1,2,-1,1000,0,0,0,0,1303,7,688,0,0,0,101,100,99,100,148,148,148,148,1,0,0,1,1,0,0,4.39662392606494,0,0,0,0,0,0,0,0,0,0,148,148,148,148
3728,21954296,0,0,0,0,0,0,0,0,0,1,2,-1,1000,0,0,0,0,1303,0,688,0,0,0,101,100,99,100,148,148,148,148,1,0,0,1,1,0,0,4.39662392606494,0,0,0,0,0,0,0,0,0,0,148,148,148,148
3744,21956294,0,0,0,0,0,0,0,0,0,1,2,-1,1000,0,0,0,0,1303,0,689,0,0,0,101,100,99,102,148,148,148,148,1,0,0,1,1,0,0,4.39662392606494,0,0,0,0,0,0,0,0,0,0,148,148,148,148
3760,21958290,0,0,0,0,0,0,0,0,0,1,2,-1,1000,0,0,0,0,1303,0,689,0,0,0,101,100,99,102,148,148,148,148,1,0,0,1,1,0,0,4.39662392606494,0,0,0,0,0,0,0,0,0,0,148,148,148,148
3776,21960288,0,0,0,0,0,0,0,0,0,1,2,-1,1000,0,0,0,0,1303,0,689,0,0,0,101,100,99,102,148,148,148,148,1,0,0,1,1,0,0,4.39662392606494,0,0,0,0,0,0,0,0,0,0,148,148,148,148
3792,21962287,0,0,0,0,0,0,0,0,0,1,2,-1,1000,0,0,0,0,1303,0,689,0,0,0,101,100,100,101,148,148,148,148,1,0,0,1,1,0,0,4.39662392606494,0,0,0,0,0,0,0,0,0,0,148,148,148,148
3808,21964285,0,0,0,0,0,0,0,0,0,1,2,-1,1000,0,0,0,0,1303,0,689,0,0,0,101,100,100,101,148,148,148,148,1,0,0,1,1,0,0,4.39662392606494,0,0,0,0,0,0,0,0,0,0,148,148,148,148
3824,21966284,0,0,0,0,0,0,0,0,0,1,2,-1,1000,0,0,0,0,1303,0,689,0,0,0,101,100,100,101,148,148,148,148,1,0,0,1,1,0,0,4.39662392606494,0,0,0,0,0,0,0,0,0,0,148,148,148,148
3840,21968281,0,0,0,0,0,0,0,0,0,1,2,-1,1000,0,0,0,0,1303,0,689,0,0,0,101,100,99,101,148,148,148,148,1,0,0,1,1,0,0,4.39662392606494,0,0,0,0,0,0,0,0,0,0,148,148,148,148
3856,21970278,0,0,0,0,0,0,0,0,0,1,2,-1,1000,0,0,0,0,1303,0,689,0,0,0,100,100,99,101,148,148,148,148,1,0,0,1,1,0,0,4.39662392606494,0,0,0,0,0,0,0,0,0,0,148,148,148,148
3872,21972277,0,0,0,0,0,0,0,0,0,1,2,-1,1000,0,0,0,0,1303,0,689,0,0,0,100,100,99,101,148,148,148,148,1,0,0,1,1,0,0,4.39662392606494,0,0,0,0,0,0,0,0,0,0,148,148,148,148
3888,21974275,0,0,0,0,0,0,0,0,0,1,2,-1,1000,0,0,0,0,1303,0,689,0,0,0,100,100,100,101,148,148,148,148,1,0,0,1,1,0,0,4.39662392606494,0,0,0,0,0,0,0,0,0,0,148,148,148,148
3904,21976270,0,0,0,0,0,0,0,0,0,1,2,-1,1000,0,0,0,0,1303,0,689,0,0,0,102,101,100,101,148,148,148,148,1,0,0,1,1,0,0,4.39662392606494,0,0,0,0,0,0,0,0,0,0,148,148,148,148
3920,21978270,0,0,0,0,0,0,0,0,0,1,2,-1,1000,0,0,0,0,1303,0,689,0,0,0,102,101,100,101,148,148,148,148,1,0,0,1,1,0,0,4.39662392606494,0,0,0,0,0,0,0,0,0,0,148,148,148,148
3936,21980266,0,0,0,0,0,0,0,0,0,1,3,-1,1000,0,0,0,0,1303,0,689,0,0,0,102,101,99,101,148,148,148,148,1,0,0,1,1,0,0,4.39662392606494,0,0,0,0,0,0,0,0,0,0,148,148,148,148
3952,21982265,0,0,0,0,0,0,0,0,0,1,3,-1,1000,0,0,0,0,1303,0,689,0,0,0,101,100,99,101,148,148,148,148,1,0,0,1,1,0,0,4.39662392606494,0,0,0,0,0,0,0,0,0,0,148,148,148,148
3968,21984261,0,0,0,0,0,0,0,0,0,1,2,-2,1000,0,0,0,0,1303,0,689,0,0,0,101,100,99,101,148,148,148,148,1,0,0,1,1,0,0,4.39662392606494,0,0,0,0,0,0,0,0,0,0,148,148,148,148
3984,21986262,0,0,0,0,0,0,0,0,0,1,2,-2,1000,0,0,0,0,1303,0,689,0,0,0,101,100,100,101,148,148,148,148,1,0,0,1,1,0,0,4.39662392606494,0,0,0,0,0,0,0,0,0,0,148,148,148,148
4000,21988258,0,0,0,0,0,0,0,0,0,1,2,-1,1000,0,0,0,0,1304,0,689,0,0,0,101,100,100,101,148,148,148,148,1,0,0,1,1,0,0,4.39662392606494,0,0,0,0,0,0,0,0,0,0,148,148,148,148
4016,21990255,0,0,0,0,0,0,0,0,0,1,2,-1,1000,0,0,0,0,1304,0,689,0,0,0,101,100,100,101,148,148,148,148,1,0,0,1,1,0,0,4.39662392606494,0,0,0,0,0,0,0,0,0,0,148,148,148,148
4032,21992255,0,0,0,0,0,0,0,0,0,1,2,-1,1000,0,0,0,0,1304,0,690,0,0,0,101,100,99,101,148,148,148,148,1,0,0,1,1,0,0,4.39662392606494,0,0,0,0,0,0,0,0,0,0,148,148,148,148
4048,21994254,0,0,0,0,0,0,0,0,0,1,2,-1,1000,0,0,0,0,1304,0,690,0,0,0,101,100,99,101,148,148,148,148,1,0,0,1,1,0,0,4.39662392606494,0,0,0,0,0,0,0,0,0,0,148,148,148,148
4064,21996248,0,0,0,0,0,0,0,0,0,1,2,-1,1000,0,0,0,0,1304,0,690,0,1,0,101,100,99,101,148,148,148,148,1,0,0,1,1,0,0,4.396623926065364,0,0,0,0,0,0,0,0,-1,0,148,148,148,148
4080,21998246,0,0,0,0,0,0,0,0,0,1,2,-1,1000,0,0,0,0,1304,0,690,0,0,0,101,100,100,101,148,148,148,148,1,0,0,1,1,0,0,4.396623926065364,0,0,0,0,0,0,0,0,0,0,148,148,148,148
4096,22000244,0,0,0,0,0,0,0,0,0,1,2,-1,1000,0,0,0,0,1304,0,690,0,0,0,101,100,100,101,148,148,148,148,1,0,0,1,1,0,0,4.396623926065364,0,0,0,0,0,0,0,0,0,0,148,148,148,148
4112,22002244,0,0,0,0,0,0,0,0,0,1,2,-1,1000,0,0,0,0,1304,0,690,0,0,0,101,100,100,101,148,148,148,148,1,0,0,1,1,0,0,4.396623926065364,0,0,0,0,0,0,0,0,0,0,148,148,148,148
4128,22004241,0,0,0,0,0,0,0,0,0,1,2,-1,1000,0,0,0,0,1304,0,691,0,0,0,101,100,100,101,148,148,148,148,1,0,0,1,1,0,0,4.396623926065364,0,0,0,0,0,0,0,0,0,0,148,148,148,148
4144,22006239,0,0,0,0,0,0,0,0,0,1,2,-1,1000,0,0,0,0,1304,0,691,0,0,0,101,100,100,101,148,148,148,148,1,0,0,1,1,0,0,4.396623926065364,0,0,0,0,0,0,0,0,0,0,148,148,148,148
4160,22008236,0,0,0,0,0,0,0,0,0,1,2,-1,1000,0,0,0,0,1306,0,691,0,0,0,101,100,100,101,148,148,148,148,1,0,0,1,1,0,0,4.396623926065364,0,0,0,0,0,0,0,0,0,0,148,148,148,148
4176,22010235,0,0,0,0,0,0,0,0,0,1,2,-1,1000,0,0,0,0,1306,0,691,0,0,0,101,100,99,101,148,148,148,148,1,0,0,1,1,0,0,4.396623926065364,0,0,0,0,0,0,0,0,0,0,148,148,148,148
4192,22012230,0,0,0,0,0,0,0,0,0,1,2,-1,1000,0,0,0,0,1306,0,691,0,0,0,101,100,99,101,148,148,148,148,1,0,0,1,1,0,0,4.396623926065364,0,0,0,0,0,0,0,0,0,0,148,148,148,148
4208,22014228,0,0,0,0,0,0,0,0,0,1,2,-1,1000,0,0,0,0,1306,0,691,0,0,0,101,100,99,101,148,148,148,148,1,0,0,1,1,0,0,4.396623926065364,0,0,0,0,0,0,0,0,0,0,148,148,148,148
4224,22016233,0,0,0,0,0,0,0,0,0,1,2,-1,1000,0,0,0,0,1306,0,690,0,0,0,101,100,99,101,148,148,148,148,1,0,0,1,1,0,0,4.396623926065364,0,0,0,0,0,0,0,0,0,0,148,148,148,148
4240,22018225,0,0,0,0,0,0,0,0,0,1,2,-1,1000,0,0,0,0,1306,0,690,0,0,0,101,100,99,101,148,148,148,148,1,0,0,1,1,0,0,4.396623926065364,0,0,0,0,0,0,0,0,0,0,148,148,148,148
4256,22020223,0,0,0,0,0,0,0,0,0,1,2,-1,1000,0,0,0,0,1306,0,690,0,0,0,101,100,99,101,148,148,148,148,1,0,0,1,1,0,0,4.396623926065364,0,0,0,0,0,0,0,0,0,0,148,148,148,148
4272,22022219,0,0,0,0,0,0,0,0,0,1,2,-1,1000,0,0,0,0,1306,0,690,0,0,0,101,100,99,101,148,148,148,148,1,0,0,1,1,0,0,4.396623926065364,0,0,0,0,0,0,0,0,0,0,148,148,148,148
4288,22024217,0,0,0,0,0,0,0,0,0,1,2,-1,1000,0,0,0,0,1306,0,690,0,0,-1,101,100,99,101,148,148,148,148,1,0,0,1,1,0,0,4.396658797743818,0,0,0,0,0,0,0,0,0,1,148,148,148,148
4304,22026215,0,0,0,0,0,0,0,0,0,1,2,-1,1000,0,0,0,0,1306,0,690,0,0,0,101,100,99,101,148,148,148,148,1,0,0,1,1,0,0,4.396658797743818,0,0,0,0,0,0,0,0,0,0,148,148,148,148
4320,22028213,0,0,0,0,0,0,0,0,0,1,2,-1,1000,0,0,0,0,1306,0,691,0,0,0,101,100,99,101,148,148,148,148,1,0,0,1,1,0,0,4.396658797743818,0,0,0,0,0,0,0,0,0,0,148,148,148,148
4336,22030213,0,0,0,0,0,0,0,0,0,1,2,-1,1000,0,0,0,0,1306,0,691,0,0,0,102,100,99,101,148,148,148,148,1,0,0,1,1,0,0,4.396658797743818,0,0,0,0,0,0,0,0,0,0,148,148,148,148
4352,22032208,0,0,0,0,0,0,0,0,0,1,2,-1,1000,0,0,0,0,1306,0,691,0,0,0,102,100,99,101,148,148,148,148,1,0,0,1,1,0,0,4.396658797743818,0,0,0,0,0,0,0,0,0,0,148,148,148,148
4368,22034207,0,0,0,0,0,0,0,0,0,1,2,-1,1000,0,0,0,0,1306,0,691,0,0,0,102,100,100,101,148,148,148,148,1,0,0,1,1,0,0,4.396658797743818,0,0,0,0,0,0,0,0,0,0,148,148,148,148
4384,22036206,0,0,0,0,0,0,0,0,0,1,2,-1,1000,0,0,0,0,1306,0,691,0,0,0,100,100,100,101,148,148,148,148,1,0,0,1,1,0,0,4.396658797743818,0,0,0,0,0,0,0,0,0,0,148,148,148,148
4400,22038206,0,0,0,0,0,0,0,0,0,1,2,-1,1000,0,0,0,0,1306,0,691,0,0,0,100,100,100,101,148,148,148,148,1,0,0,1,1,0,0,4.396658797743818,0,0,0,0,0,0,0,0,0,0,148,148,148,148
4416,22040202,0,0,0,0,0,0,0,0,0,1,2,-1,1000,0,0,0,0,1306,0,690,1,0,0,100,100,99,101,148,148,148,148,1,0,0,1,1,0,0,4.396658801386254,0,0,0,0,0,0,0,-1,0,0,148,148,148,148
4432,22042199,0,0,0,0,0,0,0,0,0,1,2,-1,1000,0,0,0,0,1306,0,690,0,0,0,101,100,99,101,148,148,148,148,1,0,0,1,1,0,0,4.396658801386254,0,0,0,0,0,0,0,0,0,0,148,148,148,148
4448,22044197,0,0,0,0,0,0,0,0,0,1,2,-1,1000,0,0,0,0,1306,0,690,0,0,0,101,100,99,101,148,148,148,148,1,0,0,1,1,0,0,4.396658801386254,0,0,0,0,0,0,0,0,0,0,148,148,148,148
4464,22046193,0,0,0,0,0,0,0,0,0,1,2,-1,1000,0,0,0,0,1306,0,690,0,0,0,101,100,100,102,148,148,148,148,1,0,0,1,1,0,0,4.396658801386254,0,0,0,0,0,0,0,0,0,0,148,148,148,148
4480,22048190,0,0,0,0,0,0,0,0,0,1,2,-1,1000,0,0,0,0,1306,0,690,0,0,0,101,100,100,102,148,148,148,148,1,0,0,1,1,0,0,4.396658801386254,0,0,0,0,0,0,0,0,0,0,148,148,148,148
4496,22050189,0,0,0,0,0,0,0,0,0,1,2,-1,1000,0,0,0,0,1306,0,690,0,0,0,101,100,100,102,148,148,148,148,1,0,0,1,1,0,0,4.396658801386254,0,0,0,0,0,0,0,0,0,0,148,148,148,148
4512,22052186,0,0,0,0,0,0,0,0,0,1,2,-1,1000,0,0,0,0,1306,0,689,0,0,0,101,100,99,101,148,148,148,148,1,0,0,1,1,0,0,4.396658801386254,0,0,0,0,0,0,0,0,0,0,148,148,148,148
4528,22054184,0,0,0,0,0,0,0,0,0,1,2,-1,1000,0,0,0,0,1306,85,689,0,0,1,101,100,99,101,148,148,148,148,1,0,0,1,1,0,0,4.396623929707799,0,0,0,0,0,0,0,0,0,-1,148,148,148,148
4544,22056182,0,0,0,0,0,0,0,0,0,1,2,-1,1000,0,0,0,0,1306,85,689,0,0,0,101,100,99,101,148,148,148,148,1,0,0,1,1,0,0,4.396623929707799,0,0,0,0,0,0,0,0,0,0,148,148,148,148
4560,22058180,0,0,0,0,0,0,0,0,0,1,2,-1,1000,0,0,0,0,1306,85,689,0,0,0,101,100,100,101,148,148,148,148,1,0,0,1,1,0,0,4.396623929707799,0,0,0,0,0,0,0,0,0,0,148,148,148,148
4576,22060180,0,0,0,0,0,0,0,0,0,1,2,-1,1000,0,0,0,0,1306,85,689,0,0,0,101,100,100,101,148,148,148,148,1,0,0,1,1,0,0,4.396623929707799,0,0,0,0,0,0,0,0,0,0,148,148,148,148
4592,22062175,0,0,0,0,0,0,0,0,0,1,2,-1,1000,0,0,0,0,1306,85,689,0,0,0,101,100,100,101,148,148,148,148,1,0,0,1,1,0,0,4.396623929707799,0,0,0,0,0,0,0,0,0,0,148,148,148,148
4608,22064173,0,0,0,0,0,0,0,0,0,1,2,-1,1000,0,0,0,0,1306,85,692,0,0,0,101,100,99,102,148,148,148,148,1,0,0,1,1,0,0,4.396623929707799,0,0,0,0,0,0,0,0,0,0,148,148,148,148
4624,22066170,0,0,0,0,0,0,0,0,0,1,2,-1,1000,0,0,0,0,1306,85,692,0,0,0,100,100,99,102,148,148,148,148,1,0,0,1,1,0,0,4.396623929707799,0,0,0,0,0,0,0,0,0,0,148,148,148,148
4640,22068169,0,0,0,0,0,0,0,0,0,1,2,-1,1000,0,0,0,0,1305,85,692,0,0,0,100,100,99,101,148,148,148,148,1,0,0,1,1,0,0,4.396623929707799,0,0,0,0,0,0,0,0,0,0,148,148,148,148
4656,22070167,0,0,0,0,0,0,0,0,0,1,2,-1,1000,0,0,0,0,1305,85,692,0,0,0,100,100,100,101,148,148,148,148,1,0,0,1,1,0,0,4.396623929707799,0,0,0,0,0,0,0,0,0,0,148,148,148,148
4672,22072164,0,0,0,0,0,0,0,0,0,1,2,-1,1000,0,0,0,0,1305,85,692,0,0,0,101,100,100,101,148,148,148,148,1,0,0,1,1,0,0,4.396623929707799,0,0,0,0,0,0,0,0,0,0,148,148,148,148
4688,22074162,0,0,0,0,0,0,0,0,0,1,2,-1,1000,0,0,0,0,1305,0,692,0,0,0,101,100,100,101,148,148,148,148,1,0,0,1,1,0,0,4.396623929707799,0,0,0,0,0,0,0,0,0,0,148,148,148,148
4704,22076161,0,0,0,0,0,0,0,0,0,1,2,-1,1000,0,0,0,0,1305,0,692,0,0,0,101,100,99,101,148,148,148,148,1,0,0,1,1,0,0,4.396623929707799,0,0,0,0,0,0,0,0,0,0,148,148,148,148
4720,22078158,0,0,0,0,0,0,0,0,0,1,2,-1,1000,0,0,0,0,1305,0,692,0,0,0,101,100,99,101,148,148,148,148,1,0,0,1,1,0,0,4.396623929707799,0,0,0,0,0,0,0,0,0,0,148,148,148,148
4736,22080156,0,0,0,0,0,0,0,0,0,1,3,-1,1000,0,0,0,0,1305,0,692,0,0,0,101,100,99,102,148,148,148,148,1,0,0,1,1,0,0,4.396623929707799,0,0,0,0,0,0,0,0,0,0,148,148,148,148
4752,22082157,0,0,0,0,0,0,0,0,0,1,3,-1,1000,0,0,0,0,1305,0,692,0,0,0,101,100,99,102,148,148,148,148,1,0,0,1,1,0,0,4.396623929707799,0,0,0,0,0,0,0,0,0,0,148,148,148,148
4768,22084151,0,0,0,0,0,0,0,0,0,1,2,-1,1000,0,0,0,0,1305,0,692,0,0,0,101,100,99,102,148,148,148,148,1,0,0,1,1,0,0,4.396623929707799,0,0,0,0,0,0,0,0,0,0,148,148,148,148
4784,22086149,0,0,0,0,0,0,0,0,0,1,2,-1,1000,0,0,0,0,1305,0,692,0,0,0,101,100,99,101,148,148,148,148,1,0,0,1,1,0,0,4.396623929707799,0,0,0,0,0,0,0,0,0,0,148,148,148,148
4800,22088148,0,0,0,0,0,0,0,0,0,1,2,-1,1000,0,0,0,0,1306,0,692,0,0,0,101,100,100,101,148,148,148,148,1,0,0,1,1,0,0,4.396623929707799,0,0,0,0,0,0,0,0,0,0,148,148,148,148
4816,22090145,0,0,0,0,0,0,0,0,0,1,2,-1,1000,0,0,0,0,1306,0,692,0,0,0,101,100,100,101,148,148,148,148,1,0,0,1,1,0,0,4.396623929707799,0,0,0,0,0,0,0,0,0,0,148,148,148,148
4832,22092145,0,0,0,0,0,0,0,0,0,1,2,-1,1000,0,0,0,0,1306,0,692,0,0,0,101,100,100,101,148,148,148,148,1,0,0,1,1,0,0,4.396623929707799,0,0,0,0,0,0,0,0,0,0,148,148,148,148
4848,22094143,0,0,0,0,0,0,0,0,0,1,2,-1,1000,0,0,0,0,1306,0,692,0,0,0,101,100,99,101,148,148,148,148,1,0,0,1,1,0,0,4.396623929707799,0,0,0,0,0,0,0,0,0,0,148,148,148,148
4864,22096140,0,0,0,0,0,0,0,0,0,1,2,-1,1000,0,0,0,0,1306,0,692,0,1,0,101,101,99,101,148,148,148,148,1,0,0,1,1,0,0,4.396623929708392,0,0,0,0,0,0,0,0,-1,0,148,148,148,148
4880,22098137,0,0,0,0,0,0,0,0,0,1,2,-1,1000,0,0,0,0,1306,0,692,0,0,0,101,101,99,101,148,148,148,148,1,0,0,1,1,0,0,4.396623929708392,0,0,0,0,0,0,0,0,0,0,148,148,148,148
4896,22100137,0,0,0,0,0,0,0,0,0,1,2,-1,1000,0,0,0,0,1306,0,693,0,0,0,101,101,100,101,148,148,148,148,1,0,0,1,1,0,0,4.396623929708392,0,0,0,0,0,0,0,0,0,0,148,148,148,148
4912,22102133,0,0,0,0,0,0,0,0,0,1,2,-1,1000,0,0,0,0,1306,0,693,0,0,0,101,100,100,101,148,148,148,148,1,0,0,1,1,0,0,4.396623929708392,0,0,0,0,0,0,0,0,0,0,148,148,148,148
4928,22104132,0,0,0,0,0,0,0,0,0,1,2,-1,1000,0,0,0,0,1306,0,693,0,0,0,101,100,100,101,148,148,148,148,1,0,0,1,1,0,0,4.396623929708392,0,0,0,0,0,0,0,0,0,0,148,148,148,148
4944,22106127,0,0,0,0,0,0,0,0,0,1,2,-1,1000,0,0,0,0,1306,0,693,0,0,0,101,100,99,101,148,148,148,148,1,0,0,1,1,0,0,4.396623929708392,0,0,0,0,0,0,0,0,0,0,148,148,148,148
4960,22108125,0,0,0,0,0,0,0,0,0,1,2,-1,1000,0,0,0,0,1306,0,693,0,0,0,101,100,99,101,148,148,148,148,1,0,0,1,1,0,0,4.396623929708392,0,0,0,0,0,0,0,0,0,0,148,148,148,148
4976,22110122,0,0,0,0,0,0,0,0,0,1,2,-1,1000,0,0,0,0,1307,0,693,0,0,0,101,100,99,101,148,148,148,148,1,0,0,1,1,0,0,4.396623929708392,0,0,0,0,0,0,0,0,0,0,148,148,148,148
4992,22112121,0,0,0,0,0,0,0,0,0,1,2,-1,1000,0,0,0,0,1307,0,693,0,0,0,101,100,100,101,148,148,148,148,1,0,0,1,1,0,0,4.396623929708392,0,0,0,0,0,0,0,0,0,0,148,148,148,148
5008,22114118,0,0,0,0,0,0,0,0,0,1,2,-1,1000,0,0,0,0,1307,0,690,0,0,0,101,100,100,101,148,148,148,148,1,0,0,1,1,0,0,4.396623929708392,0,0,0,0,0,0,0,0,0,0,148,148,148,148
5024,22116118,0,0,0,0,0,0,0,0,0,1,2,-1,1000,0,0,0,0,1307,0,690,0,0,0,101,100,100,101,148,148,148,148,1,0,0,1,1,0,0,4.396623929708392,0,0,0,0,0,0,0,0,0,0,148,148,148,148
5040,22118114,0,0,0,0,0,0,0,0,0,1,2,-1,1000,0,0,0,0,1307,0,690,0,0,0,101,100,99,101,148,148,148,148,1,0,0,1,1,0,0,4.396623929708392,0,0,0,0,0,0,0,0,0,0,148,148,148,148
5056,22120113,0,0,0,0,0,0,0,0,0,1,2,-1,1000,0,0,0,0,1307,0,690,0,0,0,101,100,99,101,148,148,148,148,1,0,0,1,1,0,0,4.396623929708392,0,0,0,0,0,0,0,0,0,0,148,148,148,148
5072,22122109,0,0,0,0,0,0,0,0,0,1,2,-1,1000,0,0,0,0,1307,0,690,0,0,0,101,100,99,101,148,148,148,148,1,0,0,1,1,0,0,4.396623929708392,0,0,0,0,0,0,0,0,0,0,148,148,148,148
5088,22124111,0,0,0,0,0,0,0,0,0,1,2,-1,1000,0,0,0,0,1307,0,690,0,0,0,101,100,100,101,148,148,148,148,1,0,0,1,1,0,0,4.396623929708392,0,0,0,0,0,0,0,0,0,0,148,148,148,148
5104,22126109,0,0,0,0,0,0,0,0,0,1,2,-1,1000,0,0,0,0,1307,0,690,0,0,0,101,100,100,101,148,148,148,148,1,0,0,1,1,0,0,4.396623929708392,0,0,0,0,0,0,0,0,0,0,148,148,148,148
5120,22128107,0,0,0,0,0,0,0,0,0,1,2,-1,1000,0,0,0,0,1307,0,690,0,0,0,101,100,100,102,148,148,148,148,1,0,0,1,1,0,0,4.396623929708392,0,0,0,0,0,0,0,0,0,0,148,148,148,148
5136,22130102,0,0,0,0,0,0,0,0,0,1,2,-1,1000,0,0,0,0,1303,0,690,0,0,0,101,100,99,102,148,148,148,148,1,0,0,1,1,0,0,4.396623929708392,0,0,0,0,0,0,0,0,0,0,148,148,148,148
5152,22132102,0,0,0,0,0,0,0,0,0,1,2,-1,1000,0,0,0,0,1303,0,690,0,0,0,101,100,99,102,148,148,148,148,1,0,0,1,1,0,0,4.396623929708392,0,0,0,0,0,0,0,0,0,0,148,148,148,148
5168,22134096,0,0,0,0,0,0,0,0,0,1,2,-1,1000,0,0,0,0,1303,0,690,0,0,0,101,100,99,101,148,148,148,148,1,0,0,1,1,0,0,4.396623929708392,0,0,0,0,0,0,0,0,0,0,148,148,148,148
5184,22136096,0,0,0,0,0,0,0,0,0,1,2,-1,1000,0,0,0,0,1303,0,690,0,0,0,101,100,99,101,148,148,148,148,1,0,0,1,1,0,0,4.396623929708392,0,0,0,0,0,0,0,0,0,0,148,148,148,148
5200,22138092,0,0,0,0,0,0,0,0,0,1,2,-1,1000,0,0,0,0,1303,0,689,0,0,0,101,101,99,101,148,148,148,148,1,0,0,1,1,0,0,4.396623929708392,0,0,0,0,0,0,0,0,0,0,148,148,148,148
5216,22140094,0,0,0,0,0,0,0,0,0,1,2,-1,1000,0,0,0,0,1303,0,689,0,0,0,101,101,99,101,148,148,148,148,1,0,0,1,1,0,0,4.396623929708392,0,0,0,0,0,0,0,0,0,0,148,148,148,148
5232,22142087,0,0,0,0,0,0,0,0,0,1,2,-1,1000,0,0,0,0,1303,0,689,0,0,0,101,101,100,101,148,148,148,148,1,0,0,1,1,0,0,4.396623929708392,0,0,0,0,0,0,0,0,0,0,148,148,148,148
5248,22144085,0,0,0,0,0,0,0,0,0,1,2,-1,1000,0,0,0,0,1303,0,689,0,0,0,101,100,100,101,148,148,148,148,1,0,0,1,1,0,0,4.396623929708392,0,0,0,0,0,0,0,0,0,0,148,148,148,148
5264,22146083,0,0,0,0,0,0,0,0,0,1,2,-1,1000,0,0,0,0,1303,0,689,0,0,0,101,100,100,102,148,148,148,148,1,0,0,1,1,0,0,4.396623929708392,0,0,0,0,0,0,0,0,0,0,148,148,148,148
5280,22148086,0,0,0,0,0,0,0,0,0,1,2,-1,1000,0,0,0,0,1303,0,689,0,0,0,100,100,99,102,148,148,148,148,1,0,0,1,1,0,0,4.396623929708392,0,0,0,0,0,0,0,0,0,0,148,148,148,148
5296,22150081,0,0,0,0,0,0,0,0,0,1,2,-1,1000,0,0,0,0,1304,0,690,0,0,0,100,100,99,102,148,148,148,148,1,0,0,1,1,0,0,4.396623929708392,0,0,0,0,0,0,0,0,0,0,148,148,148,148
5312,22152078,0,0,0,0,0,0,0,0,0,1,2,-1,1000,0,0,0,0,1304,0,690,0,0,0,100,100,99,101,148,148,148,148,1,0,0,1,1,0,0,4.396623929708392,0,0,0,0,0,0,0,0,0,0,148,148,148,148
5328,22154076,0,0,0,0,0,0,0,0,0,1,2,-1,1000,0,0,0,0,1304,62,690,0,0,0,101,100,100,101,148,148,148,148,1,0,0,1,1,0,0,4.396623929708392,0,0,0,0,0,0,0,0,0,0,148,148,148,148
5344,22156074,0,0,0,0,0,0,0,0,0,1,2,-1,1000,0,0,0,0,1304,62,690,0,0,0,101,100,100,101,148,148,148,148,1,0,0,1,1,0,0,4.396623929708392,0,0,0,0,0,0,0,0,0,0,148,148,148,148
5360,22158071,0,0,0,0,0,0,0,0,0,1,2,-1,1000,0,0,0,0,1304,62,690,0,0,0,101,100,100,101,148,148,148,148,1,0,0,1,1,0,0,4.396623929708392,0,0,0,0,0,0,0,0,0,0,148,148,148,148
5376,22160068,0,0,0,0,0,0,0,0,0,1,2,-1,1000,0,0,0,0,1304,62,690,0,0,0,101,100,99,101,148,148,148,148,1,0,0,1,1,0,0,4.396623929708392,0,0,0,0,0,0,0,0,0,0,148,148,148,148
5392,22162066,0,0,0,0,0,0,0,0,0,1,2,-1,1000,0,0,0,0,1304,62,689,0,0,0,101,100,99,101,148,148,148,148,1,0,0,1,1,0,0,4.396623929708392,0,0,0,0,0,0,0,0,0,0,148,148,148,148
5408,22164062,0,0,0,0,0,0,0,0,0,1,2,-1,1000,0,0,0,0,1304,62,689,0,0,0,101,100,99,101,148,148,148,148,1,0,0,1,1,0,0,4.396623929708392,0,0,0,0,0,0,0,0,0,0,148,148,148,148
5424,22166061,0,0,0,0,0,0,0,0,0,1,2,-1,1000,0,0,0,0,1304,62,689,0,0,0,101,100,99,101,148,148,148,148,1,0,0,1,1,0,0,4.396623929708392,0,0,0,0,0,0,0,0,0,0,148,148,148,148
5440,22168058,0,0,0,0,0,0,0,0,0,1,2,-1,1000,0,0,0,0,1304,62,689,0,0,0,101,100,99,101,148,148,148,148,1,0,0,1,1,0,0,4.396623929708392,0,0,0,0,0,0,0,0,0,0,148,148,148,148
